{"WFRD W1 c c":{"0":{"headsign":"The Quay","coords":[[52.262005,-7.110817],[52.260832,-7.105683],[52.260301,-7.105056],[52.257184,-7.111594],[52.256218,-7.112558],[52.25528,-7.111642],[52.253714,-7.112785],[52.254329,-7.11428],[52.251556,-7.117242],[52.247404,-7.124816],[52.24535,-7.130329],[52.244765,-7.14239],[52.243047,-7.154785],[52.241491,-7.154919],[52.240195,-7.153962],[52.23896,-7.151696],[52.238665,-7.150431],[52.239373,-7.146813],[52.239422,-7.14354],[52.240054,-7.141544],[52.242873,-7.137317],[52.243208,-7.135524],[52.243142,-7.132394],[52.245205,-7.131999],[52.24546,-7.129693],[52.245933,-7.12837],[52.251428,-7.127018],[52.254405,-7.122914],[52.258005,-7.115192],[52.260042,-7.1154],[52.259746,-7.118386],[52.260691,-7.118301],[52.261656,-7.119401],[52.263528,-7.117393],[52.263134,-7.116016]],"stops":[{"id":"8440B352011","name":"The Clock Tower","lat":52.262056,"lng":-7.110752},{"id":"8440B352041","name":"The Mall","lat":52.25966,"lng":-7.10642},{"id":"8440B352051","name":"Parnell Street","lat":52.258369,"lng":-7.109229},{"id":"8440B352061","name":"Railway Square","lat":52.256575,"lng":-7.112165},{"id":"8440B352081","name":"SETU College St","lat":52.252781,"lng":-7.115697},{"id":"8440B3520901","name":"O'Reilly Rd","lat":52.250496,"lng":-7.119082},{"id":"8440B352101","name":"Claremont","lat":52.245048,"lng":-7.134756},{"id":"8440B352111","name":"SETU Cork Road","lat":52.24487,"lng":-7.13788},{"id":"8440B352131","name":"Woodlawn Gr","lat":52.244041,"lng":-7.147062},{"id":"8440B352121","name":"Ballynaneashagh","lat":52.242685,"lng":-7.154746},{"id":"8440B352141","name":"Clonard Pk","lat":52.239202,"lng":-7.147916},{"id":"8440B352151","name":"Priory Lwn","lat":52.240065,"lng":-7.141706},{"id":"8440B352161","name":"Glencarra","lat":52.242308,"lng":-7.138632},{"id":"8440B352171","name":"Ballybeg Dr","lat":52.243282,"lng":-7.135435},{"id":"8440B352181","name":"Ballybeg Ct","lat":52.24369,"lng":-7.13222},{"id":"8440B352191","name":"Old Crystal Factory","lat":52.245457,"lng":-7.130399},{"id":"8440B352201","name":"Ashe Road","lat":52.249543,"lng":-7.127478},{"id":"8440B352221","name":"Presentation Sch","lat":52.252211,"lng":-7.126108},{"id":"8440B3522101","name":"Cannon Street","lat":52.254958,"lng":-7.121909},{"id":"8440B352231","name":"Barrack Street","lat":52.256904,"lng":-7.11771},{"id":"8440B352241","name":"Mayor's Walk","lat":52.258999,"lng":-7.115325},{"id":"8440B352251","name":"Ballybricken","lat":52.25978,"lng":-7.117712},{"id":"8440B352561","name":"Waterford Bus Stn","lat":52.263174,"lng":-7.115989}]}},"WFRD W3 c c":{"0":{"headsign":"The Quay","coords":[[52.262004,-7.110812],[52.260832,-7.105683],[52.260447,-7.105011],[52.257262,-7.111498],[52.254422,-7.108941],[52.252094,-7.108895],[52.249762,-7.110638],[52.24719,-7.110741],[52.243313,-7.107903],[52.240642,-7.107379],[52.233744,-7.103683],[52.232732,-7.106663],[52.227575,-7.115343],[52.228944,-7.115694],[52.23111,-7.11415],[52.233396,-7.114889],[52.236177,-7.114213],[52.238549,-7.114296],[52.245197,-7.112375],[52.244908,-7.11021],[52.245095,-7.109242],[52.247442,-7.110845],[52.249762,-7.110638],[52.252094,-7.108895],[52.254422,-7.108941],[52.257262,-7.111498],[52.259888,-7.105817],[52.260449,-7.105176],[52.261919,-7.110758]],"stops":[{"id":"8440B352011","name":"The Clock Tower","lat":52.262056,"lng":-7.110752},{"id":"8440B352041","name":"The Mall","lat":52.25966,"lng":-7.10642},{"id":"8440B352051","name":"Parnell Street","lat":52.258369,"lng":-7.109229},{"id":"8440B352271","name":"John Street","lat":52.257008,"lng":-7.111234},{"id":"8440B352281","name":"Upr Johnstown","lat":52.253873,"lng":-7.10907},{"id":"8440352291","name":"Ballytruckle Ct","lat":52.250251,"lng":-7.1103},{"id":"8440B352301","name":"Ballytruckle Grn","lat":52.248006,"lng":-7.110652},{"id":"8440B352311","name":"Lwr Grange","lat":52.245064,"lng":-7.109144},{"id":"8440B352321","name":"Saint Johns Park","lat":52.24233,"lng":-7.107705},{"id":"8440B352331","name":"Grange Cohan","lat":52.239554,"lng":-7.106721},{"id":"8440B352341","name":"Airport Rd Rbt","lat":52.233162,"lng":-7.105474},{"id":"8440B352351","name":"Beech Court","lat":52.233773,"lng":-7.114948},{"id":"8440B3102001","name":"Avondale","lat":52.237058,"lng":-7.114341},{"id":"8440B352371","name":"Kilcohan Pk","lat":52.241843,"lng":-7.11344},{"id":"8440B352361","name":"Pearse Park","lat":52.244776,"lng":-7.112606},{"id":"8440B352381","name":"Lwr Grange","lat":52.245733,"lng":-7.109614},{"id":"8440B352571","name":"Ballytruckle Grn","lat":52.248223,"lng":-7.110853},{"id":"8440B352391","name":"Ballytruckle Ct","lat":52.250654,"lng":-7.110204},{"id":"8440B352401","name":"Upr Johnstown","lat":52.25373,"lng":-7.109146},{"id":"8440B352541","name":"Parnell Street","lat":52.258168,"lng":-7.110039},{"id":"8440B352551","name":"The Mall","lat":52.259724,"lng":-7.10658},{"id":"8440B3525801","name":"The Clock Tower","lat":52.261859,"lng":-7.1108}]}},"WFRD W4 c b":{"0":{"headsign":"Brownes Road/SETU","coords":[[52.260055,-7.111208],[52.259472,-7.110822],[52.259668,-7.108284],[52.25905,-7.108004],[52.259941,-7.105732],[52.260472,-7.105174],[52.263251,-7.116547],[52.261094,-7.118887],[52.26133,-7.119914],[52.260821,-7.120477],[52.261488,-7.122335],[52.259245,-7.124126],[52.258495,-7.1289],[52.260903,-7.129821],[52.262847,-7.12624],[52.264271,-7.131808],[52.264921,-7.135874],[52.26428,-7.131801],[52.263295,-7.12771],[52.264922,-7.135873],[52.264495,-7.136546],[52.264375,-7.141378],[52.263233,-7.141771],[52.262135,-7.142979],[52.261429,-7.144788],[52.261104,-7.14817],[52.260484,-7.15014],[52.257604,-7.155239],[52.255756,-7.156442],[52.252797,-7.156043],[52.252509,-7.155492],[52.252802,-7.153853],[52.253759,-7.151736],[52.254148,-7.147467],[52.254772,-7.145248],[52.253772,-7.14494],[52.25352,-7.144362],[52.251223,-7.144906],[52.249026,-7.143923],[52.248239,-7.143062],[52.247588,-7.141414],[52.245876,-7.143696]],"stops":[{"id":"8440B353271","name":"Arundel Square","lat":52.260145,"lng":-7.11123},{"id":"8440B3525901","name":"Waterford Bus Stn","lat":52.263113,"lng":-7.11621},{"id":"8440B3524201","name":"Thomas Street","lat":52.261858,"lng":-7.117832},{"id":"8440B3526201","name":"Morgan St","lat":52.261268,"lng":-7.121872},{"id":"8440B3526301","name":"Congress Place","lat":52.260383,"lng":-7.129873},{"id":"8440B3526401","name":"Dominics Place","lat":52.261853,"lng":-7.128028},{"id":"8440B3526501","name":"Gracedieu Road","lat":52.263253,"lng":-7.127737},{"id":"8440B3526601","name":"Carn Glas","lat":52.264376,"lng":-7.132549},{"id":"8440B6315601","name":"Logloss","lat":52.26439,"lng":-7.140621},{"id":"8440B3356691","name":"Bawndaw","lat":52.261138,"lng":-7.147672},{"id":"8440B3526701","name":"Carrickphierish","lat":52.25973,"lng":-7.151317},{"id":"8440B3103001","name":"Knockhouse Lwr","lat":52.25323,"lng":-7.15603},{"id":"8440B353291","name":"Ol Kilmeaden Rd","lat":52.253377,"lng":-7.152771},{"id":"8440B352801","name":"SETU P Browne's Rd","lat":52.245832,"lng":-7.143616}]},"1":{"headsign":"City Centre","coords":[[52.245876,-7.143696],[52.247643,-7.141741],[52.249026,-7.143923],[52.251223,-7.144906],[52.25352,-7.144362],[52.253772,-7.14494],[52.254512,-7.145228],[52.253874,-7.148777],[52.253776,-7.151657],[52.252802,-7.153853],[52.252278,-7.156016],[52.255756,-7.156442],[52.257604,-7.155239],[52.260484,-7.15014],[52.261104,-7.14817],[52.261429,-7.144788],[52.262135,-7.142979],[52.263233,-7.141771],[52.264375,-7.141378],[52.264495,-7.136546],[52.264921,-7.135874],[52.263157,-7.127155],[52.2606,-7.119689],[52.260422,-7.118485],[52.260617,-7.118109],[52.260043,-7.115888],[52.260055,-7.111208]],"stops":[{"id":"8440B352801","name":"SETU P Browne's Rd","lat":52.245832,"lng":-7.143616},{"id":"8440B353281","name":"Ol Kilmeaden Rd","lat":52.253055,"lng":-7.153055},{"id":"8440B310321","name":"Knockhouse Lwr","lat":52.253338,"lng":-7.156213},{"id":"8440B3526801","name":"Bawndaw","lat":52.261798,"lng":-7.143967},{"id":"8440B631591","name":"Logloss","lat":52.264667,"lng":-7.137935},{"id":"8440B3526901","name":"Carn Glas","lat":52.264703,"lng":-7.134213},{"id":"8440B3527001","name":"Gracedieu Road","lat":52.262624,"lng":-7.125376},{"id":"8440B3527101","name":"Morgan St","lat":52.261356,"lng":-7.121709},{"id":"8440B3527201","name":"Ballybricken","lat":52.260193,"lng":-7.116429},{"id":"8440B353271","name":"Arundel Square","lat":52.260145,"lng":-7.11123}]}},"WFRD W5 b c":{"0":{"headsign":"Oakwood","coords":[[52.247537,-7.079406],[52.246832,-7.079358],[52.243931,-7.083039],[52.242424,-7.085545],[52.240856,-7.089778],[52.24176,-7.091444],[52.243611,-7.096984],[52.245485,-7.100188],[52.247778,-7.102754],[52.253217,-7.107329],[52.2547,-7.10929],[52.257262,-7.111498],[52.259888,-7.105817],[52.260449,-7.105176],[52.260731,-7.105561],[52.263251,-7.116547],[52.261094,-7.118887],[52.260228,-7.117154],[52.259866,-7.117299],[52.259299,-7.120887],[52.259437,-7.124104],[52.258535,-7.128413],[52.25826,-7.13237],[52.257452,-7.135612],[52.260326,-7.137479],[52.260214,-7.138009],[52.261135,-7.138682]],"stops":[{"id":"8440B352731","name":"Waterford Hospl","lat":52.247543,"lng":-7.079556},{"id":"8440B352741","name":"Ardkeen Woods","lat":52.245994,"lng":-7.080306},{"id":"8440B352751","name":"Solas Centre","lat":52.242052,"lng":-7.08664},{"id":"8440B352761","name":"Farran Park","lat":52.242272,"lng":-7.093107},{"id":"8440B352771","name":"Saint Cath's Grange","lat":52.243406,"lng":-7.096701},{"id":"8440B352931","name":"St Otteran's Hospl","lat":52.248184,"lng":-7.103238},{"id":"8440B352921","name":"The Elms","lat":52.251195,"lng":-7.105623},{"id":"8440B352541","name":"Parnell Street","lat":52.258168,"lng":-7.110039},{"id":"8440B352551","name":"The Mall","lat":52.259724,"lng":-7.10658},{"id":"8440B3525801","name":"The Clock Tower","lat":52.261859,"lng":-7.1108},{"id":"8440B3525901","name":"Waterford Bus Stn","lat":52.263113,"lng":-7.11621},{"id":"8440B3524201","name":"Thomas Street","lat":52.261858,"lng":-7.117832},{"id":"8440B352251","name":"Ballybricken","lat":52.25978,"lng":-7.117712},{"id":"8440B352431","name":"Yellow Road Lwr","lat":52.259415,"lng":-7.122948},{"id":"8440B352811","name":"Yellow Road Upr","lat":52.258433,"lng":-7.12997},{"id":"8440B352821","name":"Crescent Drive","lat":52.257803,"lng":-7.135929},{"id":"8440B3529901","name":"Hawthorn Close","lat":52.259581,"lng":-7.136891},{"id":"8440B352831","name":"Oakwood","lat":52.261203,"lng":-7.138676}]},"1":{"headsign":"University Hospital","coords":[[52.261135,-7.138682],[52.260214,-7.138009],[52.260326,-7.137479],[52.257452,-7.135612],[52.256779,-7.139849],[52.255888,-7.142678],[52.25466,-7.145218],[52.253772,-7.14494],[52.25352,-7.144362],[52.253284,-7.137921],[52.253579,-7.134616],[52.253368,-7.134247],[52.253745,-7.13306],[52.254382,-7.127024],[52.25494,-7.125604],[52.255985,-7.127433],[52.258495,-7.1289],[52.259437,-7.124104],[52.259293,-7.120985],[52.259649,-7.118559],[52.260691,-7.118301],[52.261656,-7.119401],[52.263528,-7.117393],[52.260511,-7.105049],[52.259991,-7.105508],[52.257262,-7.111498],[52.2547,-7.10929],[52.253217,-7.107329],[52.247711,-7.102684],[52.245272,-7.099898],[52.243514,-7.096762],[52.2412,-7.090125],[52.241202,-7.089181],[52.242711,-7.085265],[52.243931,-7.083039],[52.246583,-7.079805],[52.247537,-7.079406]],"stops":[{"id":"8440B352831","name":"Oakwood","lat":52.261203,"lng":-7.138676},{"id":"8440B353001","name":"Hawthorn Close","lat":52.259518,"lng":-7.13698},{"id":"8440B352841","name":"Crescent Drive","lat":52.257982,"lng":-7.135867},{"id":"8440B353681","name":"Cleaboy Rd","lat":52.256813,"lng":-7.139407},{"id":"8440B352851","name":"Skibbereen Lwn","lat":52.253592,"lng":-7.144023},{"id":"8440B352861","name":"Skibbereen Rd","lat":52.253388,"lng":-7.140702},{"id":"8440B352871","name":"Belvedere Grove","lat":52.253598,"lng":-7.134956},{"id":"8440B352881","name":"Slievekeale Road","lat":52.254624,"lng":-7.126632},{"id":"8440B352891","name":"Ard na Greine","lat":52.257623,"lng":-7.12855},{"id":"8440B352901","name":"Yellow Road Lwr","lat":52.259402,"lng":-7.122377},{"id":"8440B352911","name":"Ballybricken","lat":52.260021,"lng":-7.11863},{"id":"8440B352561","name":"Waterford Bus Stn","lat":52.263174,"lng":-7.115989},{"id":"8440B352011","name":"The Clock Tower","lat":52.262056,"lng":-7.110752},{"id":"8440B352041","name":"The Mall","lat":52.25966,"lng":-7.10642},{"id":"8440B352051","name":"Parnell Street","lat":52.258369,"lng":-7.109229},{"id":"8440B352271","name":"John Street","lat":52.257008,"lng":-7.111234},{"id":"8440B352791","name":"The Elms","lat":52.250588,"lng":-7.105021},{"id":"8440B353011","name":"St Otteran's Hospl","lat":52.248164,"lng":-7.102975},{"id":"8440B352941","name":"Saint Cath's Grange","lat":52.24397,"lng":-7.097568},{"id":"8440B352951","name":"Farran Park","lat":52.242944,"lng":-7.095071},{"id":"8440B352981","name":"Solas Centre","lat":52.24158,"lng":-7.088377},{"id":"8440B352961","name":"Ardkeen Rtl Pk","lat":52.24331,"lng":-7.084242},{"id":"8440B353261","name":"Ardkeen Woods","lat":52.245737,"lng":-7.080838},{"id":"8440B352731","name":"Waterford Hospl","lat":52.247543,"lng":-7.079556}]}},"WFRD W2 c c":{"0":{"headsign":"The Quay","coords":[[52.262002,-7.110819],[52.261327,-7.108215],[52.263251,-7.116547],[52.261094,-7.118887],[52.260228,-7.117154],[52.259883,-7.117245],[52.259299,-7.120887],[52.259437,-7.124104],[52.258659,-7.123858],[52.25538,-7.120787],[52.253669,-7.124048],[52.251235,-7.126804],[52.252432,-7.128814],[52.253405,-7.129666],[52.252603,-7.132881],[52.252675,-7.134396],[52.251434,-7.135996],[52.251673,-7.136487],[52.245859,-7.143717],[52.245021,-7.144715],[52.244499,-7.144408],[52.24546,-7.129693],[52.245968,-7.12835],[52.250204,-7.127147],[52.251443,-7.123151],[52.251219,-7.122387],[52.25152,-7.120324],[52.250416,-7.119374],[52.250945,-7.118341],[52.252467,-7.116119],[52.25729,-7.111461],[52.260383,-7.105208],[52.260783,-7.105703],[52.261919,-7.110758]],"stops":[{"id":"8440B352011","name":"The Clock Tower","lat":52.262056,"lng":-7.110752},{"id":"8440B3525901","name":"Waterford Bus Stn","lat":52.263113,"lng":-7.11621},{"id":"8440B3524201","name":"Thomas Street","lat":52.261858,"lng":-7.117832},{"id":"8440B352251","name":"Ballybricken","lat":52.25978,"lng":-7.117712},{"id":"8440B352431","name":"Yellow Road Lwr","lat":52.259415,"lng":-7.122948},{"id":"8440B3524401","name":"Morrissons Road","lat":52.257108,"lng":-7.122203},{"id":"8440B3526001","name":"Cannon Street","lat":52.2547,"lng":-7.122221},{"id":"8440B352221","name":"Presentation Sch","lat":52.252211,"lng":-7.126108},{"id":"8440B3524501","name":"Manor Lawn","lat":52.253275,"lng":-7.130144},{"id":"8440B3524601","name":"Arbour Road","lat":52.252597,"lng":-7.13335},{"id":"8440B352471","name":"Lisduggan SC","lat":52.250339,"lng":-7.137993},{"id":"8440B352481","name":"Larchville","lat":52.248559,"lng":-7.14037},{"id":"8440B3524901","name":"SETU P Browne's Rd","lat":52.244769,"lng":-7.144558},{"id":"8440B352501","name":"SETU Cork Road","lat":52.245078,"lng":-7.137685},{"id":"8440B352191","name":"Old Crystal Factory","lat":52.245457,"lng":-7.130399},{"id":"8440B352201","name":"Ashe Road","lat":52.249543,"lng":-7.127478},{"id":"8440B3525101","name":"Hennessy's Road","lat":52.250865,"lng":-7.125167},{"id":"8440B3525201","name":"O'Reilly Rd","lat":52.250743,"lng":-7.119605},{"id":"8440B3525301","name":"SETU College St","lat":52.253309,"lng":-7.115423},{"id":"8440B352541","name":"Parnell Street","lat":52.258168,"lng":-7.110039},{"id":"8440B352551","name":"The Mall","lat":52.259724,"lng":-7.10658},{"id":"8440B3525801","name":"The Clock Tower","lat":52.261859,"lng":-7.1108}]}},"2 310":{"0":{"headsign":"Technology Park East","coords":[[52.663962,-8.627066],[52.662317,-8.622808],[52.660884,-8.620926],[52.654115,-8.599553],[52.654489,-8.598571],[52.658614,-8.596433],[52.657444,-8.589457],[52.655193,-8.58338],[52.654693,-8.579751],[52.652516,-8.575661],[52.654471,-8.572942],[52.655144,-8.572948],[52.658569,-8.57534],[52.660496,-8.576066],[52.663092,-8.579036],[52.665336,-8.580584],[52.666714,-8.580125],[52.668592,-8.574402],[52.669778,-8.575838],[52.670607,-8.576185],[52.671634,-8.575887],[52.672356,-8.575117],[52.673233,-8.566181],[52.671943,-8.564995],[52.670697,-8.564875],[52.670588,-8.55754],[52.670834,-8.556125],[52.667763,-8.554296],[52.666164,-8.554407],[52.664978,-8.55392],[52.662683,-8.550902],[52.660727,-8.549857],[52.660274,-8.546326],[52.660632,-8.544206],[52.663835,-8.537615],[52.664697,-8.536549],[52.665577,-8.536239],[52.667949,-8.537051],[52.669344,-8.536884],[52.671081,-8.538863]],"stops":[{"id":"8400B6078301","name":"Sarsfield St","lat":52.664056,"lng":-8.627278},{"id":"8400B6071101","name":"William Street","lat":52.6634,"lng":-8.625436},{"id":"8400B6084301","name":"Limerick Courthse","lat":52.660734,"lng":-8.620206},{"id":"8400B6084401","name":"Limerick College","lat":52.659528,"lng":-8.616482},{"id":"8400B6085001","name":"St Josephs Hospital","lat":52.658936,"lng":-8.614626},{"id":"8400B6085101","name":"Blackboy Road","lat":52.657441,"lng":-8.60986},{"id":"8400B6085201","name":"Mount St Lawrence","lat":52.656619,"lng":-8.607232},{"id":"8400B6085301","name":"Ballysimon Rd","lat":52.655822,"lng":-8.604797},{"id":"8400B6075701","name":"Limerick One SP","lat":52.657038,"lng":-8.597335},{"id":"8400B0610081","name":"Amharc Muileann","lat":52.65679,"lng":-8.5871},{"id":"8410CO11082","name":"City E Pza","lat":52.653113,"lng":-8.574861},{"id":"8410CO11075","name":"Caisle\u00e1n na hAbhann","lat":52.654362,"lng":-8.573074},{"id":"8410B332891","name":"Brookfield Hl","lat":52.657124,"lng":-8.57447},{"id":"8410CO11076","name":"Br\u00fa na Gruad\u00e1n","lat":52.660289,"lng":-8.576093},{"id":"8400B6076001","name":"Castletroy Pk","lat":52.667004,"lng":-8.579523},{"id":"8400B6076101","name":"Plassey Village","lat":52.668977,"lng":-8.574951},{"id":"8400B6076201","name":"Kemmy Business Sch","lat":52.671677,"lng":-8.575933},{"id":"8410B6076301","name":"UL Student Ctr","lat":52.672781,"lng":-8.570757},{"id":"8410B6076401","name":"El Dorado","lat":52.670624,"lng":-8.563262},{"id":"8410B6076501","name":"Oaklawns","lat":52.670714,"lng":-8.557497},{"id":"8410B6076601","name":"Kilmurry Lodge","lat":52.66945,"lng":-8.55513},{"id":"8410B609311","name":"Castletroy","lat":52.666532,"lng":-8.55428},{"id":"8410B609721","name":"Monaleen","lat":52.66239,"lng":-8.55055},{"id":"8410CO11077","name":"Newtown Centre","lat":52.663123,"lng":-8.539232},{"id":"8410B609351","name":"Tech Park East","lat":52.67099,"lng":-8.538664}]},"1":{"headsign":"Sarsfield Street","coords":[[52.671081,-8.538863],[52.670124,-8.537426],[52.668052,-8.536395],[52.667322,-8.536815],[52.665779,-8.536234],[52.664697,-8.536549],[52.663804,-8.5376],[52.660737,-8.543889],[52.660274,-8.546326],[52.660692,-8.549919],[52.662683,-8.550902],[52.664978,-8.55392],[52.66773,-8.554868],[52.668613,-8.554738],[52.670834,-8.556125],[52.670588,-8.55754],[52.670697,-8.564875],[52.671943,-8.564995],[52.673233,-8.566181],[52.672532,-8.574007],[52.671917,-8.575637],[52.671111,-8.576065],[52.669903,-8.575926],[52.668624,-8.574427],[52.669778,-8.575838],[52.670607,-8.576185],[52.671634,-8.575887],[52.672356,-8.575117],[52.672748,-8.570536],[52.672488,-8.574341],[52.671917,-8.575637],[52.670165,-8.576052],[52.668592,-8.574402],[52.66685,-8.579861],[52.666126,-8.580478],[52.663754,-8.579325],[52.660496,-8.576066],[52.656246,-8.573897],[52.654815,-8.572294],[52.652235,-8.575406],[52.654693,-8.579751],[52.655193,-8.58338],[52.657444,-8.589457],[52.658614,-8.596433],[52.653853,-8.598584],[52.653688,-8.59902],[52.654272,-8.60009],[52.660514,-8.619778],[52.660192,-8.620157],[52.660134,-8.621658],[52.660973,-8.623819],[52.66088,-8.624365],[52.663,-8.629628],[52.66437,-8.628161],[52.664117,-8.627482]],"stops":[{"id":"8410B609351","name":"Tech Park East","lat":52.67099,"lng":-8.538664},{"id":"8410CO11083","name":"Newtown Centre","lat":52.6634,"lng":-8.53845},{"id":"8410CO11084","name":"Monaleen","lat":52.660556,"lng":-8.548099},{"id":"8410CO11085","name":"Kilmurry Lodge","lat":52.67008,"lng":-8.55559},{"id":"8410B607741","name":"El Dorado","lat":52.67057,"lng":-8.563173},{"id":"8400B6076101","name":"Plassey Village","lat":52.668977,"lng":-8.574951},{"id":"8400B6076201","name":"Kemmy Business Sch","lat":52.671677,"lng":-8.575933},{"id":"8410B6076301","name":"UL Student Ctr","lat":52.672781,"lng":-8.570757},{"id":"8410CO11086","name":"Castletroy Pk","lat":52.666969,"lng":-8.579448},{"id":"8410CO11087","name":"Curragh Birin","lat":52.664513,"lng":-8.579785},{"id":"8410CO11079","name":"Br\u00fa na Gruad\u00e1n","lat":52.65993,"lng":-8.57556},{"id":"8410B6094801","name":"Caisle\u00e1n na hAbhann","lat":52.655798,"lng":-8.573492},{"id":"8410CO11088","name":"City E Pza","lat":52.653016,"lng":-8.574594},{"id":"8400B0610061","name":"Amharc Muileann","lat":52.65637,"lng":-8.5864},{"id":"8400B6077201","name":"Limerick One SP","lat":52.657679,"lng":-8.596767},{"id":"8400B6085401","name":"Prague Villas","lat":52.65437,"lng":-8.60053},{"id":"8400B6085701","name":"Ballysimon Rd","lat":52.655131,"lng":-8.602955},{"id":"8400B608581","name":"Mount St Lawrence","lat":52.656121,"lng":-8.606073},{"id":"8400B6085901","name":"Blackboy Road","lat":52.65728,"lng":-8.609843},{"id":"8400B6086001","name":"St Josephs Hospital","lat":52.658509,"lng":-8.613762},{"id":"8400B6083001","name":"Limerick College","lat":52.659498,"lng":-8.617058},{"id":"8400B6083101","name":"Limerick Courthse","lat":52.660162,"lng":-8.618944},{"id":"8400B6073101","name":"Sexton Street","lat":52.660106,"lng":-8.621235},{"id":"8400B6083201","name":"Up G Griffin St","lat":52.660502,"lng":-8.622719},{"id":"8400B6073201","name":"Roches Street","lat":52.662031,"lng":-8.627663},{"id":"8400B606821","name":"Harvey's Quay","lat":52.663244,"lng":-8.62941},{"id":"8400B610031","name":"Sarsfield St","lat":52.664181,"lng":-8.627443}]}},"2 100 c e":{"0":{"headsign":"Dundalk","coords":[[53.711842,-6.353051],[53.712438,-6.352625],[53.714013,-6.35839],[53.717884,-6.356436],[53.719558,-6.356488],[53.724431,-6.363775],[53.724628,-6.360921],[53.723324,-6.354513],[53.724628,-6.360921],[53.724432,-6.363778],[53.730317,-6.372809],[53.730811,-6.374202],[53.731121,-6.374177],[53.734674,-6.379453],[53.7356,-6.380277],[53.737525,-6.381018],[53.750752,-6.381875],[53.75241,-6.382274],[53.754672,-6.383601],[53.756398,-6.38534],[53.761596,-6.392156],[53.765334,-6.395232],[53.771769,-6.403048],[53.773842,-6.404832],[53.775049,-6.405184],[53.775554,-6.407196],[53.776472,-6.407164],[53.782093,-6.412091],[53.786606,-6.415216],[53.790362,-6.419941],[53.79751,-6.396352],[53.799033,-6.395116],[53.799402,-6.394112],[53.801707,-6.394961],[53.805119,-6.394664],[53.808238,-6.395232],[53.810288,-6.394889],[53.813029,-6.392414],[53.815086,-6.392369],[53.824434,-6.394459],[53.829962,-6.393949],[53.831744,-6.395107],[53.837369,-6.393271],[53.844337,-6.394892],[53.850178,-6.397433],[53.85153,-6.399667],[53.852162,-6.402058],[53.85366,-6.404764],[53.872467,-6.390269],[53.876125,-6.387992],[53.880505,-6.388536],[53.894129,-6.388518],[53.896186,-6.389558],[53.897269,-6.389281],[53.898475,-6.389794],[53.902991,-6.388519],[53.913434,-6.383488],[53.926621,-6.379699],[53.967389,-6.388001],[53.980197,-6.393559],[53.986746,-6.397221],[53.991406,-6.401322],[53.993873,-6.405308],[53.994858,-6.405913],[54.000437,-6.405625],[54.001349,-6.405132],[54.00263,-6.403158],[54.003351,-6.404285],[54.004307,-6.403694],[54.005641,-6.404284]],"stops":[{"id":"8300B1359501","name":"Drogheda Bus","lat":53.71172,"lng":-6.35339},{"id":"8300B139141","name":"George's Street","lat":53.716592,"lng":-6.35728},{"id":"8300B106511","name":"Drogheda Hospl","lat":53.72328,"lng":-6.35449},{"id":"8300B139161","name":"Killineer","lat":53.749795,"lng":-6.38196},{"id":"8300B139171","name":"Silloge","lat":53.765144,"lng":-6.395219},{"id":"8300B139181","name":"Monasterboice","lat":53.768375,"lng":-6.398952},{"id":"8300B189531","name":"Tinure","lat":53.791129,"lng":-6.417622},{"id":"8300B189551","name":"Mullary","lat":53.799322,"lng":-6.394579},{"id":"8300B1316301","name":"Dunleer","lat":53.825121,"lng":-6.394569},{"id":"8300B139191","name":"Mullins Cross","lat":53.857755,"lng":-6.401756},{"id":"8300B014967","name":"Kilsaran","lat":53.88548,"lng":-6.38867},{"id":"8300B131451","name":"Saint Mary's Villas","lat":53.888254,"lng":-6.388665},{"id":"8300B139301","name":"St Oliver's Park","lat":53.889413,"lng":-6.388636},{"id":"8300B1314101","name":"Castlebellingham","lat":53.897522,"lng":-6.389526},{"id":"8300B139211","name":"Greengates","lat":53.957355,"lng":-6.385895},{"id":"8300B133581","name":"Haggardstown","lat":53.963015,"lng":-6.387108},{"id":"8300B1070101","name":"Dundalk IT","lat":53.984181,"lng":-6.395973},{"id":"8300B131211","name":"Louth County Hospl","lat":53.98858,"lng":-6.399022},{"id":"8300B100521","name":"Stapleton Place","lat":53.998882,"lng":-6.405948},{"id":"8300B109231","name":"Park Street","lat":54.002155,"lng":-6.404069},{"id":"8300B1050901","name":"Dundalk Bus Stn","lat":54.00532,"lng":-6.40413}]},"1":{"headsign":"Drogheda","coords":[[54.005641,-6.404284],[54.00413,-6.403567],[54.004466,-6.400027],[54.004224,-6.399687],[54.003527,-6.401721],[54.001139,-6.405319],[53.997442,-6.406006],[53.994858,-6.405913],[53.993873,-6.405308],[53.991406,-6.401322],[53.986746,-6.397221],[53.980197,-6.393559],[53.967389,-6.388001],[53.926621,-6.379699],[53.913434,-6.383488],[53.902991,-6.388519],[53.898475,-6.389794],[53.897269,-6.389281],[53.896186,-6.389558],[53.894129,-6.388518],[53.880505,-6.388536],[53.876125,-6.387992],[53.872467,-6.390269],[53.85366,-6.404764],[53.852162,-6.402058],[53.85153,-6.399667],[53.850178,-6.397433],[53.844337,-6.394892],[53.837369,-6.393271],[53.831744,-6.395107],[53.829962,-6.393949],[53.824434,-6.394459],[53.815086,-6.392369],[53.813029,-6.392414],[53.810288,-6.394889],[53.808238,-6.395232],[53.805119,-6.394664],[53.801707,-6.394961],[53.799402,-6.394112],[53.799033,-6.395116],[53.79751,-6.396352],[53.79091,-6.41825],[53.79751,-6.396352],[53.799033,-6.395116],[53.799402,-6.394112],[53.793898,-6.393039],[53.790477,-6.393036],[53.789333,-6.393699],[53.786315,-6.396704],[53.782242,-6.396818],[53.780818,-6.397392],[53.779389,-6.398926],[53.777427,-6.402246],[53.776066,-6.403391],[53.774583,-6.403848],[53.773092,-6.403645],[53.770706,-6.401718],[53.765334,-6.395232],[53.761596,-6.392156],[53.755912,-6.38477],[53.753624,-6.382872],[53.750752,-6.381875],[53.737525,-6.381018],[53.7356,-6.380277],[53.734674,-6.379453],[53.724432,-6.363778],[53.724628,-6.360921],[53.723317,-6.354487],[53.724628,-6.360921],[53.724431,-6.363775],[53.719696,-6.356563],[53.718016,-6.356404],[53.716132,-6.35721],[53.714982,-6.353004],[53.713757,-6.35311],[53.71373,-6.352168],[53.712198,-6.352605],[53.711436,-6.353322],[53.712176,-6.353064],[53.711842,-6.353051]],"stops":[{"id":"8300B1050901","name":"Dundalk Bus Stn","lat":54.00532,"lng":-6.40413},{"id":"8300B138931","name":"Stapleton Place","lat":53.99869,"lng":-6.405712},{"id":"8300B138941","name":"Louth County Hospl","lat":53.989176,"lng":-6.399213},{"id":"8300B138951","name":"Dundalk IT","lat":53.983388,"lng":-6.395165},{"id":"8300B1312401","name":"Haggardstown","lat":53.962722,"lng":-6.386723},{"id":"8300B139241","name":"Greengates","lat":53.955981,"lng":-6.385338},{"id":"8300B138961","name":"Castlebellingham","lat":53.897582,"lng":-6.389295},{"id":"8300B139251","name":"St Oliver's Park","lat":53.889194,"lng":-6.388446},{"id":"8300B139201","name":"Saint Mary's Villas","lat":53.887829,"lng":-6.388484},{"id":"8300B014966","name":"Kilsaran","lat":53.88567,"lng":-6.38839},{"id":"8300B139261","name":"Mullins Cross","lat":53.857913,"lng":-6.401431},{"id":"8300B138971","name":"Dunleer","lat":53.831909,"lng":-6.395068},{"id":"8300B139861","name":"Dunleer","lat":53.829467,"lng":-6.393946},{"id":"8300B189561","name":"Mullary","lat":53.799252,"lng":-6.394599},{"id":"8300B189541","name":"Tinure","lat":53.790907,"lng":-6.418248},{"id":"8300B1319801","name":"Monasterboice","lat":53.768399,"lng":-6.398675},{"id":"8300B132051","name":"Silloge","lat":53.765676,"lng":-6.395365},{"id":"8300B139291","name":"Tullyeskar","lat":53.757067,"lng":-6.386018},{"id":"8300B106501","name":"Drogheda Hospl","lat":53.72334,"lng":-6.3543},{"id":"8300B136831","name":"George's Street","lat":53.7165,"lng":-6.35706},{"id":"8300B1359501","name":"Drogheda Bus","lat":53.71172,"lng":-6.35339}]}},"2 402 c a":{"0":{"headsign":"Merlin Park","coords":[[53.262157,-9.112865],[53.26278,-9.117054],[53.260168,-9.117764],[53.260915,-9.108349],[53.259079,-9.106975],[53.258347,-9.102468],[53.261019,-9.100991],[53.262726,-9.101136],[53.263718,-9.102006],[53.265225,-9.098994],[53.266593,-9.093573],[53.266826,-9.089396],[53.267362,-9.08599],[53.269394,-9.079247],[53.268737,-9.076521],[53.268821,-9.071683],[53.270677,-9.071712],[53.272799,-9.073093],[53.27311,-9.072892],[53.272854,-9.070631],[53.275613,-9.070889],[53.275771,-9.070049],[53.274153,-9.064795],[53.274574,-9.063148],[53.277018,-9.063563],[53.27576,-9.058565],[53.275798,-9.057612],[53.275409,-9.056798],[53.275875,-9.054228],[53.275049,-9.053374],[53.273997,-9.051194],[53.275367,-9.048801],[53.278323,-9.045596],[53.280589,-9.042171],[53.282408,-9.03806],[53.282196,-9.037716],[53.282392,-9.034342],[53.28094,-9.031394],[53.280131,-9.026212],[53.278925,-9.021161],[53.27341,-9.028827],[53.27245,-9.025365],[53.272696,-9.024549],[53.272204,-9.019332],[53.27312,-9.018719],[53.272837,-9.01486],[53.27752,-9.013338],[53.277078,-9.009367],[53.277225,-9.008285],[53.276113,-9.003266],[53.277457,-9.001788],[53.278089,-8.999326],[53.277769,-8.994232],[53.277242,-8.994214]],"stops":[{"id":"8460B5223401","name":"C\u00edr\u00edn na Mara","lat":53.26211,"lng":-9.112869},{"id":"8460B5223501","name":"Cnoic na Foraoise","lat":53.262636,"lng":-9.116166},{"id":"8460B5223601","name":"Sruth\u00e1n Thiar","lat":53.260672,"lng":-9.117583},{"id":"8460B5223701","name":"Seanghort","lat":53.260866,"lng":-9.10933},{"id":"8460B5223801","name":"Gentian Hill","lat":53.2586,"lng":-9.10396},{"id":"8460B5223901","name":"Knocknacarra Rd","lat":53.259577,"lng":-9.102012},{"id":"8460B5224001","name":"Brooklawn","lat":53.26195,"lng":-9.101054},{"id":"8460B5224101","name":"Kingston Gdns","lat":53.264579,"lng":-9.100506},{"id":"8460B5224201","name":"Manor Drive","lat":53.266704,"lng":-9.093216},{"id":"8460B5224301","name":"The Gardens","lat":53.267247,"lng":-9.086918},{"id":"8460B5224401","name":"Ardmore","lat":53.268216,"lng":-9.08321},{"id":"8460B5224701","name":"Mount Eaton","lat":53.269174,"lng":-9.077672},{"id":"8460B5224801","name":"The Nurseries","lat":53.268882,"lng":-9.072103},{"id":"8460B5231701","name":"Maunsells Road","lat":53.270458,"lng":-9.071798},{"id":"8460B5225001","name":"Shantalla Place","lat":53.273026,"lng":-9.072027},{"id":"8460B5225101","name":"O'Conaire Road","lat":53.273533,"lng":-9.070675},{"id":"8460B5225201","name":"Colmcille Road","lat":53.275391,"lng":-9.070961},{"id":"8460B5225301","name":"McDara Road","lat":53.27498,"lng":-9.067638},{"id":"8460B5225401","name":"Costello Rd","lat":53.274363,"lng":-9.064264},{"id":"8460B5225501","name":"University Hospl","lat":53.27606,"lng":-9.06361},{"id":"8460B5225601","name":"University South","lat":53.27674,"lng":-9.06207},{"id":"8460B5231801","name":"Galway Cathdrl","lat":53.27583,"lng":-9.05817},{"id":"8460B5225901","name":"St Francis Street","lat":53.275045,"lng":-9.05329},{"id":"8460B5226101","name":"Eyre Square","lat":53.275066,"lng":-9.04963},{"id":"8460B5226201","name":"Prospect Hill","lat":53.277816,"lng":-9.046325},{"id":"8460B5226301","name":"Cill Ard","lat":53.278603,"lng":-9.045205},{"id":"8460B5226501","name":"L Mellows Trce","lat":53.280414,"lng":-9.042565},{"id":"8460B5226801","name":"Bohermore Cmy","lat":53.281911,"lng":-9.038988},{"id":"8460B5226901","name":"The G Hotel","lat":53.2812,"lng":-9.03181},{"id":"8460B5227001","name":"Woodlands Cm","lat":53.279859,"lng":-9.024782},{"id":"8460B5227101","name":"Bon Secours Hospl","lat":53.278347,"lng":-9.021822},{"id":"8460B5227201","name":"Renmore Pk","lat":53.276829,"lng":-9.02381},{"id":"8460B5227301","name":"Dun na Mara","lat":53.275435,"lng":-9.026071},{"id":"8460B5227401","name":"Renmore Barracks","lat":53.273607,"lng":-9.028516},{"id":"8460B5227501","name":"Hawthorn Dr","lat":53.2724,"lng":-9.021515},{"id":"8460B5227601","name":"Rowan Ave","lat":53.27307,"lng":-9.018833},{"id":"8460B5227701","name":"Fuschia Drive","lat":53.272941,"lng":-9.016071},{"id":"8460B5227801","name":"Ballyloughane Rd","lat":53.274364,"lng":-9.01459},{"id":"8460B5227901","name":"Gaelscoil Dara","lat":53.276907,"lng":-9.013631},{"id":"8460B5228101","name":"ATU Galway","lat":53.27718,"lng":-9.00992},{"id":"8460B5228001","name":"Merlin Gate","lat":53.276394,"lng":-9.003078},{"id":"8460B5228201","name":"Merlin Pk Hospl","lat":53.277242,"lng":-8.994161}]},"1":{"headsign":"Seacrest","coords":[[53.277242,-8.994214],[53.277769,-8.994232],[53.278089,-8.999326],[53.277457,-9.001788],[53.276113,-9.003266],[53.276856,-9.006511],[53.276795,-9.008442],[53.27752,-9.013338],[53.272837,-9.01486],[53.27312,-9.018719],[53.272204,-9.019332],[53.272696,-9.024549],[53.272444,-9.025311],[53.27341,-9.028827],[53.278925,-9.021161],[53.280131,-9.026212],[53.28094,-9.031394],[53.282392,-9.034342],[53.282208,-9.038179],[53.280589,-9.042171],[53.27762,-9.046476],[53.276497,-9.047552],[53.276041,-9.046258],[53.27535,-9.045987],[53.274166,-9.047943],[53.275138,-9.049247],[53.273984,-9.05125],[53.275049,-9.053374],[53.275875,-9.054228],[53.275409,-9.056798],[53.275798,-9.057612],[53.27576,-9.058565],[53.277018,-9.063563],[53.274574,-9.063148],[53.274153,-9.064795],[53.275771,-9.070049],[53.275714,-9.070657],[53.272854,-9.070631],[53.27311,-9.072892],[53.272799,-9.073093],[53.270677,-9.071712],[53.268821,-9.071683],[53.268737,-9.076521],[53.269394,-9.079247],[53.267362,-9.08599],[53.266826,-9.089396],[53.266644,-9.093253],[53.265814,-9.097006],[53.264984,-9.099591],[53.263194,-9.102967],[53.26347,-9.104492],[53.262157,-9.112865]],"stops":[{"id":"8460B5228201","name":"Merlin Pk Hospl","lat":53.277242,"lng":-8.994161},{"id":"8460B5228301","name":"Merlin Gate","lat":53.276485,"lng":-9.005104},{"id":"8460B5228401","name":"ATU Galway","lat":53.277113,"lng":-9.010562},{"id":"8460B5228501","name":"Gaelscoil Dara","lat":53.276692,"lng":-9.013581},{"id":"8460B5228601","name":"Ballyloughane Rd","lat":53.27406,"lng":-9.014478},{"id":"8460B5228701","name":"Fuschia Drive","lat":53.272878,"lng":-9.016114},{"id":"8460B5228801","name":"Rowan Ave","lat":53.272874,"lng":-9.018648},{"id":"8460B5228901","name":"Hawthorn Dr","lat":53.272285,"lng":-9.021318},{"id":"8460B5229001","name":"Arbutus Avenue","lat":53.27249,"lng":-9.023572},{"id":"8460B5229101","name":"Renmore Barracks","lat":53.273642,"lng":-9.028682},{"id":"8460B5229201","name":"Dun na Mara","lat":53.275569,"lng":-9.026074},{"id":"8460B5229401","name":"Renmore Pk","lat":53.276919,"lng":-9.023812},{"id":"8460B5229501","name":"Bon Secours Hospl","lat":53.278628,"lng":-9.021514},{"id":"8460B5229601","name":"Woodlands Cm","lat":53.2802,"lng":-9.026935},{"id":"8460B5229701","name":"The G Hotel","lat":53.2816,"lng":-9.03304},{"id":"8460B5229801","name":"Bohermore Cmy","lat":53.281877,"lng":-9.038717},{"id":"8460B5229901","name":"L Mellows Trce","lat":53.280882,"lng":-9.041482},{"id":"8460B5230001","name":"Cill Ard","lat":53.278897,"lng":-9.044448},{"id":"8460B5231901","name":"Prospect Hill","lat":53.276815,"lng":-9.047216},{"id":"8460B5230101","name":"Eyre Square","lat":53.274759,"lng":-9.048935},{"id":"8460B5230201","name":"St Francis Street","lat":53.27531,"lng":-9.053806},{"id":"8460B5225701","name":"Galway Cathdrl","lat":53.27551,"lng":-9.05715},{"id":"8460B5230301","name":"University South","lat":53.276386,"lng":-9.06118},{"id":"8460B5230401","name":"University Hospl","lat":53.276392,"lng":-9.063489},{"id":"8460B5230501","name":"Costello Rd","lat":53.274308,"lng":-9.065417},{"id":"8460B5230601","name":"McDara Road","lat":53.275104,"lng":-9.067835},{"id":"8460B5230701","name":"Colmcille Road","lat":53.275374,"lng":-9.070811},{"id":"8460B5230801","name":"O'Conaire Road","lat":53.273103,"lng":-9.070529},{"id":"8460B5230901","name":"Shantalla Place","lat":53.272398,"lng":-9.072956},{"id":"8460B5224901","name":"Maunsells Road","lat":53.270252,"lng":-9.071658},{"id":"8460B5231001","name":"The Nurseries","lat":53.268726,"lng":-9.072474},{"id":"8460B5231101","name":"Mount Eaton","lat":53.268951,"lng":-9.077397},{"id":"8460B5231201","name":"Ardmore","lat":53.268152,"lng":-9.083343},{"id":"8460B5231301","name":"The Gardens","lat":53.266754,"lng":-9.089739},{"id":"8460B5231401","name":"Manor Drive","lat":53.266426,"lng":-9.094138},{"id":"8460B5231501","name":"Kingston Gdns","lat":53.264773,"lng":-9.099912},{"id":"8460B5231601","name":"IS Cnc na Cathrach","lat":53.26337,"lng":-9.10468},{"id":"8460B5223401","name":"C\u00edr\u00edn na Mara","lat":53.26211,"lng":-9.112869}]}},"2 109B d":{"0":{"headsign":"Athboy","coords":[[53.349519,-6.251901],[53.349937,-6.251258],[53.350114,-6.251902],[53.351251,-6.251187],[53.350741,-6.254409],[53.355645,-6.257938],[53.358511,-6.260847],[53.359035,-6.262042],[53.359764,-6.261324],[53.360793,-6.272688],[53.361716,-6.29896],[53.36675,-6.313773],[53.36832,-6.320335],[53.374482,-6.339205],[53.376163,-6.345542],[53.380524,-6.357452],[53.381793,-6.359966],[53.381936,-6.363857],[53.383795,-6.365443],[53.387453,-6.373285],[53.394663,-6.386853],[53.396303,-6.390413],[53.396303,-6.390991],[53.395875,-6.391128],[53.395252,-6.389866],[53.39507,-6.390132],[53.395848,-6.391195],[53.396579,-6.391332],[53.3986,-6.394418],[53.403098,-6.40272],[53.404255,-6.40556],[53.405366,-6.409856],[53.408276,-6.427931],[53.409163,-6.430707],[53.410281,-6.437082],[53.410626,-6.443402],[53.412261,-6.446892],[53.4149,-6.450359],[53.418415,-6.453659],[53.42063,-6.457197],[53.421676,-6.457787],[53.423827,-6.457636],[53.428238,-6.459014],[53.430732,-6.461192],[53.433425,-6.464734],[53.434654,-6.465258],[53.436858,-6.465015],[53.440387,-6.469067],[53.447029,-6.473472],[53.451383,-6.477822],[53.45209,-6.479242],[53.454112,-6.481534],[53.458085,-6.482675],[53.459749,-6.483676],[53.476741,-6.502862],[53.480908,-6.508853],[53.48355,-6.515269],[53.485765,-6.518659],[53.490887,-6.522143],[53.501565,-6.534361],[53.503782,-6.538193],[53.504973,-6.539428],[53.506491,-6.540014],[53.511912,-6.539423],[53.513243,-6.539708],[53.521393,-6.550917],[53.521511,-6.551795],[53.520775,-6.552595],[53.516281,-6.555161],[53.517621,-6.560248],[53.518661,-6.562775],[53.523024,-6.568923],[53.524748,-6.573167],[53.526118,-6.57564],[53.528659,-6.578778],[53.526958,-6.588747],[53.528131,-6.594158],[53.534244,-6.605598],[53.536452,-6.609035],[53.536846,-6.61046],[53.537293,-6.614982],[53.537998,-6.616724],[53.541554,-6.621556],[53.541933,-6.621023],[53.54669,-6.626583],[53.547675,-6.628964],[53.548499,-6.629896],[53.548909,-6.631281],[53.553113,-6.634471],[53.553647,-6.640925],[53.554608,-6.645459],[53.557391,-6.650396],[53.557787,-6.654303],[53.559142,-6.657075],[53.558848,-6.658798],[53.559132,-6.660198],[53.560625,-6.661832],[53.562923,-6.66597],[53.563271,-6.668421],[53.563172,-6.670866],[53.564143,-6.675878],[53.564909,-6.678357],[53.566532,-6.680611],[53.567524,-6.682764],[53.567973,-6.684771],[53.568812,-6.686618],[53.570188,-6.688727],[53.571459,-6.689414],[53.572796,-6.692596],[53.574535,-6.692544],[53.576273,-6.693445],[53.579793,-6.696911],[53.580574,-6.700278],[53.581921,-6.703824],[53.585239,-6.707074],[53.585589,-6.710797],[53.583929,-6.712812],[53.580594,-6.71894],[53.575052,-6.724795],[53.572873,-6.729429],[53.571822,-6.733812],[53.570846,-6.742772],[53.569966,-6.74777],[53.566091,-6.757722],[53.561273,-6.768841],[53.560617,-6.771403],[53.560001,-6.775926],[53.55804,-6.782731],[53.556658,-6.781868],[53.555651,-6.782057],[53.553088,-6.785573],[53.55524,-6.782417],[53.556658,-6.781868],[53.56105,-6.785345],[53.561964,-6.787147],[53.562318,-6.789249],[53.562326,-6.790368],[53.560112,-6.790889],[53.55988,-6.798363],[53.560249,-6.8025],[53.559362,-6.804658],[53.559309,-6.807134],[53.558632,-6.812063],[53.55863,-6.815841],[53.558092,-6.818369],[53.558155,-6.821205],[53.557719,-6.822937],[53.556885,-6.824298],[53.555146,-6.829181],[53.555541,-6.834622],[53.555309,-6.83581],[53.554727,-6.836568],[53.55452,-6.838115],[53.555021,-6.84819],[53.555791,-6.850481],[53.556781,-6.851992],[53.556617,-6.853765],[53.5578,-6.858203],[53.558573,-6.863494],[53.560868,-6.87278],[53.563175,-6.878314],[53.564949,-6.880791],[53.565082,-6.884777],[53.565764,-6.888361],[53.565175,-6.890381],[53.565399,-6.893741],[53.565164,-6.895489],[53.565531,-6.898942],[53.567369,-6.902171],[53.570865,-6.905431],[53.57105,-6.906557],[53.572146,-6.905332],[53.572694,-6.905557],[53.574326,-6.903934],[53.575782,-6.903517],[53.580116,-6.905188],[53.583826,-6.903833],[53.592482,-6.904541],[53.596888,-6.902065],[53.603459,-6.901472],[53.60501,-6.90274],[53.606285,-6.904598],[53.608239,-6.909502],[53.608724,-6.911824],[53.61654,-6.917856],[53.617801,-6.919391],[53.618848,-6.918598],[53.621021,-6.921571],[53.621713,-6.920948]],"stops":[{"id":"8220B135001","name":"Dublin Bus\u00e1ras","lat":53.34981,"lng":-6.25203},{"id":"8220DB000055","name":"Mountjoy Prison","lat":53.360412,"lng":-6.26847},{"id":"8220DB000057","name":"Dalymount","lat":53.36076,"lng":-6.2766},{"id":"8220DB001666","name":"Ashtown Roundabout","lat":53.371597,"lng":-6.330596},{"id":"8240DB007167","name":"Navan Rd Stn","lat":53.375866,"lng":-6.344783},{"id":"8240DB007389","name":"Junction 6","lat":53.386018,"lng":-6.370608},{"id":"8240DB000661","name":"Westend Office Park","lat":53.392422,"lng":-6.383489},{"id":"8240B101281","name":"Blanchardstown N3","lat":53.39576,"lng":-6.39119},{"id":"8310DB003328","name":"Clonee Village","lat":53.410481,"lng":-6.442477},{"id":"8310B1340901","name":"Bracetown","lat":53.430077,"lng":-6.460693},{"id":"8310B134111","name":"MSD Dunboyne","lat":53.44906,"lng":-6.47565},{"id":"8310B1012901","name":"Piercetown","lat":53.45533,"lng":-6.482291},{"id":"8310B1013001","name":"Rathbeggan","lat":53.46794,"lng":-6.492927},{"id":"8310B1013101","name":"Growtown","lat":53.478212,"lng":-6.505083},{"id":"8310B1013201","name":"Raynestown","lat":53.483453,"lng":-6.515235},{"id":"8310B1013301","name":"Ballymurphy","lat":53.495409,"lng":-6.527779},{"id":"8310B133371","name":"The Willows","lat":53.5023,"lng":-6.5356},{"id":"8310B1013401","name":"Seachnall Aby","lat":53.505776,"lng":-6.539888},{"id":"8310B1333801","name":"Dunshaughlin","lat":53.513391,"lng":-6.540124},{"id":"8310B133151","name":"Grange Hall","lat":53.516771,"lng":-6.544561},{"id":"8310B1355001","name":"Dunsany","lat":53.541776,"lng":-6.621334},{"id":"8310B1355101","name":"Swainstown","lat":53.555352,"lng":-6.646958},{"id":"8310B137291","name":"Kilmessan","lat":53.55926,"lng":-6.660328},{"id":"8310B1367501","name":"Cooljohn","lat":53.568607,"lng":-6.686348},{"id":"8310B139111","name":"Bective","lat":53.579991,"lng":-6.697563},{"id":"8310B137271","name":"Bective Abbey","lat":53.582668,"lng":-6.704851},{"id":"8310B136161","name":"Trim Rtl Pk","lat":53.561619,"lng":-6.767807},{"id":"8310B1030501","name":"Lackanash","lat":53.556577,"lng":-6.781779},{"id":"8310B1030601","name":"Trim","lat":53.553145,"lng":-6.785379},{"id":"8310B1358101","name":"Trim","lat":53.55312,"lng":-6.785636},{"id":"8310B103411","name":"Lackanash","lat":53.557026,"lng":-6.782065},{"id":"8310B1029801","name":"Tower View","lat":53.562181,"lng":-6.788441},{"id":"8310B103141","name":"Kildalkey","lat":53.571028,"lng":-6.906394},{"id":"8310B1030201","name":"Athboy","lat":53.62174,"lng":-6.921001}]},"1":{"headsign":"St. Stephen's Green","coords":[[53.621714,-6.920947],[53.621021,-6.921571],[53.618848,-6.918598],[53.617801,-6.919391],[53.61654,-6.917856],[53.608724,-6.911824],[53.608239,-6.909502],[53.606285,-6.904598],[53.60501,-6.90274],[53.603459,-6.901472],[53.596888,-6.902065],[53.592482,-6.904541],[53.583826,-6.903833],[53.580116,-6.905188],[53.575782,-6.903517],[53.574326,-6.903934],[53.572694,-6.905557],[53.572146,-6.905332],[53.57105,-6.906557],[53.570865,-6.905431],[53.567369,-6.902171],[53.565531,-6.898942],[53.565164,-6.895489],[53.565399,-6.893741],[53.565175,-6.890381],[53.565764,-6.888361],[53.565082,-6.884777],[53.564949,-6.880791],[53.563175,-6.878314],[53.561021,-6.873266],[53.560146,-6.870036],[53.558573,-6.863494],[53.557759,-6.858003],[53.556617,-6.853765],[53.556781,-6.851992],[53.555791,-6.850481],[53.555021,-6.84819],[53.554556,-6.841056],[53.554685,-6.836766],[53.555309,-6.83581],[53.555541,-6.834622],[53.555146,-6.829181],[53.558102,-6.821517],[53.558092,-6.818369],[53.55863,-6.815841],[53.558632,-6.812063],[53.559309,-6.807134],[53.559362,-6.804658],[53.560238,-6.802635],[53.55988,-6.798363],[53.560112,-6.790889],[53.561549,-6.79227],[53.562342,-6.792411],[53.562284,-6.788756],[53.561895,-6.786934],[53.56105,-6.785345],[53.556658,-6.781868],[53.55524,-6.782417],[53.553088,-6.785573],[53.555651,-6.782057],[53.556658,-6.781868],[53.55804,-6.782731],[53.560001,-6.775926],[53.560617,-6.771403],[53.561273,-6.768841],[53.566091,-6.757722],[53.569966,-6.74777],[53.570846,-6.742772],[53.571822,-6.733812],[53.573182,-6.72857],[53.575052,-6.724795],[53.580594,-6.71894],[53.583929,-6.712812],[53.585589,-6.710797],[53.585375,-6.707542],[53.585137,-6.706921],[53.581921,-6.703824],[53.580574,-6.700278],[53.579793,-6.696911],[53.576273,-6.693445],[53.574535,-6.692544],[53.572796,-6.692596],[53.571459,-6.689414],[53.570188,-6.688727],[53.568812,-6.686618],[53.567973,-6.684771],[53.567524,-6.682764],[53.566532,-6.680611],[53.564909,-6.678357],[53.564143,-6.675878],[53.563172,-6.670866],[53.563271,-6.668421],[53.562923,-6.66597],[53.560625,-6.661832],[53.559132,-6.660198],[53.558848,-6.658798],[53.559142,-6.657075],[53.557787,-6.654303],[53.557391,-6.650396],[53.554608,-6.645459],[53.553647,-6.640925],[53.553113,-6.634471],[53.548909,-6.631281],[53.548499,-6.629896],[53.547675,-6.628964],[53.54669,-6.626583],[53.541933,-6.621023],[53.541554,-6.621556],[53.537998,-6.616724],[53.537293,-6.614982],[53.536846,-6.61046],[53.536452,-6.609035],[53.534244,-6.605598],[53.528131,-6.594158],[53.526958,-6.588747],[53.528809,-6.578845],[53.526118,-6.57564],[53.524748,-6.573167],[53.523024,-6.568923],[53.518661,-6.562775],[53.517475,-6.559764],[53.516609,-6.555618],[53.517069,-6.554592],[53.52189,-6.551892],[53.522016,-6.551304],[53.521393,-6.550917],[53.513086,-6.539567],[53.506491,-6.540014],[53.504296,-6.538825],[53.501565,-6.534361],[53.490887,-6.522143],[53.485457,-6.518279],[53.48355,-6.515269],[53.480908,-6.508853],[53.476741,-6.502862],[53.459749,-6.483676],[53.458085,-6.482675],[53.454112,-6.481534],[53.452785,-6.479903],[53.452418,-6.478599],[53.447029,-6.473472],[53.439771,-6.468513],[53.438333,-6.466799],[53.437282,-6.464709],[53.434978,-6.465265],[53.433909,-6.465033],[53.432946,-6.464269],[53.430205,-6.460627],[53.427837,-6.45877],[53.423827,-6.457636],[53.421676,-6.457787],[53.42063,-6.457197],[53.418415,-6.453659],[53.4149,-6.450359],[53.412375,-6.447091],[53.412253,-6.446087],[53.410601,-6.443274],[53.410281,-6.437082],[53.409163,-6.430707],[53.408452,-6.428348],[53.409412,-6.427181],[53.40841,-6.424614],[53.407253,-6.420079],[53.405578,-6.409993],[53.404372,-6.405306],[53.398882,-6.393999],[53.398664,-6.392861],[53.398893,-6.391417],[53.39738,-6.389991],[53.396642,-6.388707],[53.396034,-6.388498],[53.394496,-6.386004],[53.387386,-6.372634],[53.386016,-6.369589],[53.385409,-6.366362],[53.384253,-6.365916],[53.38357,-6.364671],[53.383309,-6.36237],[53.382246,-6.36136],[53.381839,-6.359657],[53.381054,-6.358284],[53.37854,-6.351507],[53.376799,-6.344987],[53.370701,-6.327665],[53.36832,-6.320335],[53.36675,-6.313773],[53.361716,-6.298644],[53.360558,-6.269671],[53.358999,-6.269798],[53.356751,-6.267937],[53.356059,-6.265327],[53.352761,-6.26145],[53.346912,-6.258736],[53.345821,-6.257278],[53.344684,-6.259377],[53.343307,-6.259272],[53.342421,-6.255645],[53.341657,-6.255738],[53.341496,-6.2549],[53.338925,-6.256538],[53.338539,-6.255114]],"stops":[{"id":"8310B1358901","name":"Athboy","lat":53.621899,"lng":-6.920679},{"id":"8310B1031301","name":"Kildalkey","lat":53.570838,"lng":-6.905281},{"id":"8310B1030401","name":"Tower View","lat":53.562287,"lng":-6.788257},{"id":"8310B1030501","name":"Lackanash","lat":53.556577,"lng":-6.781779},{"id":"8310B1030601","name":"Trim","lat":53.553145,"lng":-6.785379},{"id":"8310B1358101","name":"Trim","lat":53.55312,"lng":-6.785636},{"id":"8310B103411","name":"Lackanash","lat":53.557026,"lng":-6.782065},{"id":"8310B137261","name":"Bective Abbey","lat":53.582685,"lng":-6.704805},{"id":"8310B1367601","name":"Bective","lat":53.580091,"lng":-6.697681},{"id":"8310B137601","name":"Cooljohn","lat":53.568449,"lng":-6.685825},{"id":"8310B137281","name":"Kilmessan","lat":53.559275,"lng":-6.660116},{"id":"8310B137481","name":"Swainstown","lat":53.555324,"lng":-6.646793},{"id":"8310B137471","name":"Dunsany","lat":53.541783,"lng":-6.621168},{"id":"8310B105591","name":"Grange Hall","lat":53.517774,"lng":-6.545733},{"id":"8310B1046501","name":"Dunshaughlin","lat":53.512453,"lng":-6.53947},{"id":"8310B1018701","name":"Seachnall Aby","lat":53.50582,"lng":-6.539781},{"id":"8310B104631","name":"The Willows","lat":53.502598,"lng":-6.535776},{"id":"8310B1018801","name":"Ballymurphy","lat":53.495962,"lng":-6.528212},{"id":"8310B1018901","name":"Raynestown","lat":53.4833,"lng":-6.514502},{"id":"8310B1019001","name":"Growtown","lat":53.478373,"lng":-6.505032},{"id":"8310B1019101","name":"Rathbeggan","lat":53.467272,"lng":-6.491972},{"id":"8310B1011701","name":"Piercetown","lat":53.450396,"lng":-6.47667},{"id":"8310B134121","name":"MSD Dunboyne","lat":53.44825,"lng":-6.47445},{"id":"8310B1019201","name":"Bracetown","lat":53.429973,"lng":-6.46029},{"id":"8310DB003338","name":"Clonee Village","lat":53.410601,"lng":-6.442067},{"id":"8240B1045601","name":"Blanchardstown N3","lat":53.39732,"lng":-6.38979},{"id":"8240DB007166","name":"Navan Rd Stn","lat":53.377094,"lng":-6.345787},{"id":"8220DB001696","name":"Ashtown Roundabout","lat":53.371541,"lng":-6.329831},{"id":"8220DB000080","name":"Phibsborough Church","lat":53.360863,"lng":-6.276054},{"id":"8220DB000817","name":"Mater Hospital","lat":53.359646,"lng":-6.269612},{"id":"8220DB000277","name":"O'Connell St Upper","lat":53.350822,"lng":-6.260506},{"id":"8220B1046101","name":"Merrion Row","lat":53.338533,"lng":-6.254804}]}},"2 100X c b":{"0":{"headsign":"Dundalk","coords":[[53.339912,-6.247234],[53.341786,-6.252516],[53.342172,-6.25156],[53.342058,-6.250618],[53.343928,-6.249419],[53.344172,-6.249587],[53.345267,-6.255105],[53.34828,-6.254945],[53.348182,-6.249187],[53.346761,-6.22772],[53.347303,-6.227192],[53.349896,-6.226949],[53.353396,-6.223978],[53.354333,-6.224219],[53.35499,-6.225056],[53.356711,-6.229522],[53.359575,-6.233288],[53.363922,-6.234644],[53.370028,-6.237909],[53.374457,-6.243789],[53.377223,-6.244218],[53.382522,-6.243939],[53.394999,-6.240398],[53.398131,-6.238138],[53.409318,-6.227574],[53.418114,-6.222508],[53.425557,-6.218815],[53.426803,-6.219503],[53.427615,-6.22138],[53.428114,-6.22817],[53.427857,-6.229649],[53.428204,-6.231219],[53.427878,-6.232545],[53.425651,-6.234695],[53.425556,-6.235815],[53.426932,-6.240863],[53.428587,-6.242812],[53.428742,-6.242029],[53.42932,-6.241746],[53.429374,-6.240935],[53.428494,-6.234179],[53.428313,-6.230603],[53.428596,-6.229522],[53.428225,-6.228298],[53.428039,-6.225008],[53.427824,-6.219167],[53.428007,-6.218121],[53.438396,-6.208858],[53.447402,-6.204288],[53.450596,-6.203129],[53.454175,-6.203],[53.459706,-6.204193],[53.469018,-6.202758],[53.471552,-6.202815],[53.474442,-6.20353],[53.480007,-6.2064],[53.484077,-6.206931],[53.486101,-6.206617],[53.489477,-6.205274],[53.494213,-6.20197],[53.497124,-6.200789],[53.499805,-6.200253],[53.50297,-6.200446],[53.504897,-6.20094],[53.508892,-6.203],[53.513039,-6.206626],[53.515594,-6.208126],[53.517957,-6.20861],[53.520043,-6.208428],[53.524929,-6.206304],[53.527875,-6.205982],[53.530541,-6.206798],[53.536557,-6.210974],[53.541066,-6.21336],[53.544288,-6.214565],[53.550742,-6.215795],[53.557072,-6.215498],[53.576674,-6.210853],[53.579923,-6.210681],[53.583706,-6.211196],[53.587629,-6.212462],[53.591081,-6.214286],[53.596493,-6.21864],[53.600388,-6.22316],[53.612165,-6.23922],[53.617658,-6.244576],[53.622551,-6.247696],[53.634084,-6.251368],[53.6373,-6.253667],[53.640809,-6.257709],[53.644345,-6.264245],[53.654597,-6.293808],[53.656136,-6.299752],[53.658748,-6.315242],[53.660432,-6.322672],[53.662697,-6.330555],[53.667294,-6.341582],[53.669861,-6.34647],[53.67429,-6.353375],[53.680035,-6.360113],[53.691609,-6.370692],[53.696131,-6.375425],[53.700494,-6.381401],[53.701217,-6.382919],[53.701651,-6.384875],[53.702331,-6.382461],[53.704088,-6.378864],[53.704007,-6.3783],[53.705713,-6.373343],[53.707701,-6.36989],[53.711063,-6.354205],[53.711436,-6.353322],[53.712099,-6.353235],[53.712125,-6.352911],[53.711747,-6.35293],[53.712357,-6.352528],[53.714093,-6.358454],[53.717884,-6.356436],[53.719696,-6.356563],[53.730317,-6.372809],[53.730841,-6.374217],[53.731228,-6.374316],[53.733821,-6.378464],[53.7356,-6.380277],[53.737525,-6.381018],[53.750752,-6.381875],[53.753624,-6.382872],[53.755912,-6.38477],[53.761596,-6.392156],[53.765334,-6.395232],[53.771769,-6.403048],[53.774512,-6.405129],[53.775049,-6.405184],[53.775071,-6.403783],[53.777194,-6.402508],[53.779389,-6.398926],[53.780818,-6.397392],[53.782242,-6.396818],[53.786315,-6.396704],[53.789333,-6.393699],[53.790477,-6.393036],[53.796026,-6.393339],[53.801707,-6.394961],[53.805119,-6.394664],[53.807699,-6.395259],[53.810288,-6.394889],[53.812551,-6.392644],[53.813802,-6.392338],[53.824434,-6.394459],[53.829962,-6.393949],[53.831744,-6.395107],[53.836955,-6.393249],[53.844337,-6.394892],[53.850279,-6.397527],[53.851873,-6.400468],[53.852606,-6.403049],[53.85366,-6.404764],[53.872467,-6.390269],[53.876125,-6.387992],[53.880505,-6.388536],[53.894129,-6.388518],[53.896186,-6.389558],[53.897269,-6.389281],[53.898475,-6.389794],[53.902991,-6.388519],[53.913434,-6.383488],[53.926621,-6.379699],[53.967389,-6.388001],[53.980197,-6.393559],[53.986746,-6.397221],[53.991406,-6.401322],[53.993873,-6.405308],[53.994858,-6.405913],[54.000437,-6.405625],[54.001349,-6.405132],[54.00263,-6.403158],[54.003351,-6.404285],[54.004307,-6.403694],[54.005641,-6.404284]],"stops":[{"id":"8220DB000493","name":"Holles Street","lat":53.339853,"lng":-6.247377},{"id":"8220B1000401","name":"Clare Street","lat":53.341434,"lng":-6.251562},{"id":"8220DB008513","name":"Westland Row","lat":53.343163,"lng":-6.249959},{"id":"8220B1352701","name":"Custom Hse Quay","lat":53.348359,"lng":-6.253712},{"id":"8220DB002499","name":"S O'Casey Br","lat":53.348128,"lng":-6.247128},{"id":"8220DB002501","name":"N Wall Quay","lat":53.347376,"lng":-6.236359},{"id":"8220B106421","name":"3Arena","lat":53.346899,"lng":-6.229431},{"id":"8240B112021","name":"Airport Zone 13","lat":53.42792,"lng":-6.24197},{"id":"8300B136141","name":"Cedarfield","lat":53.705072,"lng":-6.375209},{"id":"8300B1359501","name":"Drogheda Bus","lat":53.71172,"lng":-6.35339},{"id":"8300B139151","name":"Melifont Pk","lat":53.723916,"lng":-6.363132},{"id":"8300B1316301","name":"Dunleer","lat":53.825121,"lng":-6.394569},{"id":"8300B1314101","name":"Castlebellingham","lat":53.897522,"lng":-6.389526},{"id":"8300B1070101","name":"Dundalk IT","lat":53.984181,"lng":-6.395973},{"id":"8300B131211","name":"Louth County Hospl","lat":53.98858,"lng":-6.399022},{"id":"8300B100521","name":"Stapleton Place","lat":53.998882,"lng":-6.405948},{"id":"8300B1050901","name":"Dundalk Bus Stn","lat":54.00532,"lng":-6.40413}]},"1":{"headsign":"Merrion Square","coords":[[54.005641,-6.404284],[54.006014,-6.403989],[54.005776,-6.405643],[54.004796,-6.406062],[54.002052,-6.40928],[54.000284,-6.410105],[53.999998,-6.409783],[54.000047,-6.408546],[53.999542,-6.408524],[53.999473,-6.405795],[53.99602,-6.406117],[53.994259,-6.405652],[53.991406,-6.401322],[53.986746,-6.397221],[53.980197,-6.393559],[53.967389,-6.388001],[53.926621,-6.379699],[53.913434,-6.383488],[53.902991,-6.388519],[53.898475,-6.389794],[53.897269,-6.389281],[53.896186,-6.389558],[53.894129,-6.388518],[53.880505,-6.388536],[53.876125,-6.387992],[53.872467,-6.390269],[53.85366,-6.404764],[53.852606,-6.403049],[53.851873,-6.400468],[53.850279,-6.397527],[53.847263,-6.395888],[53.837369,-6.393271],[53.831874,-6.395098],[53.829962,-6.393949],[53.823797,-6.394333],[53.821052,-6.402667],[53.812917,-6.399793],[53.806722,-6.399093],[53.783275,-6.401775],[53.779548,-6.403063],[53.775772,-6.405222],[53.766406,-6.412958],[53.764,-6.414092],[53.760892,-6.4148],[53.756047,-6.414307],[53.752128,-6.412397],[53.749291,-6.409856],[53.742381,-6.401716],[53.738512,-6.398819],[53.736013,-6.397691],[53.730634,-6.396396],[53.717283,-6.396785],[53.715162,-6.396698],[53.712672,-6.395883],[53.710866,-6.394876],[53.707821,-6.392149],[53.70529,-6.388483],[53.702572,-6.382419],[53.703705,-6.379201],[53.704088,-6.378864],[53.704007,-6.3783],[53.705713,-6.373343],[53.707701,-6.36989],[53.711063,-6.354205],[53.711588,-6.353097],[53.712357,-6.352528],[53.714093,-6.358454],[53.717884,-6.356436],[53.719696,-6.356563],[53.730317,-6.372809],[53.730841,-6.374217],[53.731228,-6.374316],[53.733821,-6.378464],[53.7356,-6.380277],[53.737525,-6.381018],[53.750752,-6.381875],[53.753624,-6.382872],[53.755912,-6.38477],[53.761596,-6.392156],[53.765334,-6.395232],[53.771769,-6.403048],[53.774307,-6.405074],[53.775049,-6.405184],[53.775071,-6.403783],[53.777194,-6.402508],[53.779389,-6.398926],[53.780818,-6.397392],[53.782242,-6.396818],[53.786315,-6.396704],[53.789333,-6.393699],[53.790708,-6.392966],[53.796026,-6.393339],[53.801707,-6.394961],[53.805119,-6.394664],[53.807699,-6.395259],[53.810288,-6.394889],[53.813029,-6.392414],[53.815086,-6.392369],[53.823797,-6.394333],[53.821052,-6.402667],[53.812917,-6.399793],[53.806722,-6.399093],[53.783275,-6.401775],[53.779548,-6.403063],[53.775772,-6.405222],[53.766406,-6.412958],[53.76244,-6.414607],[53.759307,-6.414886],[53.756047,-6.414307],[53.752128,-6.412397],[53.749291,-6.409856],[53.742381,-6.401716],[53.738512,-6.398819],[53.736013,-6.397691],[53.730634,-6.396396],[53.715162,-6.396698],[53.710866,-6.394876],[53.707821,-6.392149],[53.70529,-6.388483],[53.702572,-6.382419],[53.703705,-6.379201],[53.704088,-6.378864],[53.704007,-6.3783],[53.705713,-6.373343],[53.707701,-6.36989],[53.711063,-6.354205],[53.711436,-6.353322],[53.712162,-6.352962],[53.711588,-6.353097],[53.711063,-6.354205],[53.707701,-6.36989],[53.705713,-6.373343],[53.704007,-6.3783],[53.703702,-6.378435],[53.70228,-6.381987],[53.693156,-6.370741],[53.693095,-6.37022],[53.690904,-6.36943],[53.680022,-6.359662],[53.677163,-6.356465],[53.671697,-6.348955],[53.668336,-6.343016],[53.66496,-6.335601],[53.66025,-6.320896],[53.65856,-6.312797],[53.656797,-6.301834],[53.654457,-6.292414],[53.644651,-6.264299],[53.641509,-6.25826],[53.638234,-6.254195],[53.635088,-6.251639],[53.631739,-6.250035],[53.625504,-6.248554],[53.622577,-6.247353],[53.616665,-6.243361],[53.612254,-6.238898],[53.600653,-6.22307],[53.596581,-6.218299],[53.590404,-6.213493],[53.583999,-6.210896],[53.581795,-6.210445],[53.576623,-6.21051],[53.555995,-6.215376],[53.551776,-6.215547],[53.547531,-6.215054],[53.542125,-6.213385],[53.537049,-6.210833],[53.530658,-6.206378],[53.528718,-6.20571],[53.524712,-6.205982],[53.520056,-6.208042],[53.517606,-6.208192],[53.515973,-6.207785],[53.513243,-6.20639],[53.508853,-6.202656],[53.506811,-6.201412],[53.501439,-6.199888],[53.495784,-6.200832],[53.49295,-6.202313],[53.48949,-6.204845],[53.486079,-6.206255],[53.484049,-6.206563],[53.479662,-6.205889],[53.47394,-6.202947],[53.471537,-6.202401],[53.469015,-6.202361],[53.459726,-6.203823],[53.45306,-6.202536],[53.450593,-6.202729],[53.447309,-6.203888],[53.438389,-6.208415],[53.431776,-6.214271],[53.428498,-6.216047],[53.426627,-6.216233],[53.426386,-6.217245],[53.426596,-6.218313],[53.42736,-6.2196],[53.427756,-6.221156],[53.428114,-6.22817],[53.427848,-6.229473],[53.428199,-6.231489],[53.427878,-6.232545],[53.425782,-6.234477],[53.425541,-6.235634],[53.426932,-6.240863],[53.428587,-6.242812],[53.428742,-6.242029],[53.42932,-6.241746],[53.429374,-6.240935],[53.428494,-6.234179],[53.428313,-6.230603],[53.428596,-6.229522],[53.428176,-6.227603],[53.427918,-6.217584],[53.427568,-6.216276],[53.427001,-6.215949],[53.425809,-6.217585],[53.424586,-6.218442],[53.408814,-6.227513],[53.395716,-6.239689],[53.393877,-6.240616],[53.382523,-6.243677],[53.377224,-6.244002],[53.37451,-6.243488],[53.370081,-6.237637],[53.363975,-6.234325],[53.360788,-6.233711],[53.359482,-6.232853],[53.357312,-6.230205],[53.354947,-6.223691],[53.353746,-6.223155],[53.352265,-6.224933],[53.350368,-6.226388],[53.346705,-6.227378],[53.348243,-6.251561],[53.345785,-6.252116],[53.345446,-6.248443],[53.342151,-6.2505],[53.341737,-6.250261],[53.339759,-6.252046],[53.339479,-6.251248]],"stops":[{"id":"8300B1050901","name":"Dundalk Bus Stn","lat":54.00532,"lng":-6.40413},{"id":"8300B138931","name":"Stapleton Place","lat":53.99869,"lng":-6.405712},{"id":"8300B138941","name":"Louth County Hospl","lat":53.989176,"lng":-6.399213},{"id":"8300B138951","name":"Dundalk IT","lat":53.983388,"lng":-6.395165},{"id":"8300B138961","name":"Castlebellingham","lat":53.897582,"lng":-6.389295},{"id":"8300B138971","name":"Dunleer","lat":53.831909,"lng":-6.395068},{"id":"8300B100601","name":"Melifont Pk","lat":53.723804,"lng":-6.362818},{"id":"8300B1359501","name":"Drogheda Bus","lat":53.71172,"lng":-6.35339},{"id":"8300B136131","name":"Cedarfield","lat":53.705278,"lng":-6.374474},{"id":"8240B111911","name":"Terminal 2 Zone 19","lat":53.42611,"lng":-6.2384},{"id":"8240DB003669","name":"Aircraft Hangars","lat":53.428466,"lng":-6.23508},{"id":"8220DB007611","name":"N Wall Quay","lat":53.34727,"lng":-6.23661},{"id":"8220DB007398","name":"Convention Centre","lat":53.347499,"lng":-6.239853},{"id":"8220DB006252","name":"S O'Casey Br","lat":53.347965,"lng":-6.247044},{"id":"8220B111761","name":"Westland Row Church","lat":53.342626,"lng":-6.250132},{"id":"8220B211521","name":"Merrion Sq West","lat":53.34091,"lng":-6.250788},{"id":"8220DB007387","name":"Merrion Sq South","lat":53.339472,"lng":-6.250817}]}},"2 404 c a":{"0":{"headsign":"Newcastle","coords":[[53.272873,-8.928517],[53.272143,-8.929681],[53.269776,-8.928655],[53.267419,-8.929994],[53.266556,-8.929896],[53.267419,-8.929994],[53.269776,-8.928655],[53.272143,-8.929681],[53.273486,-8.928031],[53.276424,-8.927045],[53.276905,-8.927499],[53.276984,-8.93249],[53.278092,-8.941245],[53.279176,-8.97186],[53.279005,-8.972832],[53.279432,-8.973206],[53.280625,-8.970901],[53.280896,-8.973855],[53.28137,-8.973966],[53.280896,-8.973855],[53.280625,-8.970901],[53.279716,-8.972355],[53.279084,-8.97249],[53.278888,-8.973626],[53.276378,-8.978789],[53.275635,-8.981708],[53.274186,-8.992549],[53.274123,-8.994924],[53.274466,-8.99763],[53.27682,-9.006289],[53.276795,-9.008442],[53.277496,-9.013214],[53.28032,-9.027184],[53.280863,-9.031067],[53.281955,-9.033731],[53.280645,-9.035181],[53.278025,-9.039543],[53.276013,-9.04216],[53.275427,-9.043742],[53.275047,-9.046479],[53.27418,-9.047911],[53.275138,-9.049247],[53.273984,-9.05125],[53.275049,-9.053374],[53.275875,-9.054228],[53.275409,-9.056798],[53.275798,-9.057612],[53.27576,-9.058565],[53.277018,-9.063563],[53.278596,-9.063173],[53.280532,-9.064066],[53.28223,-9.065681],[53.286211,-9.068318],[53.288153,-9.07044],[53.289355,-9.073912],[53.287678,-9.074921],[53.286654,-9.074887],[53.280582,-9.070661],[53.28218,-9.071833],[53.281196,-9.075329],[53.280108,-9.077035],[53.277628,-9.078976],[53.276036,-9.082813],[53.274113,-9.080915],[53.275247,-9.076821],[53.276159,-9.077573]],"stops":[{"id":"8470B556161","name":"Oranmore North","lat":53.272747,"lng":-8.928538},{"id":"8470B5260101","name":"Oranmore Centre","lat":53.266563,"lng":-8.929813},{"id":"8460B8884201","name":"Galway Clinic","lat":53.28139,"lng":-8.97414},{"id":"8460B5243201","name":"Castlegar GAA","lat":53.277442,"lng":-8.976397},{"id":"8460B5243301","name":"Lios an Uisce","lat":53.274905,"lng":-8.99955},{"id":"8460B5228301","name":"Merlin Gate","lat":53.276485,"lng":-9.005104},{"id":"8460B5228401","name":"ATU Galway","lat":53.277113,"lng":-9.010562},{"id":"8460B5243401","name":"Belmont","lat":53.277577,"lng":-9.014097},{"id":"8460B5243501","name":"Glenina Heights","lat":53.278434,"lng":-9.01905},{"id":"8460B5229601","name":"Woodlands Cm","lat":53.2802,"lng":-9.026935},{"id":"8460B5229701","name":"The G Hotel","lat":53.2816,"lng":-9.03304},{"id":"8460B5236701","name":"Loyola Park","lat":53.280076,"lng":-9.036064},{"id":"8460B5236801","name":"Dexcom Stadium","lat":53.27869,"lng":-9.038295},{"id":"8460B5236901","name":"College Road","lat":53.276397,"lng":-9.041553},{"id":"8460B5243701","name":"Eyre Square","lat":53.274902,"lng":-9.049103},{"id":"8460B5230201","name":"St Francis Street","lat":53.27531,"lng":-9.053806},{"id":"8460B5225701","name":"Galway Cathdrl","lat":53.27551,"lng":-9.05715},{"id":"8460B5230301","name":"University South","lat":53.276386,"lng":-9.06118},{"id":"8460B5256501","name":"Lw Newcastle","lat":53.278883,"lng":-9.063356},{"id":"8460B5244001","name":"Snipe Avenue","lat":53.281457,"lng":-9.064935},{"id":"8460B5244101","name":"University Central","lat":53.282795,"lng":-9.066093},{"id":"8460B5256601","name":"Up Newcastle","lat":53.285565,"lng":-9.067931},{"id":"8460B5244301","name":"Corrib Village","lat":53.286876,"lng":-9.069044},{"id":"8460B5244401","name":"Tudor Lawn","lat":53.288137,"lng":-9.074655},{"id":"8460B5244501","name":"Hazel Park","lat":53.284652,"lng":-9.073472},{"id":"8460B5244601","name":"T Hynes Road","lat":53.2835,"lng":-9.072679},{"id":"8460B5245301","name":"Ardilaun Road","lat":53.280633,"lng":-9.070658},{"id":"8460B5245401","name":"Ardilaun Road","lat":53.280542,"lng":-9.070775},{"id":"8460B5244801","name":"Laurel Park","lat":53.281464,"lng":-9.074202},{"id":"8460B5244901","name":"J Coogan Park","lat":53.279349,"lng":-9.077478},{"id":"8460B5255001","name":"Inishannagh Park","lat":53.27697,"lng":-9.08063},{"id":"8460B5255201","name":"Corrach Bui","lat":53.27523,"lng":-9.08219},{"id":"84605257301","name":"Westside Pk","lat":53.27458,"lng":-9.07952},{"id":"8460B5255401","name":"Bothar Le Cheile","lat":53.2763,"lng":-9.07779}]},"1":{"headsign":"Oranmore","coords":[[53.276159,-9.077573],[53.277521,-9.07914],[53.280108,-9.077035],[53.281155,-9.075436],[53.28218,-9.071833],[53.286654,-9.074887],[53.287678,-9.074921],[53.289355,-9.073912],[53.288153,-9.07044],[53.286211,-9.068318],[53.28223,-9.065681],[53.280532,-9.064066],[53.278596,-9.063173],[53.277018,-9.063563],[53.27576,-9.058565],[53.275798,-9.057612],[53.275409,-9.056798],[53.275875,-9.054228],[53.275049,-9.053374],[53.273984,-9.05125],[53.275367,-9.048801],[53.276497,-9.047552],[53.276041,-9.046258],[53.275228,-9.045861],[53.275427,-9.043742],[53.276013,-9.04216],[53.278025,-9.039543],[53.280645,-9.035181],[53.282177,-9.033678],[53.280863,-9.031067],[53.28032,-9.027184],[53.277496,-9.013214],[53.277078,-9.009367],[53.277215,-9.008217],[53.274168,-8.995631],[53.274186,-8.992549],[53.276058,-8.97972],[53.278971,-8.973461],[53.279484,-8.973135],[53.280625,-8.970901],[53.280896,-8.973855],[53.28137,-8.973966],[53.280896,-8.973855],[53.280625,-8.970901],[53.279716,-8.972355],[53.279327,-8.971989],[53.278231,-8.941102],[53.277063,-8.931497],[53.277263,-8.926639],[53.276948,-8.926339],[53.276424,-8.927045],[53.272873,-8.928517]],"stops":[{"id":"8460B5255401","name":"Bothar Le Cheile","lat":53.2763,"lng":-9.07779},{"id":"8460B5255601","name":"J Coogan Park","lat":53.27923,"lng":-9.07773},{"id":"8460B5255701","name":"Laurel Park","lat":53.281552,"lng":-9.07434},{"id":"8460B5255801","name":"T Hynes Road","lat":53.283614,"lng":-9.072937},{"id":"8460B5255901","name":"Hazel Park","lat":53.28559,"lng":-9.07436},{"id":"8460B5256001","name":"Tudor Lawn","lat":53.288505,"lng":-9.074694},{"id":"8460B5256101","name":"Corrib Village","lat":53.287599,"lng":-9.069572},{"id":"8460B5256701","name":"Up Newcastle","lat":53.285503,"lng":-9.067765},{"id":"8460B5256301","name":"University Central","lat":53.28311,"lng":-9.06613},{"id":"8460B5256801","name":"Lw Newcastle","lat":53.27858,"lng":-9.06307},{"id":"8460B5225601","name":"University South","lat":53.27674,"lng":-9.06207},{"id":"8460B5231801","name":"Galway Cathdrl","lat":53.27583,"lng":-9.05817},{"id":"8460B5225901","name":"St Francis Street","lat":53.275045,"lng":-9.05329},{"id":"8460B5226101","name":"Eyre Square","lat":53.275066,"lng":-9.04963},{"id":"8460B5232101","name":"B\u00f3thar B U\u00ed Eithir","lat":53.27627,"lng":-9.04664},{"id":"8460B5232301","name":"College Road","lat":53.276668,"lng":-9.041395},{"id":"8460B5232401","name":"Dexcom Stadium","lat":53.279225,"lng":-9.037783},{"id":"8460B5232501","name":"Loyola Park","lat":53.279982,"lng":-9.036557},{"id":"8460B5226901","name":"The G Hotel","lat":53.2812,"lng":-9.03181},{"id":"8460B5227001","name":"Woodlands Cm","lat":53.279859,"lng":-9.024782},{"id":"8460B5241301","name":"Glenina Heights","lat":53.278791,"lng":-9.019936},{"id":"8460B5241401","name":"Belmont","lat":53.277754,"lng":-9.014476},{"id":"8460B5228101","name":"ATU Galway","lat":53.27718,"lng":-9.00992},{"id":"8460B5241501","name":"Lios an Uisce","lat":53.274509,"lng":-8.997426},{"id":"8460B5241801","name":"Castlegar GAA","lat":53.277668,"lng":-8.976312},{"id":"8460B8884201","name":"Galway Clinic","lat":53.28139,"lng":-8.97414},{"id":"8470B556161","name":"Oranmore North","lat":53.272747,"lng":-8.928538}]}},"2 109X d":{"0":{"headsign":"Cavan","coords":[[53.349519,-6.251901],[53.349937,-6.251258],[53.350114,-6.251902],[53.351251,-6.251187],[53.350741,-6.254409],[53.355645,-6.257938],[53.358511,-6.260847],[53.359035,-6.262042],[53.361747,-6.259493],[53.364639,-6.27177],[53.366009,-6.271785],[53.367938,-6.273252],[53.370566,-6.279852],[53.373894,-6.285401],[53.377399,-6.287579],[53.379002,-6.287833],[53.380463,-6.288951],[53.382927,-6.292635],[53.39181,-6.303826],[53.393836,-6.305029],[53.396833,-6.305639],[53.402853,-6.310692],[53.402647,-6.314999],[53.401386,-6.319126],[53.388546,-6.353816],[53.386794,-6.357244],[53.383372,-6.361169],[53.384758,-6.364156],[53.385283,-6.36795],[53.386101,-6.370575],[53.394663,-6.386853],[53.396303,-6.390413],[53.396303,-6.390991],[53.395875,-6.391128],[53.395252,-6.389866],[53.39507,-6.390132],[53.395848,-6.391195],[53.396579,-6.391332],[53.3986,-6.394418],[53.403098,-6.40272],[53.404255,-6.40556],[53.405366,-6.409856],[53.406858,-6.419311],[53.411855,-6.440936],[53.412815,-6.444032],[53.414281,-6.446952],[53.42556,-6.461381],[53.427587,-6.463504],[53.430114,-6.465347],[53.443819,-6.471812],[53.447044,-6.47429],[53.449713,-6.477144],[53.45621,-6.486791],[53.461243,-6.497982],[53.463739,-6.50201],[53.471726,-6.511013],[53.478701,-6.519783],[53.487226,-6.526812],[53.491425,-6.531776],[53.494784,-6.537732],[53.501574,-6.553058],[53.504299,-6.557166],[53.507056,-6.559915],[53.510779,-6.562004],[53.514687,-6.562462],[53.516879,-6.561528],[53.522082,-6.557591],[53.526178,-6.556273],[53.531952,-6.55353],[53.535974,-6.552613],[53.540823,-6.552922],[53.547901,-6.554969],[53.555256,-6.55525],[53.557312,-6.556134],[53.560581,-6.558834],[53.562773,-6.561939],[53.566916,-6.569627],[53.570568,-6.573591],[53.590654,-6.582962],[53.594005,-6.586234],[53.596652,-6.590908],[53.597762,-6.594248],[53.59868,-6.598516],[53.599098,-6.604825],[53.599107,-6.623165],[53.599655,-6.628772],[53.600348,-6.63212],[53.602226,-6.638492],[53.60604,-6.647928],[53.611644,-6.659046],[53.614826,-6.667245],[53.616448,-6.672528],[53.617345,-6.676831],[53.617528,-6.680649],[53.617038,-6.681368],[53.616345,-6.680927],[53.616259,-6.679864],[53.616646,-6.679184],[53.621388,-6.677852],[53.624534,-6.67589],[53.632105,-6.667802],[53.634102,-6.665051],[53.638285,-6.667151],[53.64287,-6.671768],[53.646392,-6.674361],[53.649632,-6.679407],[53.651089,-6.680983],[53.653202,-6.682475],[53.6548,-6.682591],[53.655172,-6.683813],[53.655761,-6.690921],[53.654642,-6.694092],[53.654395,-6.698435],[53.654913,-6.702622],[53.656127,-6.705138],[53.65818,-6.714264],[53.658496,-6.719967],[53.65896,-6.721772],[53.659939,-6.723137],[53.666013,-6.727721],[53.668722,-6.731719],[53.691385,-6.778712],[53.692441,-6.781504],[53.693199,-6.785041],[53.694071,-6.78692],[53.695348,-6.788252],[53.699008,-6.790036],[53.707973,-6.80005],[53.709637,-6.805236],[53.711716,-6.817328],[53.713555,-6.825361],[53.715946,-6.830191],[53.717487,-6.834869],[53.719766,-6.846129],[53.719546,-6.847559],[53.720747,-6.849015],[53.722059,-6.8533],[53.726637,-6.873027],[53.727179,-6.876904],[53.727807,-6.876919],[53.728934,-6.878577],[53.72953,-6.881651],[53.731227,-6.886595],[53.732168,-6.890974],[53.732103,-6.891805],[53.733204,-6.89498],[53.736149,-6.900603],[53.741886,-6.918655],[53.74579,-6.928503],[53.748061,-6.940522],[53.749345,-6.95033],[53.750585,-6.954911],[53.754931,-6.965703],[53.759328,-6.971308],[53.767392,-6.988039],[53.769338,-6.992668],[53.769583,-6.994243],[53.769307,-6.995218],[53.773779,-6.999473],[53.786744,-7.019719],[53.802248,-7.036019],[53.807732,-7.041038],[53.815011,-7.049602],[53.821827,-7.055471],[53.82829,-7.063938],[53.833367,-7.073147],[53.834273,-7.077327],[53.833967,-7.079375],[53.83432,-7.081208],[53.838699,-7.091034],[53.849346,-7.100543],[53.853066,-7.102725],[53.857112,-7.105879],[53.880347,-7.130587],[53.88211,-7.134175],[53.886718,-7.148914],[53.894949,-7.162668],[53.904041,-7.182432],[53.906041,-7.189984],[53.90766,-7.194415],[53.90981,-7.198526],[53.911668,-7.201153],[53.91748,-7.207243],[53.924543,-7.212824],[53.92802,-7.216735],[53.928955,-7.217224],[53.93267,-7.216993],[53.94284,-7.225463],[53.947952,-7.225747],[53.951783,-7.227868],[53.960655,-7.228609],[53.965353,-7.230029],[53.967012,-7.230949],[53.969446,-7.234089],[53.970588,-7.240252],[53.972322,-7.244064],[53.976618,-7.247667],[53.981532,-7.250693],[53.984404,-7.255566],[53.986797,-7.258002],[53.988057,-7.259844],[53.990488,-7.264618],[53.991463,-7.26733],[53.992084,-7.270551],[53.992207,-7.27468],[53.991282,-7.288742],[53.990418,-7.292383],[53.987921,-7.299386],[53.987457,-7.301748],[53.986308,-7.319015],[53.984552,-7.327232],[53.984087,-7.336171],[53.983367,-7.340524],[53.983479,-7.343755],[53.984233,-7.347642],[53.98424,-7.349494],[53.98276,-7.35684],[53.98315,-7.358116],[53.987102,-7.360479],[53.989907,-7.363672],[53.990302,-7.363226]],"stops":[{"id":"8220B135001","name":"Dublin Bus\u00e1ras","lat":53.34981,"lng":-6.25203},{"id":"8220DB000015","name":"Dorset Street Lwr","lat":53.360267,"lng":-6.260978},{"id":"8220DB000834","name":"St Patrick's Road","lat":53.361975,"lng":-6.260428},{"id":"8220DB001506","name":"Hart's Corner","lat":53.366778,"lng":-6.272374},{"id":"8220DB004543","name":"Finglas Place","lat":53.386249,"lng":-6.296993},{"id":"8220B1009001","name":"North Road","lat":53.400198,"lng":-6.308347},{"id":"8240DB000661","name":"Westend Office Park","lat":53.392422,"lng":-6.383489},{"id":"8240B101281","name":"Blanchardstown N3","lat":53.39576,"lng":-6.39119},{"id":"8310B1369601","name":"Ardboyne Hotel","lat":53.641218,"lng":-6.670315},{"id":"8310B189151","name":"Navan R147","lat":53.65541,"lng":-6.686707},{"id":"8310B135231","name":"Kells","lat":53.726709,"lng":-6.874307},{"id":"8310B1352401","name":"Kells West","lat":53.729386,"lng":-6.881049},{"id":"8310B141031","name":"Eureka School","lat":53.730921,"lng":-6.885607},{"id":"8310B1014201","name":"Kells Business Pk","lat":53.736489,"lng":-6.901754},{"id":"8310B1014301","name":"Carnaross","lat":53.750581,"lng":-6.955062},{"id":"8310B1014401","name":"Riverside","lat":53.75387,"lng":-6.963366},{"id":"8520B1014501","name":"Whitegate Cross","lat":53.776621,"lng":-7.004301},{"id":"8520B1014601","name":"Maghera Cross Roads","lat":53.801236,"lng":-7.035066},{"id":"8520B1014701","name":"Lough Ramor","lat":53.831936,"lng":-7.070577},{"id":"8520B1318401","name":"Virginia","lat":53.834824,"lng":-7.082729},{"id":"8520B1310201","name":"Lisgrea","lat":53.866408,"lng":-7.115745},{"id":"8520B1015001","name":"Billis","lat":53.886486,"lng":-7.148391},{"id":"8520B1015101","name":"New Inn","lat":53.90217,"lng":-7.178415},{"id":"8520B1310401","name":"Knocknagillagh","lat":53.924082,"lng":-7.212516},{"id":"8520B1015301","name":"Lavey","lat":53.965336,"lng":-7.230224},{"id":"8520B1015401","name":"Kilmore Hotel","lat":53.986279,"lng":-7.318823},{"id":"8520B1015501","name":"Training Campus","lat":53.984572,"lng":-7.326947},{"id":"8520B101561","name":"Crystal Hotel","lat":53.9833,"lng":-7.342214},{"id":"8520B1015701","name":"Breffni Rtl Pk","lat":53.982827,"lng":-7.356203},{"id":"8520B1358601","name":"Cavan Bus Stn","lat":53.99036,"lng":-7.36358}]},"1":{"headsign":"Dublin","coords":[[53.990302,-7.363226],[53.989731,-7.363401],[53.987102,-7.360479],[53.98315,-7.358116],[53.98276,-7.35684],[53.984315,-7.349669],[53.984233,-7.347642],[53.983479,-7.343755],[53.983367,-7.340524],[53.983876,-7.337375],[53.984267,-7.336837],[53.984652,-7.32685],[53.986226,-7.320447],[53.987514,-7.301701],[53.988036,-7.299094],[53.990418,-7.292383],[53.991282,-7.288742],[53.992207,-7.27468],[53.992084,-7.270551],[53.991463,-7.26733],[53.990488,-7.264618],[53.987859,-7.259448],[53.98412,-7.255092],[53.981532,-7.250693],[53.976618,-7.247667],[53.972358,-7.243976],[53.970616,-7.240349],[53.969446,-7.234089],[53.968513,-7.23242],[53.966956,-7.230822],[53.964725,-7.229709],[53.960655,-7.228609],[53.951783,-7.227868],[53.947952,-7.225747],[53.942718,-7.225314],[53.93267,-7.216993],[53.928955,-7.217224],[53.92802,-7.216735],[53.924543,-7.212824],[53.91748,-7.207243],[53.911668,-7.201153],[53.90981,-7.198526],[53.90766,-7.194415],[53.906041,-7.189984],[53.904041,-7.182432],[53.894949,-7.162668],[53.886833,-7.149011],[53.88211,-7.134175],[53.8804,-7.130524],[53.857112,-7.105879],[53.853066,-7.102725],[53.849346,-7.100543],[53.838716,-7.090948],[53.83432,-7.081208],[53.833967,-7.079375],[53.834311,-7.077302],[53.833367,-7.073147],[53.828657,-7.064416],[53.821827,-7.055471],[53.815011,-7.049602],[53.807732,-7.041038],[53.803097,-7.036865],[53.786744,-7.019719],[53.773779,-6.999473],[53.769788,-6.995568],[53.768972,-6.991605],[53.761443,-6.975283],[53.75895,-6.970663],[53.755248,-6.966307],[53.750585,-6.954911],[53.749345,-6.95033],[53.748061,-6.940522],[53.74579,-6.928503],[53.741886,-6.918655],[53.736149,-6.900603],[53.732908,-6.894152],[53.732475,-6.891445],[53.731861,-6.889942],[53.731025,-6.885848],[53.72953,-6.881651],[53.728934,-6.878577],[53.727807,-6.876919],[53.727179,-6.876904],[53.726637,-6.873027],[53.722059,-6.8533],[53.720747,-6.849015],[53.71986,-6.847515],[53.717487,-6.834869],[53.715946,-6.830191],[53.713555,-6.825361],[53.711716,-6.817328],[53.709637,-6.805236],[53.707973,-6.80005],[53.699008,-6.790036],[53.695348,-6.788252],[53.694071,-6.78692],[53.693199,-6.785041],[53.692441,-6.781504],[53.691385,-6.778712],[53.668722,-6.731719],[53.666013,-6.727721],[53.659939,-6.723137],[53.65896,-6.721772],[53.658496,-6.719967],[53.658043,-6.713575],[53.656127,-6.705138],[53.65518,-6.703382],[53.654766,-6.701718],[53.654582,-6.694497],[53.655528,-6.692074],[53.655761,-6.690516],[53.655126,-6.683416],[53.6548,-6.682591],[53.653202,-6.682475],[53.651089,-6.680983],[53.649632,-6.679407],[53.646392,-6.674361],[53.64287,-6.671768],[53.638934,-6.667644],[53.634364,-6.665087],[53.633823,-6.664368],[53.633218,-6.665985],[53.632039,-6.667617],[53.623237,-6.676665],[53.621229,-6.677664],[53.619762,-6.677808],[53.618826,-6.677352],[53.617812,-6.676099],[53.613027,-6.661985],[53.611222,-6.657789],[53.606086,-6.64775],[53.601653,-6.636321],[53.600465,-6.63206],[53.599485,-6.626386],[53.599129,-6.620913],[53.599055,-6.600398],[53.597867,-6.594037],[53.595186,-6.5876],[53.592962,-6.584663],[53.590676,-6.582686],[53.570296,-6.573055],[53.567832,-6.570562],[53.566139,-6.568139],[53.562863,-6.561723],[53.561324,-6.559521],[53.558803,-6.556926],[53.555256,-6.555071],[53.548354,-6.55482],[53.540369,-6.552619],[53.535663,-6.552424],[53.531713,-6.553399],[53.526552,-6.555897],[53.521901,-6.557443],[53.51673,-6.56139],[53.514992,-6.562144],[53.511411,-6.561989],[53.507238,-6.559809],[53.504112,-6.556669],[53.501674,-6.552911],[53.494672,-6.53716],[53.491216,-6.531184],[53.487281,-6.526631],[53.479503,-6.520359],[53.47177,-6.510788],[53.463792,-6.50178],[53.460779,-6.496751],[53.457837,-6.489662],[53.454259,-6.482894],[53.449878,-6.477073],[53.446769,-6.473789],[53.443598,-6.471446],[53.430753,-6.465413],[53.427747,-6.46335],[53.425694,-6.461204],[53.414549,-6.446955],[53.413189,-6.44439],[53.412173,-6.441418],[53.407233,-6.420147],[53.405365,-6.408915],[53.404185,-6.404771],[53.398882,-6.393999],[53.398664,-6.392861],[53.398893,-6.391417],[53.39738,-6.389991],[53.396642,-6.388707],[53.396034,-6.388498],[53.393193,-6.383642],[53.38595,-6.369704],[53.384916,-6.364111],[53.384055,-6.361992],[53.382925,-6.359867],[53.381837,-6.359211],[53.380992,-6.358063],[53.37854,-6.351507],[53.376799,-6.344987],[53.374123,-6.337847],[53.36832,-6.320335],[53.36675,-6.313773],[53.361613,-6.298171],[53.360558,-6.269671],[53.359687,-6.269731],[53.360558,-6.269671],[53.360793,-6.272688],[53.356992,-6.273596],[53.354444,-6.273295],[53.354878,-6.272389],[53.354635,-6.27238],[53.352927,-6.26833],[53.356017,-6.26526],[53.352761,-6.26145],[53.348445,-6.259528],[53.349444,-6.253253],[53.349412,-6.251681],[53.349855,-6.250957],[53.350144,-6.252243],[53.349692,-6.252591],[53.349519,-6.251901]],"stops":[{"id":"8520B1358601","name":"Cavan Bus Stn","lat":53.99036,"lng":-7.36358},{"id":"8520B1015901","name":"Breffni Rtl Pk","lat":53.983021,"lng":-7.355453},{"id":"8520B101601","name":"Crystal Hotel","lat":53.983427,"lng":-7.340718},{"id":"8520B1016101","name":"Training Campus","lat":53.984671,"lng":-7.326854},{"id":"8520B1310601","name":"Kilmore Hotel","lat":53.9864,"lng":-7.31869},{"id":"8520B1316401","name":"Lavey","lat":53.966686,"lng":-7.230504},{"id":"8520B1016201","name":"Knocknagillagh","lat":53.923918,"lng":-7.212138},{"id":"8520B1016301","name":"New Inn","lat":53.900088,"lng":-7.173587},{"id":"8520B1016401","name":"Billis","lat":53.886246,"lng":-7.147544},{"id":"8520B1016501","name":"Lisgrea","lat":53.866351,"lng":-7.115306},{"id":"8520B1352101","name":"Virginia","lat":53.835073,"lng":-7.082964},{"id":"8520B1016701","name":"Lough Ramor","lat":53.83196,"lng":-7.070288},{"id":"8520B1016801","name":"Maghera Cross Roads","lat":53.799548,"lng":-7.033025},{"id":"8520B1016901","name":"Whitegate Cross","lat":53.775826,"lng":-7.00262},{"id":"8310B1017001","name":"Riverside","lat":53.75405,"lng":-6.963362},{"id":"8310B1017101","name":"Carnaross","lat":53.750993,"lng":-6.955856},{"id":"8310B1017201","name":"Kells Business Pk","lat":53.735897,"lng":-6.899814},{"id":"8310B1017301","name":"Eureka School","lat":53.730614,"lng":-6.884403},{"id":"8310B1353901","name":"Kells","lat":53.726771,"lng":-6.873291},{"id":"8310B1017401","name":"Kilmainham","lat":53.714995,"lng":-6.827974},{"id":"8310B1017501","name":"Hurdlestown","lat":53.707775,"lng":-6.799516},{"id":"8310B0102041","name":"Martry","lat":53.692599,"lng":-6.781849},{"id":"8310B1017601","name":"Tankardstown","lat":53.686455,"lng":-6.768223},{"id":"8310B1017701","name":"Liscartan","lat":53.672318,"lng":-6.73888},{"id":"8310B1017801","name":"Blackwater RP","lat":53.654802,"lng":-6.701007},{"id":"8310B1055801","name":"Navan R147","lat":53.655567,"lng":-6.68711},{"id":"8310B1018001","name":"Ardboyne Hotel","lat":53.641969,"lng":-6.67076},{"id":"8240B1045601","name":"Blanchardstown N3","lat":53.39732,"lng":-6.38979},{"id":"8240DB007166","name":"Navan Rd Stn","lat":53.377094,"lng":-6.345787},{"id":"8220DB000817","name":"Mater Hospital","lat":53.359646,"lng":-6.269612},{"id":"8220DB000277","name":"O'Connell St Upper","lat":53.350822,"lng":-6.260506},{"id":"8220B135001","name":"Dublin Bus\u00e1ras","lat":53.34981,"lng":-6.25203}]}},"2 405 d":{"0":{"headsign":"Ballybane","coords":[[53.272177,-9.096671],[53.271349,-9.096404],[53.271033,-9.095439],[53.270221,-9.09019],[53.270142,-9.087285],[53.270555,-9.086744],[53.272349,-9.086118],[53.273146,-9.085032],[53.275773,-9.075186],[53.278651,-9.070131],[53.279441,-9.069615],[53.279094,-9.068404],[53.279862,-9.066219],[53.280212,-9.063913],[53.278507,-9.063162],[53.277018,-9.063563],[53.27576,-9.058565],[53.275798,-9.057612],[53.275409,-9.056798],[53.275875,-9.054228],[53.275049,-9.053374],[53.273989,-9.051221],[53.275367,-9.048801],[53.278323,-9.045596],[53.280589,-9.042171],[53.282735,-9.037108],[53.285627,-9.03326],[53.28897,-9.023027],[53.286106,-9.023507],[53.285087,-9.02214],[53.283785,-9.018114],[53.282326,-9.016846],[53.281463,-9.016621],[53.281025,-9.009771],[53.284678,-9.010896],[53.287292,-9.012363],[53.289561,-9.012572],[53.29015,-9.011323],[53.2905,-9.00833],[53.291062,-9.007757],[53.291224,-9.006008],[53.291912,-9.006184],[53.291874,-9.006616]],"stops":[{"id":"8460B5256901","name":"Gateway Shop Pk","lat":53.272216,"lng":-9.096597},{"id":"8460B5257001","name":"Garrai De Brun","lat":53.27028,"lng":-9.08968},{"id":"8460B5257101","name":"B O'Donnell Rd","lat":53.271177,"lng":-9.086673},{"id":"8460B5257201","name":"Gleann Dara","lat":53.273493,"lng":-9.084018},{"id":"84605257301","name":"Westside Pk","lat":53.27458,"lng":-9.07952},{"id":"8460B5257401","name":"Westside SC","lat":53.275589,"lng":-9.075899},{"id":"8460B5257501","name":"Westside CC","lat":53.27771,"lng":-9.07209},{"id":"8460B5257601","name":"Snipe Lawn","lat":53.280107,"lng":-9.065126},{"id":"8460B5256801","name":"Lw Newcastle","lat":53.27858,"lng":-9.06307},{"id":"8460B5225601","name":"University South","lat":53.27674,"lng":-9.06207},{"id":"8460B5231801","name":"Galway Cathdrl","lat":53.27583,"lng":-9.05817},{"id":"8460B5225901","name":"St Francis Street","lat":53.275045,"lng":-9.05329},{"id":"8460B5241201","name":"Eyre Square","lat":53.27497,"lng":-9.049846},{"id":"8460B5226201","name":"Prospect Hill","lat":53.277816,"lng":-9.046325},{"id":"8460B5226301","name":"Cill Ard","lat":53.278603,"lng":-9.045205},{"id":"8460B5226501","name":"L Mellows Trce","lat":53.280414,"lng":-9.042565},{"id":"8460B5226801","name":"Bohermore Cmy","lat":53.281911,"lng":-9.038988},{"id":"8460B5257701","name":"Glenanail Dr","lat":53.286397,"lng":-9.031568},{"id":"8460B5257801","name":"Mervue Ind Estate","lat":53.287582,"lng":-9.027487},{"id":"8460B5257901","name":"Riverside IE","lat":53.288462,"lng":-9.024538},{"id":"8460B5258001","name":"Pearse Ave","lat":53.285645,"lng":-9.022866},{"id":"8460B5258101","name":"O'Sullivan Pk","lat":53.283755,"lng":-9.017917},{"id":"8460B5260401","name":"Saint James Road","lat":53.281346,"lng":-9.014756},{"id":"8460B5260501","name":"Bayview Heights","lat":53.281,"lng":-9.01053},{"id":"8460B5235501","name":"Rahylin Glebe","lat":53.28148,"lng":-9.00996},{"id":"8460B5235601","name":"Ballybane SC","lat":53.28461,"lng":-9.01096},{"id":"8460B5213401","name":"Ballybane IE","lat":53.289533,"lng":-9.0127},{"id":"8460B522041","name":"Ballybrit BP","lat":53.291868,"lng":-9.00662}]},"1":{"headsign":"Rahoon","coords":[[53.291874,-9.006616],[53.291797,-9.007485],[53.291207,-9.007339],[53.290512,-9.008296],[53.29015,-9.011323],[53.289513,-9.012335],[53.287231,-9.012341],[53.285065,-9.011056],[53.281025,-9.009771],[53.281463,-9.016621],[53.282326,-9.016846],[53.283785,-9.018114],[53.285087,-9.02214],[53.286106,-9.023507],[53.28897,-9.023027],[53.285846,-9.032772],[53.282197,-9.037909],[53.280589,-9.042171],[53.276791,-9.047297],[53.276497,-9.047552],[53.276041,-9.046258],[53.275228,-9.045861],[53.274178,-9.047919],[53.275138,-9.049247],[53.273992,-9.051286],[53.275049,-9.053374],[53.275875,-9.054228],[53.275409,-9.056798],[53.275798,-9.057612],[53.27576,-9.058565],[53.277018,-9.063563],[53.278507,-9.063162],[53.280212,-9.063913],[53.278921,-9.069537],[53.275398,-9.075856],[53.273126,-9.084795],[53.272057,-9.086249],[53.269722,-9.087222],[53.270164,-9.08815],[53.270969,-9.096175],[53.272177,-9.096671]],"stops":[{"id":"8460B522041","name":"Ballybrit BP","lat":53.291868,"lng":-9.00662},{"id":"8460B5233101","name":"Ballybane SC","lat":53.28649,"lng":-9.01186},{"id":"8460B5233201","name":"Rahylin Glebe","lat":53.28281,"lng":-9.01028},{"id":"8460B5258501","name":"Bayview Heights","lat":53.28094,"lng":-9.01085},{"id":"8460B5258601","name":"Saint James Road","lat":53.281341,"lng":-9.015898},{"id":"8460B5258701","name":"W Macken Place","lat":53.281734,"lng":-9.016744},{"id":"8460B5258801","name":"O'Sullivan Pk","lat":53.283646,"lng":-9.018019},{"id":"8460B5258901","name":"Pearse Ave","lat":53.28567,"lng":-9.0232},{"id":"8460B5259001","name":"Riverside IE","lat":53.288686,"lng":-9.023524},{"id":"8460B5259101","name":"Mervue Ind Estate","lat":53.287574,"lng":-9.027427},{"id":"8460B5259201","name":"Glenanail Dr","lat":53.286253,"lng":-9.031534},{"id":"8460B5229801","name":"Bohermore Cmy","lat":53.281877,"lng":-9.038717},{"id":"8460B5229901","name":"L Mellows Trce","lat":53.280882,"lng":-9.041482},{"id":"8460B5230001","name":"Cill Ard","lat":53.278897,"lng":-9.044448},{"id":"8460B5231901","name":"Prospect Hill","lat":53.276815,"lng":-9.047216},{"id":"8460B5243701","name":"Eyre Square","lat":53.274902,"lng":-9.049103},{"id":"8460B5230201","name":"St Francis Street","lat":53.27531,"lng":-9.053806},{"id":"8460B5225701","name":"Galway Cathdrl","lat":53.27551,"lng":-9.05715},{"id":"8460B5230301","name":"University South","lat":53.276386,"lng":-9.06118},{"id":"8460B5256501","name":"Lw Newcastle","lat":53.278883,"lng":-9.063356},{"id":"8460B5259301","name":"Snipe Lawn","lat":53.280092,"lng":-9.064811},{"id":"8460B5259401","name":"Shantalla Park","lat":53.27853,"lng":-9.07001},{"id":"8460B5259501","name":"Westside CC","lat":53.276501,"lng":-9.073448},{"id":"8460B5259601","name":"Westside Pk","lat":53.274399,"lng":-9.079228},{"id":"8460B5259701","name":"Gleann Dara","lat":53.27343,"lng":-9.08329},{"id":"8460B5259801","name":"B O'Donnell Rd","lat":53.27045,"lng":-9.08667},{"id":"8460B5259901","name":"Garrai De Brun","lat":53.27019,"lng":-9.09018},{"id":"8460B5256901","name":"Gateway Shop Pk","lat":53.272216,"lng":-9.096597}]}},"2 407 i j":{"0":{"headsign":"Bothar an Choiste","coords":[[53.274809,-9.048832],[53.275002,-9.04955],[53.273984,-9.05125],[53.275049,-9.053374],[53.275875,-9.054228],[53.276382,-9.052811],[53.277707,-9.050936],[53.286624,-9.045337],[53.287183,-9.045853],[53.28855,-9.049044],[53.289475,-9.052576],[53.29072,-9.05148],[53.292251,-9.051287],[53.292522,-9.050513],[53.292404,-9.049125],[53.291247,-9.047127],[53.291877,-9.045504],[53.29156,-9.045034],[53.291531,-9.043982],[53.290425,-9.043791],[53.290296,-9.042984],[53.289852,-9.04267],[53.289963,-9.041957],[53.293549,-9.036711],[53.294647,-9.035722],[53.295858,-9.035375],[53.29655,-9.02937],[53.298583,-9.024563]],"stops":[{"id":"8460B5230101","name":"Eyre Square","lat":53.274759,"lng":-9.048935},{"id":"8460B5230201","name":"St Francis Street","lat":53.27531,"lng":-9.053806},{"id":"8460B5237101","name":"Woodquay","lat":53.276607,"lng":-9.052489},{"id":"8460B5237201","name":"Galway SC","lat":53.280473,"lng":-9.049255},{"id":"8460B5237301","name":"Prc M Th\u00edr Oile\u00e1in","lat":53.284434,"lng":-9.046776},{"id":"8460B5237501","name":"B\u00f3thar Ch\u00fail Each","lat":53.288131,"lng":-9.048168},{"id":"8460B5237601","name":"Barr na Coille","lat":53.292536,"lng":-9.049816},{"id":"8460B5237701","name":"Ar Th\u00edr Oile\u00e1in Tar","lat":53.291772,"lng":-9.045947},{"id":"8460B5237801","name":"Ar Th\u00edr Oile\u00e1in Tor","lat":53.291254,"lng":-9.043504},{"id":"8460B5237901","name":"Scoil S Phroinsias","lat":53.290115,"lng":-9.042232},{"id":"8460B5238001","name":"Gleann an tSruth\u00e1in","lat":53.290811,"lng":-9.040734},{"id":"8460B5238101","name":"Sceilig Ard","lat":53.292305,"lng":-9.03843},{"id":"8460B5238301","name":"Cair\u00e9al M\u00f3r","lat":53.296064,"lng":-9.034036},{"id":"8460B5238401","name":"B\u00f3thar an Ch\u00f3iste","lat":53.296433,"lng":-9.030789},{"id":"8460B5238501","name":"Loch\u00e1n","lat":53.297343,"lng":-9.027436},{"id":"8460B526031","name":"Maigh Riocaird","lat":53.298626,"lng":-9.024616}]},"1":{"headsign":"Eyre Square","coords":[[53.298692,-9.024318],[53.29655,-9.02937],[53.295858,-9.035375],[53.294647,-9.035722],[53.293549,-9.036711],[53.289963,-9.041957],[53.289852,-9.04267],[53.290296,-9.042984],[53.290425,-9.043791],[53.291531,-9.043982],[53.29156,-9.045034],[53.291877,-9.045504],[53.291247,-9.047127],[53.292404,-9.049125],[53.292522,-9.050513],[53.292251,-9.051287],[53.29072,-9.05148],[53.289475,-9.052576],[53.28855,-9.049044],[53.287166,-9.046134],[53.287892,-9.045219],[53.287887,-9.044694],[53.286789,-9.044787],[53.281541,-9.048362],[53.281011,-9.047788],[53.280535,-9.048328],[53.280706,-9.048744],[53.281093,-9.048438],[53.281011,-9.047788],[53.281194,-9.048591],[53.277707,-9.050936],[53.276633,-9.052394],[53.275423,-9.052616],[53.27526,-9.053677],[53.273984,-9.05125],[53.274872,-9.049845]],"stops":[{"id":"8460B5238601","name":"Maigh Riocaird","lat":53.298656,"lng":-9.024272},{"id":"8460B5238701","name":"Loch\u00e1n","lat":53.297254,"lng":-9.027404},{"id":"8460B5238801","name":"B\u00f3thar an Ch\u00f3iste","lat":53.296235,"lng":-9.03089},{"id":"8460B5239101","name":"Cair\u00e9al M\u00f3r","lat":53.295986,"lng":-9.033577},{"id":"8460B5239201","name":"Sceilig Ard","lat":53.292362,"lng":-9.038041},{"id":"8460B5240701","name":"Gleann an tSruth\u00e1in","lat":53.290559,"lng":-9.040772},{"id":"8460B526061","name":"Scoil S Phroinsias","lat":53.290126,"lng":-9.042997},{"id":"8460B526071","name":"Ar Th\u00edr Oile\u00e1in Tor","lat":53.291135,"lng":-9.043711},{"id":"8460B526081","name":"Ar Th\u00edr Oile\u00e1in Tar","lat":53.291535,"lng":-9.046286},{"id":"8460B526091","name":"Barr na Coille","lat":53.291878,"lng":-9.048199},{"id":"8460B526101","name":"B\u00f3thar Ch\u00fail Each","lat":53.288132,"lng":-9.047988},{"id":"8460B5240901","name":"Prc M Th\u00edr Oile\u00e1in","lat":53.285266,"lng":-9.045893},{"id":"8460B5241001","name":"Galway SC","lat":53.280919,"lng":-9.048621},{"id":"8460B5254101","name":"Woodquay","lat":53.276622,"lng":-9.052251},{"id":"8460B5225901","name":"St Francis Street","lat":53.275045,"lng":-9.05329},{"id":"8460B5241201","name":"Eyre Square","lat":53.27497,"lng":-9.049846}]}},"2 409 c a":{"0":{"headsign":"Celestica","coords":[[53.274588,-9.048511],[53.275138,-9.049247],[53.276497,-9.047552],[53.276041,-9.046258],[53.275228,-9.045861],[53.275427,-9.043742],[53.276079,-9.042027],[53.278025,-9.039543],[53.280645,-9.035181],[53.282177,-9.033678],[53.280863,-9.031067],[53.28032,-9.027184],[53.277496,-9.013214],[53.277078,-9.009367],[53.277215,-9.008217],[53.274168,-8.995631],[53.274186,-8.992549],[53.275635,-8.981708],[53.276058,-8.97972],[53.277299,-8.97685],[53.277941,-8.975688],[53.280307,-8.976796],[53.29071,-8.988677],[53.292494,-8.983952],[53.299861,-8.987399],[53.301648,-8.995052],[53.301921,-8.995855],[53.302517,-8.995296]],"stops":[{"id":"8460B525641","name":"Eyre Square","lat":53.274485,"lng":-9.048533},{"id":"8460B5232101","name":"B\u00f3thar B U\u00ed Eithir","lat":53.27627,"lng":-9.04664},{"id":"8460B5232301","name":"College Road","lat":53.276668,"lng":-9.041395},{"id":"8460B5232401","name":"Dexcom Stadium","lat":53.279225,"lng":-9.037783},{"id":"8460B5232501","name":"Loyola Park","lat":53.279982,"lng":-9.036557},{"id":"8460B5226901","name":"The G Hotel","lat":53.2812,"lng":-9.03181},{"id":"8460B5227001","name":"Woodlands Cm","lat":53.279859,"lng":-9.024782},{"id":"8460B5241301","name":"Glenina Heights","lat":53.278791,"lng":-9.019936},{"id":"8460B5241401","name":"Belmont","lat":53.277754,"lng":-9.014476},{"id":"8460B5228101","name":"ATU Galway","lat":53.27718,"lng":-9.00992},{"id":"8460B5241501","name":"Lios an Uisce","lat":53.274509,"lng":-8.997426},{"id":"8460B5241801","name":"Castlegar GAA","lat":53.277668,"lng":-8.976312},{"id":"8460B5241901","name":"An Fiodan","lat":53.281998,"lng":-8.978781},{"id":"8460B5242001","name":"Sraith Fhada","lat":53.283761,"lng":-8.980785},{"id":"8460B5242101","name":"Merlin College","lat":53.28499,"lng":-8.982088},{"id":"8460B5242201","name":"Doughiska","lat":53.286254,"lng":-8.983587},{"id":"8460B5242301","name":"An Sean Bhaile","lat":53.288239,"lng":-8.985882},{"id":"8460B5242401","name":"Briarhill SC","lat":53.290367,"lng":-8.988346},{"id":"8460B5234201","name":"Briarhill BP","lat":53.293339,"lng":-8.984305},{"id":"8460B5234301","name":"Ballybrit Cres","lat":53.296974,"lng":-8.986023},{"id":"8460B555431","name":"Galway Tc Pk","lat":53.29922,"lng":-8.9872},{"id":"8460B555461","name":"Medtronic","lat":53.301077,"lng":-8.992418},{"id":"8460B0555491","name":"Celestica","lat":53.30255,"lng":-8.995373}]},"1":{"headsign":"Eyre Square","coords":[[53.30322,-8.994499],[53.301921,-8.995855],[53.300381,-8.990057],[53.300321,-8.987293],[53.299229,-8.987146],[53.292305,-8.983775],[53.29071,-8.988677],[53.280307,-8.976796],[53.277941,-8.975688],[53.277299,-8.97685],[53.276058,-8.97972],[53.275635,-8.981708],[53.274186,-8.992549],[53.274168,-8.995631],[53.274466,-8.99763],[53.276765,-9.005997],[53.276795,-9.008442],[53.277496,-9.013214],[53.28032,-9.027184],[53.280863,-9.031067],[53.281955,-9.033731],[53.280645,-9.035181],[53.278025,-9.039543],[53.276079,-9.042027],[53.275427,-9.043742],[53.275047,-9.046479],[53.274178,-9.047919],[53.274588,-9.048511]],"stops":[{"id":"8460B0555441","name":"Celestica","lat":53.30319,"lng":-8.994408},{"id":"8460B0555451","name":"Medtronic","lat":53.300825,"lng":-8.991195},{"id":"8460B6355601","name":"Galway Tc Pk","lat":53.299025,"lng":-8.986866},{"id":"8460B5234401","name":"Ballybrit Cres","lat":53.297333,"lng":-8.986092},{"id":"8460B5234501","name":"Briarhill BP","lat":53.293394,"lng":-8.984126},{"id":"8460B5242601","name":"Briarhill SC","lat":53.289736,"lng":-8.987402},{"id":"8460B5242701","name":"Doughiska","lat":53.286522,"lng":-8.983833},{"id":"8460B5242801","name":"Merlin College","lat":53.284964,"lng":-8.981983},{"id":"8460B5242901","name":"An Fiodan","lat":53.282168,"lng":-8.978844},{"id":"8460B5243101","name":"An Castan","lat":53.280966,"lng":-8.977482},{"id":"8460B5243201","name":"Castlegar GAA","lat":53.277442,"lng":-8.976397},{"id":"8460B5243301","name":"Lios an Uisce","lat":53.274905,"lng":-8.99955},{"id":"8460B5228301","name":"Merlin Gate","lat":53.276485,"lng":-9.005104},{"id":"8460B5228401","name":"ATU Galway","lat":53.277113,"lng":-9.010562},{"id":"8460B5243401","name":"Belmont","lat":53.277577,"lng":-9.014097},{"id":"8460B5243501","name":"Glenina Heights","lat":53.278434,"lng":-9.01905},{"id":"8460B5229601","name":"Woodlands Cm","lat":53.2802,"lng":-9.026935},{"id":"8460B5229701","name":"The G Hotel","lat":53.2816,"lng":-9.03304},{"id":"8460B5236701","name":"Loyola Park","lat":53.280076,"lng":-9.036064},{"id":"8460B5236801","name":"Dexcom Stadium","lat":53.27869,"lng":-9.038295},{"id":"8460B5236901","name":"College Road","lat":53.276397,"lng":-9.041553},{"id":"8460B5243601","name":"Forster Street","lat":53.274915,"lng":-9.046555},{"id":"8460B525641","name":"Eyre Square","lat":53.274485,"lng":-9.048533}]}},