{"7010B158131":{"name":"Ulsterbus Depot","lat":54.996629,"lng":-7.317866},"7010B158241":{"name":"Magee Campus","lat":55.002956,"lng":-7.322545},"7040B107131":{"name":"Cullaville","lat":54.062045,"lng":-6.643525},"7040B139481":{"name":"Newry","lat":54.168253,"lng":-6.339098},"7040B139491":{"name":"Buttercrane Shopping Centre","lat":54.172871,"lng":-6.340996},"7040B139501":{"name":"Newry","lat":54.172227,"lng":-6.340441},"7040B139511":{"name":"Newry (Opp Quay Shopping Centre)","lat":54.168692,"lng":-6.339019},"7040B139761":{"name":"Killeen Bridge","lat":54.131009,"lng":-6.346082},"7040B139771":{"name":"Killeen Bridge","lat":54.131023,"lng":-6.346479},"7040B139781":{"name":"Meigh Cross","lat":54.115863,"lng":-6.357129},"7040B139791":{"name":"Meigh Cross (Service Station)","lat":54.115892,"lng":-6.357279},"7040B150611":{"name":"Southern Regional College","lat":54.176486,"lng":-6.34535},"7040B156051":{"name":"Newry","lat":54.176002,"lng":-6.339467},"7040B156061":{"name":"Newry Bus Station","lat":54.174999,"lng":-6.340145},"7050B108081":{"name":"Enniskillen","lat":54.343694,"lng":-7.640079},"7050B140871":{"name":"Derrylin","lat":54.191672,"lng":-7.565929},"7050B1409001":{"name":"Bellanaleck","lat":54.295005,"lng":-7.638015},"7050B141541":{"name":"Belleek","lat":54.476171,"lng":-8.094502},"7050B1415501":{"name":"Bellanaleck","lat":54.295058,"lng":-7.63783},"7050B141561":{"name":"Derrylin","lat":54.191678,"lng":-7.565736},"7050B630091":{"name":"Letterbreen","lat":54.309287,"lng":-7.732686},"7050B630101":{"name":"Letterbreen","lat":54.309493,"lng":-7.732162},"7050B6310001":{"name":"Belcoo","lat":54.297258,"lng":-7.869896},"7050B631071":{"name":"Loughview Drive","lat":54.297374,"lng":-7.870114},"7060B152481":{"name":"Sion Mills","lat":54.784312,"lng":-7.471637},"7060B156031":{"name":"Ballygawley","lat":54.456349,"lng":-7.033901},"7060B157111":{"name":"Newtownstewart","lat":54.721891,"lng":-7.372982},"7060B158031":{"name":"Ulsterbus Depot","lat":54.601343,"lng":-7.30175},"7060B1581001":{"name":"Newtownstewart","lat":54.721774,"lng":-7.373015},"7060B158121":{"name":"Bradley Way","lat":54.826507,"lng":-7.47009},"7060B1581401":{"name":"Sion Mills","lat":54.785779,"lng":-7.472348},"7060B158181":{"name":"Canal Street","lat":54.827746,"lng":-7.463786},"8210B111621":{"name":"Saint Patrick's Avenue","lat":52.837124,"lng":-6.91467},"8210B111891":{"name":"Sleaty Road","lat":52.844148,"lng":-6.939762},"8210B1340201":{"name":"Hacketstown","lat":52.865375,"lng":-6.558453},"8210B136061":{"name":"SETU Carlow","lat":52.829981,"lng":-6.935975},"8210B1360701":{"name":"Ballyknockan","lat":52.735531,"lng":-6.987098},"8210B136211":{"name":"Rathvilly","lat":52.880551,"lng":-6.695562},"8210B136231":{"name":"Hacketstown","lat":52.865221,"lng":-6.558399},"8210B153991":{"name":"Tullow North","lat":52.80482,"lng":-6.732506},"8210B154001":{"name":"Tullow North","lat":52.804658,"lng":-6.732496},"8210B202101":{"name":"Wexford Road Business Park","lat":52.820615,"lng":-6.897133},"8210B3355701":{"name":"Carlow Bus Station","lat":52.833738,"lng":-6.926948},"8210B339081":{"name":"Ballyknockan","lat":52.738872,"lng":-6.985687},"8210B3394301":{"name":"Royaloak","lat":52.704245,"lng":-6.984179},"8210B3511401":{"name":"Rathvilly","lat":52.880619,"lng":-6.695248},"8210B3511801":{"name":"Kildavin","lat":52.683916,"lng":-6.685386},"8210B351711":{"name":"Ballon","lat":52.740188,"lng":-6.7704},"8210B351721":{"name":"Ballon","lat":52.740087,"lng":-6.770225},"8210B5981201":{"name":"SETU Carlow","lat":52.830054,"lng":-6.936121},"8210CO11091":{"name":"Carlow Institute","lat":52.819187,"lng":-6.94511},"8210CO11092":{"name":"Carraig Abhainn","lat":52.825857,"lng":-6.937188},"8210CO11093":{"name":"Bourlum Wood","lat":52.823409,"lng":-6.935764},"8210CO11094":{"name":"SETU Green Road","lat":52.825497,"lng":-6.934096},"8210CO11095":{"name":"New Street","lat":52.829729,"lng":-6.93095},"8210CO11096":{"name":"Hanover Road","lat":52.831403,"lng":-6.929143},"8210CO11098":{"name":"Fire Station","lat":52.83703,"lng":-6.92286},"8210CO11099":{"name":"Green Lane","lat":52.841239,"lng":-6.917605},"8210CO11100":{"name":"Deerpark Roundabout","lat":52.845026,"lng":-6.910029},"8210CO11101":{"name":"Enterprise Business Park","lat":52.840432,"lng":-6.909015},"8210CO11102":{"name":"Sandhills","lat":52.839602,"lng":-6.904687},"8210CO11103":{"name":"Burrindale","lat":52.841719,"lng":-6.902289},"8210CO11104":{"name":"Beechwood Park","lat":52.844729,"lng":-6.899318},"8210CO11105":{"name":"Tinte\u00e1n Coille","lat":52.846753,"lng":-6.895674},"8210CO11106":{"name":"MSD Carlow","lat":52.854254,"lng":-6.884615},"8210CO11108":{"name":"Tinte\u00e1n Coille","lat":52.846705,"lng":-6.895259},"8210CO11109":{"name":"Beechwood Park","lat":52.844924,"lng":-6.898986},"8210CO11110":{"name":"Burrindale","lat":52.84195,"lng":-6.902001},"8210CO11111":{"name":"Sandhills","lat":52.839411,"lng":-6.907423},"8210CO11112":{"name":"Enterprise Business Park","lat":52.840884,"lng":-6.909271},"8210CO11113":{"name":"Deerpark Roundabout","lat":52.844784,"lng":-6.910183},"8210CO11114":{"name":"Green Lane","lat":52.84178,"lng":-6.916849},"8210CO11115":{"name":"Fire Station","lat":52.83698,"lng":-6.922727},"8210CO11117":{"name":"Hanover Road","lat":52.831857,"lng":-6.928657},"8210CO11118":{"name":"New Street","lat":52.829034,"lng":-6.931546},"8210CO11119":{"name":"SETU Green Road","lat":52.825738,"lng":-6.933882},"8210CO11120":{"name":"Bourlum Wood","lat":52.823008,"lng":-6.9361},"8210CO11121":{"name":"Carraig Abhainn","lat":52.825967,"lng":-6.937364},"8210CO11122":{"name":"Rath Abhainn","lat":52.822572,"lng":-6.941705},"8210CO11123":{"name":"Carlow Institute","lat":52.819176,"lng":-6.944918},"8210CO11125":{"name":"Sleaty Road","lat":52.844,"lng":-6.939655},"8210CO11126":{"name":"Sleaty Street","lat":52.840491,"lng":-6.938241},"8210CO11127":{"name":"Maryborough Street","lat":52.837085,"lng":-6.938369},"8210CO11128":{"name":"Carlow Castle","lat":52.836621,"lng":-6.935753},"8210CO11129":{"name":"Kennedy Avenue","lat":52.835658,"lng":-6.931546},"8210CO11132":{"name":"Pollerton Road","lat":52.836836,"lng":-6.918723},"8210CO11133":{"name":"Saint Patrick's Avenue","lat":52.837255,"lng":-6.914409},"8210CO11134":{"name":"Castlewood Gardens","lat":52.838683,"lng":-6.91136},"8210CO11135":{"name":"Askea","lat":52.835379,"lng":-6.91079},"8210CO11138":{"name":"Tullow Road","lat":52.831465,"lng":-6.907311},"8210CO11139":{"name":"The Orchards","lat":52.829989,"lng":-6.903252},"8210CO11140":{"name":"Chapelstown","lat":52.82797,"lng":-6.899742},"8210CO11143":{"name":"Chapelstown","lat":52.827806,"lng":-6.899493},"8210CO11145":{"name":"Tullow Road","lat":52.831191,"lng":-6.906873},"8210CO11146":{"name":"Ashgrove","lat":52.830639,"lng":-6.912407},"8210CO11147":{"name":"Mount Leinster Park","lat":52.833066,"lng":-6.9134},"8210CO11148":{"name":"Askea","lat":52.835257,"lng":-6.911193},"8210CO11149":{"name":"Castlewood Gardens","lat":52.838257,"lng":-6.911979},"8210CO11151":{"name":"Pollerton Road","lat":52.836699,"lng":-6.919424},"8210CO11154":{"name":"Kennedy Avenue","lat":52.835423,"lng":-6.931463},"8210CO11155":{"name":"Carlow Castle","lat":52.836651,"lng":-6.936064},"8210CO11156":{"name":"Maryborough Street","lat":52.837867,"lng":-6.938305},"8210CO11157":{"name":"Sleaty Street","lat":52.839859,"lng":-6.938004},"8210CO11159":{"name":"Barrow Valley","lat":52.84543,"lng":-6.94105},"8210CO11444":{"name":"The Orchards","lat":52.830137,"lng":-6.903679},"8220B1000401":{"name":"Clare Street","lat":53.341434,"lng":-6.251562},"8220B100461":{"name":"Merrion Road","lat":53.328356,"lng":-6.228375},"8220B1009001":{"name":"North Road","lat":53.400198,"lng":-6.308347},"8220B1011301":{"name":"North Road","lat":53.400147,"lng":-6.307867},"8220B1011501":{"name":"Glasnevin","lat":53.369943,"lng":-6.278062},"8220B1021101":{"name":"Bachelors Walk","lat":53.346833,"lng":-6.262471},"8220B1046101":{"name":"Merrion Row","lat":53.338533,"lng":-6.254804},"8220B106421":{"name":"3Arena","lat":53.346899,"lng":-6.229431},"8220B10995":{"name":"Heuston Station","lat":53.34587,"lng":-6.29366},"8220B111761":{"name":"Westland Row Church","lat":53.342626,"lng":-6.250132},"8220B111771":{"name":"Irish Life","lat":53.349115,"lng":-6.255619},"8220B134961":{"name":"Dublin Bus\u00e1ras","lat":53.349913,"lng":-6.252387},"8220B135001":{"name":"Dublin Bus\u00e1ras","lat":53.34981,"lng":-6.25203},"8220B1350201":{"name":"DCU","lat":53.386889,"lng":-6.256631},"8220B1350301":{"name":"Beresford Place","lat":53.348755,"lng":-6.254958},"8220B1351001":{"name":"Wellington Quay","lat":53.345864,"lng":-6.263817},"8220B1351201":{"name":"Connolly Station","lat":53.350218,"lng":-6.250527},"8220B1351401":{"name":"George's Quay","lat":53.34737,"lng":-6.25346},"8220B1352701":{"name":"Custom House Quay","lat":53.348359,"lng":-6.253712},"8220B1353101":{"name":"Wilton Terrace","lat":53.333451,"lng":-6.249021},"8220B1353301":{"name":"Dawson Street","lat":53.340134,"lng":-6.258584},"8220B1353501":{"name":"Eden Quay","lat":53.3478,"lng":-6.258496},"8220B1354001":{"name":"Heuston Station","lat":53.346033,"lng":-6.292647},"8220B135411":{"name":"Wilton Terrace","lat":53.333421,"lng":-6.249085},"8220B1354201":{"name":"Heuston Station","lat":53.34622,"lng":-6.29257},"8220B211521":{"name":"Merrion Square West","lat":53.34091,"lng":-6.250788},"8220B3551501":{"name":"Vincent's Hospital","lat":53.317358,"lng":-6.215983},"8220DB000015":{"name":"Dorset Street Lower","lat":53.360267,"lng":-6.260978},"8220DB000017":{"name":"Drumcondra Station","lat":53.363078,"lng":-6.258399},"8220DB000021":{"name":"Drumcondra Village","lat":53.370101,"lng":-6.254311},"8220DB000045":{"name":"Drumcondra Village","lat":53.369936,"lng":-6.254107},"8220DB000048":{"name":"Drumcondra Station","lat":53.362257,"lng":-6.258808},"8220DB000055":{"name":"Mountjoy Prison","lat":53.360412,"lng":-6.26847},"8220DB000057":{"name":"Dalymount","lat":53.36076,"lng":-6.2766},"8220DB000080":{"name":"Phibsborough Church","lat":53.360863,"lng":-6.276054},"8220DB000119":{"name":"Whitehall Village","lat":53.375191,"lng":-6.250766},"8220DB000187":{"name":"Munster Street","lat":53.362734,"lng":-6.272447},"8220DB000188":{"name":"Doyle's Corner","lat":53.360121,"lng":-6.272583},"8220DB000190":{"name":"Broadstone","lat":53.355126,"lng":-6.273371},"8220DB000195":{"name":"Broadstone","lat":53.355012,"lng":-6.273571},"8220DB000198":{"name":"Doyle's Corner","lat":53.361625,"lng":-6.272838},"8220DB000203":{"name":"Whitehall Village","lat":53.376393,"lng":-6.25001},"8220DB000263":{"name":"Parnell Square East","lat":53.353746,"lng":-6.262505},"8220DB000277":{"name":"O'Connell Street Upper","lat":53.350822,"lng":-6.260506},"8220DB000341":{"name":"South Townsend Street","lat":53.345945,"lng":-6.256424},"8220DB000408":{"name":"Merrion Square North","lat":53.340971,"lng":-6.250019},"8220DB000409":{"name":"Holles Street","lat":53.340137,"lng":-6.247696},"8220DB000417":{"name":"Merrion Road","lat":53.3277,"lng":-6.22597},"8220DB000493":{"name":"Holles Street","lat":53.339853,"lng":-6.247377},"8220DB000760":{"name":"Donnybrook Depot","lat":53.31833,"lng":-6.230562},"8220DB000762":{"name":"RT\u00c9 Studios","lat":53.314517,"lng":-6.224371},"8220DB000770":{"name":"RT\u00c9 Studios","lat":53.314636,"lng":-6.225732},"8220DB000772":{"name":"Donnybrook Depot","lat":53.318485,"lng":-6.231321},"8220DB000783":{"name":"Baggot Street Lower","lat":53.335308,"lng":-6.246978},"8220DB000817":{"name":"Mater Hospital","lat":53.359646,"lng":-6.269612},"8220DB000834":{"name":"Saint Patrick's Road","lat":53.361975,"lng":-6.260428},"8220DB000846":{"name":"Adelaide Road","lat":53.333454,"lng":-6.254111},"8220DB000848":{"name":"Sussex Road","lat":53.329728,"lng":-6.248888},"8220DB000909":{"name":"Adelaide Road","lat":53.333148,"lng":-6.254078},"8220DB001171":{"name":"Gardiner Street Lower","lat":53.350318,"lng":-6.254263},"8220DB001174":{"name":"Mountjoy Square West","lat":53.356187,"lng":-6.258545},"8220DB001506":{"name":"Hart's Corner","lat":53.366778,"lng":-6.272374},"8220DB001510":{"name":"Ballyboggan Road East","lat":53.376907,"lng":-6.28731},"8220DB001534":{"name":"Ballyboggan Road East","lat":53.375333,"lng":-6.285976},"8220DB001620":{"name":"Whitehall Church","lat":53.383263,"lng":-6.244106},"8220DB001642":{"name":"Whitehall Church","lat":53.38401,"lng":-6.24339},"8220DB001666":{"name":"Ashtown Roundabout","lat":53.371597,"lng":-6.330596},"8220DB001696":{"name":"Ashtown Roundabout","lat":53.371541,"lng":-6.329831},"8220DB002086":{"name":"Nutley Avenue","lat":53.318157,"lng":-6.214703},"8220DB002499":{"name":"Sean O'Casey Bridge","lat":53.348128,"lng":-6.247128},"8220DB002501":{"name":"North Wall Quay","lat":53.347376,"lng":-6.236359},"8220DB002811":{"name":"Merrion Street","lat":53.33936,"lng":-6.252308},"8220DB004542":{"name":"Finglas Place","lat":53.386664,"lng":-6.297097},"8220DB004543":{"name":"Finglas Place","lat":53.386249,"lng":-6.296993},"8220DB006252":{"name":"Sean O'Casey Bridge","lat":53.347965,"lng":-6.247044},"8220DB007387":{"name":"Merrion Square South","lat":53.339472,"lng":-6.250817},"8220DB007398":{"name":"Convention Centre","lat":53.347499,"lng":-6.239853},"8220DB007399":{"name":"The Point","lat":53.348493,"lng":-6.226864},"8220DB008513":{"name":"Westland Row","lat":53.343163,"lng":-6.249959},"8230B1034401":{"name":"Tandy's Lane","lat":53.354034,"lng":-6.458852},"8230B1034501":{"name":"Liffey Valley SC","lat":53.356177,"lng":-6.391667},"8230B105661":{"name":"Tallaght Hospital","lat":53.28941,"lng":-6.37448},"8230B1343601":{"name":"Newlands Cross","lat":53.312526,"lng":-6.391253},"8230B134461":{"name":"Lucan Spa Hotel","lat":53.356832,"lng":-6.465332},"8230B1360501":{"name":"Newlands Cross","lat":53.313697,"lng":-6.388162},"8230B5992601":{"name":"Tallaght Hosp","lat":53.28935,"lng":-6.37381},"8230DB002213":{"name":"Liffey Valley SC","lat":53.355778,"lng":-6.392073},"8230DB002241":{"name":"Palmerstown R148","lat":53.354929,"lng":-6.371268},"8230DB004401":{"name":"Palmerstown R148","lat":53.354756,"lng":-6.37171},"8240B100021":{"name":"Strand Street","lat":53.58039,"lng":-6.10701},"8240B100121":{"name":"Blake's Cross","lat":53.505555,"lng":-6.194413},"8240B100141":{"name":"Corduff","lat":53.517109,"lng":-6.191147},"8240B100151":{"name":"Regles","lat":53.525974,"lng":-6.188959},"8240B100161":{"name":"Regles","lat":53.524731,"lng":-6.189389},"8240B100181":{"name":"Corduff","lat":53.514196,"lng":-6.191648},"8240B100191":{"name":"Blake's Cross","lat":53.505748,"lng":-6.194088},"8240B1002101":{"name":"Ballough","lat":53.533521,"lng":-6.195622},"8240B1002201":{"name":"Five Roads","lat":53.551432,"lng":-6.209817},"8240B1002301":{"name":"Grooms","lat":53.567065,"lng":-6.209459},"8240B1002401":{"name":"Courtlough","lat":53.576836,"lng":-6.202311},"8240B1002501":{"name":"Balrothery","lat":53.593508,"lng":-6.185619},"8240B1002601":{"name":"Balbriggan Golf Club","lat":53.596703,"lng":-6.183563},"8240B1002701":{"name":"Balbriggan Retail Park","lat":53.601888,"lng":-6.185244},"8240B1002901":{"name":"Balbriggan College","lat":53.611367,"lng":-6.186259},"8240B1003001":{"name":"Drogheda Street","lat":53.613482,"lng":-6.189357},"8240B1003101":{"name":"Balbriggan Garda Stn","lat":53.615919,"lng":-6.192427},"8240B100411":{"name":"Bremore","lat":53.618892,"lng":-6.196309},"8240B100421":{"name":"Bremore","lat":53.618923,"lng":-6.196276},"8240B1007101":{"name":"Balbriggan Community School","lat":53.611261,"lng":-6.185795},"8240B1007201":{"name":"Balbriggan Retail Park","lat":53.600354,"lng":-6.185431},"8240B1007301":{"name":"Balbriggan Golf Club","lat":53.595809,"lng":-6.183239},"8240B1007401":{"name":"Balrothery","lat":53.59338,"lng":-6.185503},"8240B1007501":{"name":"Courtlough","lat":53.576833,"lng":-6.202129},"8240B1007601":{"name":"Grooms","lat":53.567251,"lng":-6.209285},"8240B1007701":{"name":"Five Roads","lat":53.550853,"lng":-6.209012},"8240B1007801":{"name":"Ballough","lat":53.531448,"lng":-6.193433},"8240B1009301":{"name":"Coolquay","lat":53.458781,"lng":-6.35073},"8240B1010901":{"name":"Coolquay","lat":53.458587,"lng":-6.350361},"8240B1011001":{"name":"Ward Cross","lat":53.444211,"lng":-6.340937},"8240B1011101":{"name":"Broughan","lat":53.43366,"lng":-6.333221},"8240B1011201":{"name":"Kilshane","lat":53.421553,"lng":-6.324847},"8240B101281":{"name":"Blanchardstown N3","lat":53.39576,"lng":-6.39119},"8240B1043201":{"name":"Balrothery Inn","lat":53.588008,"lng":-6.189208},"8240B1045601":{"name":"Blanchardstown N3","lat":53.39732,"lng":-6.38979},"8240B1050501":{"name":"Bath Rd","lat":53.613066,"lng":-6.188619},"8240B1056201":{"name":"Kilshane Cross","lat":53.428979,"lng":-6.330169},"8240B109261":{"name":"Hamlet Lane","lat":53.613834,"lng":-6.20621},"8240B109271":{"name":"Brega","lat":53.614754,"lng":-6.20401},"8240B109281":{"name":"Stephenstown Industrial Estate","lat":53.604465,"lng":-6.189849},"8240B109291":{"name":"Balbriggan Cemetery","lat":53.607985,"lng":-6.192903},"8240B109301":{"name":"Clonard Rd","lat":53.606522,"lng":-6.2017},"8240B109311":{"name":"Westbrook Drive","lat":53.61041,"lng":-6.19428},"8240B109321":{"name":"Ashfield","lat":53.613504,"lng":-6.194435},"8240B111911":{"name":"Dublin Airport Terminal 2 Zone 19","lat":53.42611,"lng":-6.2384},"8240B111931":{"name":"Dublin Airport Zone 13","lat":53.42765,"lng":-6.24153},"8240B112001":{"name":"Dublin Airport Zone 12","lat":53.42829,"lng":-6.24256},"8240B112021":{"name":"Dublin Airport Zone 13","lat":53.42792,"lng":-6.24197},"8240B112111":{"name":"Dublin Airport Zone 13","lat":53.42806,"lng":-6.24219},"8240B1332001":{"name":"Balbriggan Comm Cen","lat":53.607128,"lng":-6.183508},"8240B1333201":{"name":"Balrothery","lat":53.587968,"lng":-6.189527},"8240B1342501":{"name":"Ward Cross","lat":53.443825,"lng":-6.340967},"8240B1343201":{"name":"Kilshane Cross","lat":53.428819,"lng":-6.33025},"8240B1344501":{"name":"Kildonan","lat":53.413411,"lng":-6.319225},"8240B1347401":{"name":"Balbriggan Station","lat":53.611614,"lng":-6.18332},"8240B1347601":{"name":"Barons Hall Grove","lat":53.61238,"lng":-6.197389},"8240B1347701":{"name":"Hastings","lat":53.613346,"lng":-6.209587},"8240B1348101":{"name":"Hamlet Lane","lat":53.61574,"lng":-6.199071},"8240B1348501":{"name":"Castleland Roadbt","lat":53.60207,"lng":-6.178301},"8240B1348601":{"name":"Millfield Centre","lat":53.606981,"lng":-6.198748},"8240B136971":{"name":"Balbriggan","lat":53.607362,"lng":-6.183483},"8240B1371301":{"name":"Balbriggan Garda Station","lat":53.615464,"lng":-6.191494},"8240DB000661":{"name":"Westend Office Park","lat":53.392422,"lng":-6.383489},"8240DB001545":{"name":"Westend Office Park","lat":53.392757,"lng":-6.384289},"8240DB001623":{"name":"Omni Park Shopping Centre","lat":53.391932,"lng":-6.24626},"8240DB001640":{"name":"Omni Park Shopping Centre","lat":53.39235,"lng":-6.245987},"8240DB002294":{"name":"Mill Road","lat":53.390087,"lng":-6.370347},"8240DB003669":{"name":"Aircraft Hangars","lat":53.428466,"lng":-6.23508},"8240DB003676":{"name":"Airside","lat":53.446782,"lng":-6.228358},"8240DB003696":{"name":"N1 Business Park","lat":53.443182,"lng":-6.227996},"8240DB003713":{"name":"Balheary Park","lat":53.468689,"lng":-6.213452},"8240DB003750":{"name":"Balheary Park","lat":53.468495,"lng":-6.213099},"8240DB003755":{"name":"Turvey Avenue","lat":53.494283,"lng":-6.195254},"8240DB003863":{"name":"Turvey Avenue","lat":53.494535,"lng":-6.194671},"8240DB004433":{"name":"Seatown","lat":53.461652,"lng":-6.213507},"8240DB005074":{"name":"Swords Pavilions","lat":53.45315,"lng":-6.215972},"8240DB005079":{"name":"Swords Pavilions","lat":53.453019,"lng":-6.215601},"8240DB006048":{"name":"Peter & Paul Church","lat":53.604501,"lng":-6.184468},"8240DB006179":{"name":"Mill Road","lat":53.389553,"lng":-6.370773},"8240DB006359":{"name":"Seatown","lat":53.462224,"lng":-6.213287},"8240DB007166":{"name":"Navan Road Station","lat":53.377094,"lng":-6.345787},"8240DB007167":{"name":"Navan Road Station","lat":53.375866,"lng":-6.344783},"8240DB007174":{"name":"Peter & Paul Church","lat":53.603952,"lng":-6.184446},"8240DB007297":{"name":"Connolly Hospital","lat":53.388016,"lng":-6.370787},"8240DB007298":{"name":"Connolly Hospital","lat":53.387569,"lng":-6.370293},"8240DB007374":{"name":"Junction 6","lat":53.383986,"lng":-6.365243},"8240DB007389":{"name":"Junction 6","lat":53.386018,"lng":-6.370608},"8240DB008243":{"name":"Ballymun Kickhams","lat":53.417428,"lng":-6.264607},"8250B1022401":{"name":"Cabinteely Cross","lat":53.262441,"lng":-6.150357},"8250B1350601":{"name":"UCD Belfield Campus","lat":53.305315,"lng":-6.216635},"8250DB000435":{"name":"Sycamore Crescent","lat":53.295989,"lng":-6.203746},"8250DB000461":{"name":"Stillorgan Pk Hotel","lat":53.2948,"lng":-6.203541},"8250DB000768":{"name":"UCD Stillorgan Road","lat":53.309418,"lng":-6.218775},"8250DB002007":{"name":"Woodbine Road","lat":53.308875,"lng":-6.216111},"8250DB002016":{"name":"Newtownpark Avenue","lat":53.278209,"lng":-6.184067},"8250DB002017":{"name":"Foxrock Church","lat":53.274197,"lng":-6.175015},"8250DB002060":{"name":"Foxrock Church","lat":53.273955,"lng":-6.175086},"8250DB002062":{"name":"Newtownpark Avenue","lat":53.279024,"lng":-6.186852},"8250DB003134":{"name":"Wyattville Road","lat":53.246907,"lng":-6.136031},"8250DB003135":{"name":"St Columcille's Hospital","lat":53.242929,"lng":-6.130555},"8250DB003143":{"name":"St Columcille's Hospital","lat":53.242691,"lng":-6.13082},"8250DB003145":{"name":"Willow Court","lat":53.247921,"lng":-6.138235},"8250DB004571":{"name":"Stillorgan Park","lat":53.288979,"lng":-6.194875},"8250DB004727":{"name":"Laurence Park","lat":53.290812,"lng":-6.197783},"8250DB005127":{"name":"Cabinteely Bypass","lat":53.262016,"lng":-6.15041},"8250DB005128":{"name":"Clonkeen Road","lat":53.265527,"lng":-6.157739},"8250DB007362":{"name":"Clonkeen Road","lat":53.265939,"lng":-6.157692},"8260B0103541":{"name":"Pinewood Court","lat":53.40492,"lng":-6.67706},"8260B0103551":{"name":"Pinewood Court","lat":53.405,"lng":-6.67674},"8260B1031601":{"name":"Maynooth University","lat":53.382085,"lng":-6.598795},"8260B1032201":{"name":"Moyvalley","lat":53.427362,"lng":-6.909633},"8260B103361":{"name":"Ballynadrumny","lat":53.428907,"lng":-6.957837},"8260B1033701":{"name":"Moyvalley","lat":53.427496,"lng":-6.909585},"8260B103391":{"name":"Cloncurry Cross","lat":53.41544,"lng":-6.791443},"8260B103421":{"name":"Kilcock Square","lat":53.400305,"lng":-6.667297},"8260B1034301":{"name":"Maynooth University","lat":53.382175,"lng":-6.598822},"8260B1329901":{"name":"Ballynadrumny","lat":53.42906,"lng":-6.957833},"8260B1333601":{"name":"Cloncurry Cross","lat":53.415267,"lng":-6.79217},"8260B133391":{"name":"Ferrans Lock","lat":53.411969,"lng":-6.712179},"8260B133411":{"name":"Ferrans Lock","lat":53.411966,"lng":-6.711908},"8260B1340301":{"name":"Kilcock","lat":53.399067,"lng":-6.667516},"8260B134061":{"name":"Millerstown","lat":53.395692,"lng":-6.656675},"8260B134081":{"name":"Millerstown","lat":53.39599,"lng":-6.657567},"8260B1354601":{"name":"Maynooth Station","lat":53.379678,"lng":-6.589058},"8260DB003918":{"name":"Old Greenfield","lat":53.37645,"lng":-6.587422},"8260DB005115":{"name":"Kilcock","lat":53.403179,"lng":-6.671162},"8260DB005117":{"name":"Kilcock","lat":53.404444,"lng":-6.673409},"8270B1360901":{"name":"Gowran","lat":52.628326,"lng":-7.070169},"8270B136101":{"name":"Thomastown","lat":52.525714,"lng":-7.139022},"8270B136111":{"name":"Ballyhale","lat":52.467569,"lng":-7.200764},"8270B136121":{"name":"Mullinavat","lat":52.368248,"lng":-7.171074},"8270B3305801":{"name":"Knocktopher","lat":52.486171,"lng":-7.214827},"8270B3306501":{"name":"Ballyhale","lat":52.467361,"lng":-7.200547},"8270B3311201":{"name":"Lukeswell","lat":52.396603,"lng":-7.184737},"8270B331981":{"name":"Piltown","lat":52.351168,"lng":-7.331918},"8270B332871":{"name":"Fiddown","lat":52.333063,"lng":-7.316658},"8270B332881":{"name":"Mooncoin","lat":52.295934,"lng":-7.260447},"8270B3378001":{"name":"Kilkenny MacDonagh Station","lat":52.65414,"lng":-7.242973},"8270B337811":{"name":"Ormonde Road","lat":52.648113,"lng":-7.252244},"8270B3384801":{"name":"Paulstown","lat":52.680771,"lng":-7.029553},"8270B3386701":{"name":"Mullinavat","lat":52.368714,"lng":-7.170963},"8270B3389501":{"name":"Inistioge","lat":52.488797,"lng":-7.065472},"8270B3389701":{"name":"Ballykeoghan","lat":52.330855,"lng":-7.160916},"8270B3390501":{"name":"Clonamery","lat":52.469097,"lng":-7.001968},"8270B339131":{"name":"Clonamery","lat":52.46908,"lng":-7.002101},"8270B339211":{"name":"Stripes","lat":52.434785,"lng":-6.960947},"8270B3392901":{"name":"Stripes","lat":52.434751,"lng":-6.961227},"8270B339881":{"name":"Paulstown","lat":52.680491,"lng":-7.030565},"8270B339951":{"name":"Inistioge","lat":52.48843,"lng":-7.06541},"8270B3505501":{"name":"Gowran","lat":52.628186,"lng":-7.070615},"8270B3510301":{"name":"Thomastown","lat":52.52531,"lng":-7.137895},"8270B351041":{"name":"Knocktopher","lat":52.486013,"lng":-7.215463},"8270B351101":{"name":"Lukeswell","lat":52.396646,"lng":-7.184413},"8270B3511601":{"name":"Bennettsbridge","lat":52.592163,"lng":-7.184389},"8270B3511602":{"name":"Bennettsbridge","lat":52.591758,"lng":-7.184308},"8270B351171":{"name":"Ballykeoghan","lat":52.33099,"lng":-7.160884},"8270B3512601":{"name":"Glenmore","lat":52.35356,"lng":-7.022893},"8270B351461":{"name":"Glenmore","lat":52.353525,"lng":-7.022997},"8270B351501":{"name":"Kilmacow","lat":52.311865,"lng":-7.176645},"8270B351511":{"name":"Kilmacow","lat":52.31357,"lng":-7.175015},"8270B3580801":{"name":"Piltown","lat":52.351148,"lng":-7.330762},"8270B3580901":{"name":"Fiddown","lat":52.332767,"lng":-7.31587},"8270B3581001":{"name":"Mooncoin","lat":52.295794,"lng":-7.259731},"8270B5571201":{"name":"Ormonde Road","lat":52.648229,"lng":-7.252094},"8280B1315601":{"name":"Mountmellick","lat":53.117395,"lng":-7.327096},"8280B1315602":{"name":"Mountmellick","lat":53.117481,"lng":-7.326961},"8280B1553201":{"name":"Portlaoise JFL Avenue","lat":53.03276,"lng":-7.29629},"8280B1554101":{"name":"Portlaoise JFL Avenue","lat":53.032906,"lng":-7.297705},"8280B330831":{"name":"Stradbally","lat":53.013666,"lng":-7.146256},"8280B3308701":{"name":"Stradbally","lat":53.015956,"lng":-7.150046},"8290B104421":{"name":"Edgeworthstown","lat":53.696713,"lng":-7.611005},"8290B104951":{"name":"Granard","lat":53.777316,"lng":-7.496276},"8290B1049601":{"name":"Abbeylara","lat":53.765417,"lng":-7.44896},"8290B131141":{"name":"Edgeworthstown","lat":53.696767,"lng":-7.611126},"8290B1313701":{"name":"Abbeylara","lat":53.765182,"lng":-7.448797},"8290B1357701":{"name":"Longford Station","lat":53.724391,"lng":-7.796019},"8290B135801":{"name":"Longford Centre","lat":53.728542,"lng":-7.801333},"8290B1359001":{"name":"Granard","lat":53.777558,"lng":-7.496091},"8290B141591":{"name":"Saint Joseph's Care Centre","lat":53.725114,"lng":-7.788363},"8290B1416701":{"name":"Saint Joseph's Care Centre","lat":53.724596,"lng":-7.784835},"8290B1520801":{"name":"Ballymahon","lat":53.565258,"lng":-7.766383},"8290B152151":{"name":"Ballymahon","lat":53.565212,"lng":-7.766172},"8290B152201":{"name":"Newtownforbes","lat":53.767423,"lng":-7.834488},"8290B551581":{"name":"Cloonfiugh","lat":53.673006,"lng":-7.90334},"8290B551591":{"name":"Cloonfiugh","lat":53.672988,"lng":-7.903446},"8290B553421":{"name":"Lanesborough","lat":53.672425,"lng":-7.988831},"8290B553451":{"name":"Lanesborough","lat":53.672775,"lng":-7.989467},"8290B556281":{"name":"Newtownforbes","lat":53.766407,"lng":-7.834903},"8290B557251":{"name":"Killashee","lat":53.681559,"lng":-7.880448},"8290B557271":{"name":"Killashee","lat":53.681523,"lng":-7.880357},"8290B557731":{"name":"Keenagh","lat":53.623838,"lng":-7.816019},"8290B557751":{"name":"Keenagh","lat":53.623856,"lng":-7.815883},"830000001":{"name":"Garrybawn","lat":53.99199,"lng":-6.39168},"830000002":{"name":"Grange Drive","lat":53.98833,"lng":-6.38069},"830000067":{"name":"Park Street","lat":54.00207,"lng":-6.40384},"830000069":{"name":"Dundalk Retail Park","lat":53.9876,"lng":-6.37744},"8300B0068023":{"name":"Ashbrook","lat":53.99547,"lng":-6.39865},"8300B0068024":{"name":"Woodbury Gardens","lat":53.99283,"lng":-6.39594},"8300B0068027":{"name":"College Manor","lat":53.98781,"lng":-6.38804},"8300B0107051":{"name":"Linenfield","lat":53.73872,"lng":-6.34832},"8300B0107061":{"name":"Linenfield","lat":53.7386,"lng":-6.34854},"8300B014659":{"name":"Lavin Park","lat":53.73956,"lng":-6.41336},"8300B014660":{"name":"Lavin Park","lat":53.73949,"lng":-6.4136},"8300B014966":{"name":"Kilsaran","lat":53.88567,"lng":-6.38839},"8300B014967":{"name":"Kilsaran","lat":53.88548,"lng":-6.38867},"8300B014981":{"name":"Ard na Mara","lat":53.79518,"lng":-6.24487},"8300B014982":{"name":"Ard na Mara","lat":53.79513,"lng":-6.24448},"8300B0170001":{"name":"Mell","lat":53.719069,"lng":-6.367992},"8300B0680281":{"name":"Legion Avenue","lat":54.01199,"lng":-6.40832},"8300B0680291":{"name":"Woodview Terrace","lat":54.01365,"lng":-6.41564},"8300B0680301":{"name":"Saint Ronan's Terrace","lat":54.01429,"lng":-6.41839},"8300B0680311":{"name":"De La Salle College","lat":54.01652,"lng":-6.42936},"8300B0680321":{"name":"Barton Park","lat":54.013268,"lng":-6.418402},"8300B0680331":{"name":"Redeemer Centre","lat":54.00742,"lng":-6.41841},"8300B0680341":{"name":"P\u00e1irc Sliabh na gCloch","lat":54.00424,"lng":-6.41993},"8300B0680351":{"name":"Redeemer Church","lat":54.00516,"lng":-6.41554},"8300B0680361":{"name":"Legion Avenue","lat":54.01252,"lng":-6.4101},"8300B0680371":{"name":"Point Road","lat":54.00577,"lng":-6.36755},"8300B0680381":{"name":"Greenwood Drive","lat":54.00048,"lng":-6.36913},"8300B0680391":{"name":"Cherryvale","lat":53.99609,"lng":-6.37762},"8300B0680401":{"name":"Ashgrove","lat":53.99391,"lng":-6.37547},"8300B0680411":{"name":"Bothar Na Feirme","lat":53.98823,"lng":-6.37211},"8300B100381":{"name":"Drogheda MacBride Station","lat":53.712555,"lng":-6.338864},"8300B100511":{"name":"Magdalene Tower","lat":53.718322,"lng":-6.349076},"8300B100521":{"name":"Stapleton Place","lat":53.998882,"lng":-6.405948},"8300B100551":{"name":"Hardman's Gardens","lat":53.721223,"lng":-6.349599},"8300B100601":{"name":"Melifont Park","lat":53.723804,"lng":-6.362818},"8300B100621":{"name":"Saint Mary's Hospital","lat":53.713305,"lng":-6.341819},"8300B101401":{"name":"Lios Na Dara","lat":53.99977,"lng":-6.421832},"8300B101491":{"name":"Lios Na Dara","lat":53.99966,"lng":-6.42227},"8300B102011":{"name":"Gyles Quay","lat":53.997508,"lng":-6.239861},"8300B102031":{"name":"Greenore","lat":54.033575,"lng":-6.131622},"8300B103471":{"name":"Five Oaks","lat":53.705285,"lng":-6.322867},"8300B103501":{"name":"Bryanstown Manor","lat":53.710289,"lng":-6.334287},"8300B103581":{"name":"Saint Mary's Hospital","lat":53.713203,"lng":-6.342868},"8300B103591":{"name":"Drogheda Bus Station","lat":53.712612,"lng":-6.353847},"8300B103611":{"name":"Cross Lane","lat":53.72443,"lng":-6.359324},"8300B103621":{"name":"Brookville","lat":53.72494,"lng":-6.34537},"8300B103641":{"name":"Newfield Estate","lat":53.722322,"lng":-6.3381},"8300B103651":{"name":"The Chesters","lat":53.726942,"lng":-6.332295},"8300B103661":{"name":"Termon Abbey","lat":53.72896,"lng":-6.33038},"8300B103731":{"name":"Grange Rise","lat":53.72737,"lng":-6.34377},"8300B103781":{"name":"Grange Rise","lat":53.726677,"lng":-6.343657},"8300B103991":{"name":"Mill Haven","lat":53.729297,"lng":-6.344645},"8300B104011":{"name":"Ballymakenny College","lat":53.730284,"lng":-6.345244},"8300B104411":{"name":"Ballymakenny College","lat":53.730283,"lng":-6.345122},"8300B104571":{"name":"Mill Haven","lat":53.729142,"lng":-6.344439},"8300B105081":{"name":"Ballymascanlan Roundabout","lat":54.036063,"lng":-6.383197},"8300B1050901":{"name":"Dundalk Bus Station","lat":54.00532,"lng":-6.40413},"8300B1056301":{"name":"Flurrybridge","lat":54.099674,"lng":-6.360769},"8300B106001":{"name":"Muchgrange","lat":54.011866,"lng":-6.138256},"8300B106501":{"name":"Drogheda Hospital","lat":53.72334,"lng":-6.3543},"8300B106511":{"name":"Drogheda Hospital","lat":53.72328,"lng":-6.35449},"8300B106541":{"name":"Dromiskin","lat":53.921337,"lng":-6.400241},"8300B1070101":{"name":"Dundalk Institute of Technology","lat":53.984181,"lng":-6.395973},"8300B1070201":{"name":"Dromiskin","lat":53.92142,"lng":-6.39966},"8300B107041":{"name":"Annagassan","lat":53.882365,"lng":-6.342999},"8300B107091":{"name":"Annaghvacky","lat":54.035065,"lng":-6.546454},"8300B107821":{"name":"Louth","lat":53.950681,"lng":-6.540767},"8300B107831":{"name":"Mullacrew","lat":53.937773,"lng":-6.539725},"8300B107841":{"name":"Tallanstown","lat":53.919508,"lng":-6.547609},"8300B1079701":{"name":"Fatima Park","lat":54.020179,"lng":-6.42824},"8300B1079901":{"name":"Bay Estate","lat":53.997479,"lng":-6.374382},"8300B1082601":{"name":"Tullyallen","lat":53.736773,"lng":-6.419068},"8300B108311":{"name":"Scarlet Street","lat":53.719978,"lng":-6.34142},"8300B108321":{"name":"Harmony Heights","lat":53.724212,"lng":-6.332772},"8300B108331":{"name":"Harmony Heights","lat":53.723973,"lng":-6.332959},"8300B108341":{"name":"Hardman's Gardens","lat":53.720553,"lng":-6.349913},"8300B1086301":{"name":"Termonfeckin","lat":53.762264,"lng":-6.268674},"8300B108651":{"name":"Clogherhead","lat":53.791719,"lng":-6.238943},"8300B108661":{"name":"Dales","lat":53.798157,"lng":-6.254537},"8300B108671":{"name":"Dales","lat":53.79819,"lng":-6.254338},"8300B108681":{"name":"Clogherhead","lat":53.791717,"lng":-6.238806},"8300B1087501":{"name":"Ravensdale","lat":54.055311,"lng":-6.337574},"8300B108761":{"name":"Ardee Church","lat":53.852558,"lng":-6.538255},"8300B108771":{"name":"Ardee Church","lat":53.852195,"lng":-6.537994},"8300B108911":{"name":"Carlingford","lat":54.040823,"lng":-6.185244},"8300B108921":{"name":"Ballyonan","lat":54.07387,"lng":-6.240987},"8300B108931":{"name":"Omeath","lat":54.087587,"lng":-6.25846},"8300B108941":{"name":"Cornamucklagh","lat":54.108981,"lng":-6.286974},"8300B108971":{"name":"Knockbridge","lat":53.97158,"lng":-6.486593},"8300B109121":{"name":"Collon","lat":53.778467,"lng":-6.486708},"8300B109141":{"name":"Castle Park","lat":54.015442,"lng":-6.423444},"8300B109151":{"name":"Farndreg","lat":54.008836,"lng":-6.41994},"8300B109161":{"name":"Woodview Terrace","lat":54.013158,"lng":-6.413078},"8300B109171":{"name":"Seatown Place","lat":54.00558,"lng":-6.3892},"8300B109181":{"name":"Quay Street","lat":54.007173,"lng":-6.38209},"8300B109191":{"name":"Lennonstown Manor","lat":54.00342,"lng":-6.368399},"8300B109201":{"name":"Kingswood","lat":53.991857,"lng":-6.370666},"8300B109211":{"name":"Aghameen Park","lat":53.986931,"lng":-6.38254},"8300B109221":{"name":"\u00d3 Fiaich College","lat":53.986574,"lng":-6.39277},"8300B109231":{"name":"Park Street","lat":54.002155,"lng":-6.404069},"8300B109241":{"name":"Dundalk Sports Centre","lat":53.991323,"lng":-6.3872},"8300B109251":{"name":"Slieveroe Crescent","lat":53.992241,"lng":-6.382456},"8300B109401":{"name":"Scotch Hall","lat":53.713497,"lng":-6.347887},"8300B109411":{"name":"Saint Joseph's Terrace","lat":53.719107,"lng":-6.372304},"8300B109441":{"name":"Hunterstown","lat":53.827967,"lng":-6.533657},"8300B109461":{"name":"Cherrybrook","lat":53.845481,"lng":-6.538638},"8300B109471":{"name":"Hunterstown","lat":53.827343,"lng":-6.533345},"8300B1095101":{"name":"Tullyallen","lat":53.736828,"lng":-6.419127},"8300B109521":{"name":"Saint Malachy's Villas","lat":53.998182,"lng":-6.410795},"8300B1095401":{"name":"Knockbridge","lat":53.971587,"lng":-6.486486},"8300B109551":{"name":"Saint Malachy's Villas","lat":53.998843,"lng":-6.409973},"8300B1095601":{"name":"Louth","lat":53.950719,"lng":-6.540887},"8300B109571":{"name":"Mullacrew","lat":53.937755,"lng":-6.539756},"8300B1095801":{"name":"Tallanstown","lat":53.919824,"lng":-6.547781},"8300B109591":{"name":"Cherrybrook","lat":53.846924,"lng":-6.539044},"8300B109631":{"name":"Mooretown","lat":53.944519,"lng":-6.383084},"8300B109641":{"name":"Commons Grove","lat":53.932215,"lng":-6.406556},"8300B109661":{"name":"Annagassan","lat":53.882201,"lng":-6.342793},"8300B111311":{"name":"Bellurgan","lat":54.015746,"lng":-6.320473},"8300B111481":{"name":"Drogheda Grammar School","lat":53.719102,"lng":-6.305164},"8300B111491":{"name":"Weirhope","lat":53.714984,"lng":-6.335814},"8300B111501":{"name":"Scotch Hall","lat":53.713597,"lng":-6.347928},"8300B111511":{"name":"Weirhope","lat":53.715187,"lng":-6.334897},"8300B111701":{"name":"Termonfeckin","lat":53.762259,"lng":-6.268736},"8300B117051":{"name":"Baltray","lat":53.737105,"lng":-6.275047},"8300B117061":{"name":"Baltray","lat":53.737221,"lng":-6.274981},"8300B117901":{"name":"Muirhevna","lat":53.99063,"lng":-6.40069},"8300B117911":{"name":"Castle Park","lat":54.01529,"lng":-6.42218},"8300B117921":{"name":"\u00c1rd Easmuinn","lat":54.00777,"lng":-6.4142},"8300B117931":{"name":"Roden Place","lat":54.00476,"lng":-6.3975},"8300B117941":{"name":"Mountain Court","lat":54.00656,"lng":-6.37462},"8300B117951":{"name":"Ladywell Square","lat":53.99353,"lng":-6.40493},"8300B117961":{"name":"Saltown","lat":54.017763,"lng":-6.424669},"8300B1260101":{"name":"Ballsgrove","lat":53.711671,"lng":-6.361472},"8300B1260201":{"name":"Marian Park","lat":53.708437,"lng":-6.356356},"8300B1260601":{"name":"Moneymore","lat":53.725949,"lng":-6.354733},"8300B1260701":{"name":"Windmill Road","lat":53.720037,"lng":-6.356161},"8300B1261301":{"name":"Meadow View","lat":53.706413,"lng":-6.346437},"8300B126191":{"name":"Highlands","lat":53.714518,"lng":-6.38389},"8300B1262201":{"name":"West Street","lat":53.715001,"lng":-6.352676},"8300B126231":{"name":"Crushrod Avenue","lat":53.72145,"lng":-6.34491},"8300B1262401":{"name":"Scarlet Street","lat":53.719653,"lng":-6.341681},"8300B1262501":{"name":"Dominick Street","lat":53.714472,"lng":-6.355363},"8300B1262601":{"name":"Saint Finian's Park","lat":53.708634,"lng":-6.368149},"8300B1262701":{"name":"Marley's Lane","lat":53.71067,"lng":-6.37542},"8300B1262801":{"name":"Hillview","lat":53.714614,"lng":-6.371039},"8300B1262901":{"name":"Rathmullan Road","lat":53.714931,"lng":-6.361996},"8300B1263001":{"name":"Mary Street","lat":53.71295,"lng":-6.346045},"8300B126311":{"name":"Riverbank","lat":53.715582,"lng":-6.38544},"8300B126321":{"name":"Saint Oliver's College","lat":53.714504,"lng":-6.3788},"8300B126331":{"name":"Lidl Drogheda","lat":53.705723,"lng":-6.369534},"8300B131211":{"name":"Louth County Hospital","lat":53.98858,"lng":-6.399022},"8300B1312401":{"name":"Haggardstown","lat":53.962722,"lng":-6.386723},"8300B1314101":{"name":"Castlebellingham","lat":53.897522,"lng":-6.389526},"8300B131451":{"name":"Saint Mary's Villas","lat":53.888254,"lng":-6.388665},"8300B1316301":{"name":"Dunleer","lat":53.825121,"lng":-6.394569},"8300B131801":{"name":"Mullary","lat":53.798911,"lng":-6.394021},"8300B1319801":{"name":"Monasterboice","lat":53.768399,"lng":-6.398675},"8300B132051":{"name":"Silloge","lat":53.765676,"lng":-6.395365},"8300B133581":{"name":"Haggardstown","lat":53.963015,"lng":-6.387108},"8300B1359401":{"name":"M1 Retail Park","lat":53.727093,"lng":-6.387303},"8300B1359501":{"name":"Drogheda Bus Station","lat":53.71172,"lng":-6.35339},"8300B136021":{"name":"Aston Village","lat":53.732884,"lng":-6.329817},"8300B136131":{"name":"Cedarfield","lat":53.705278,"lng":-6.374474},"8300B136141":{"name":"Cedarfield","lat":53.705072,"lng":-6.375209},"8300B136651":{"name":"The Chesters","lat":53.727102,"lng":-6.332183},"8300B136661":{"name":"Newfield Estate","lat":53.722179,"lng":-6.338121},"8300B136681":{"name":"Brookville","lat":53.72498,"lng":-6.34498},"8300B136701":{"name":"Cross Lane","lat":53.724314,"lng":-6.359389},"8300B136821":{"name":"O'Raghallaigh's GAA","lat":53.7218,"lng":-6.35967},"8300B136831":{"name":"George's Street","lat":53.7165,"lng":-6.35706},"8300B136851":{"name":"Drogheda Bus Station","lat":53.71257,"lng":-6.35209},"8300B136881":{"name":"Bryanstown Manor","lat":53.709332,"lng":-6.332053},"8300B137011":{"name":"Blackbull","lat":53.707824,"lng":-6.327038},"8300B137021":{"name":"Five Oaks","lat":53.705485,"lng":-6.323025},"8300B137041":{"name":"Termon Abbey","lat":53.72894,"lng":-6.33019},"8300B137051":{"name":"Crushrod Avenue","lat":53.72152,"lng":-6.345568},"8300B137071":{"name":"Windmill Road","lat":53.719985,"lng":-6.356966},"8300B137161":{"name":"Newfoundwell Road","lat":53.720893,"lng":-6.340687},"8300B137171":{"name":"Beaulieu Village","lat":53.730187,"lng":-6.328453},"8300B137181":{"name":"Drogheda MacBride Station","lat":53.712163,"lng":-6.337834},"8300B137201":{"name":"James Street","lat":53.713138,"lng":-6.346613},"8300B137221":{"name":"James Street","lat":53.713221,"lng":-6.348049},"8300B137231":{"name":"O'Raghallaigh's GAA","lat":53.722587,"lng":-6.361259},"8300B137251":{"name":"Blackbull","lat":53.707774,"lng":-6.327312},"8300B137311":{"name":"Bryanstown Village","lat":53.708535,"lng":-6.330963},"8300B137321":{"name":"Windmill Road","lat":53.72035,"lng":-6.35739},"8300B137341":{"name":"Bryanstown Village","lat":53.708727,"lng":-6.331213},"8300B137351":{"name":"Stameen","lat":53.704579,"lng":-6.318638},"8300B137361":{"name":"Beaulieu Village","lat":53.730124,"lng":-6.328426},"8300B137371":{"name":"Newfoundwell Road","lat":53.720865,"lng":-6.340597},"8300B138921":{"name":"Grangebellew","lat":53.816045,"lng":-6.335639},"8300B138931":{"name":"Stapleton Place","lat":53.99869,"lng":-6.405712},"8300B138941":{"name":"Louth County Hospital","lat":53.989176,"lng":-6.399213},"8300B138951":{"name":"Dundalk Institute of Technology","lat":53.983388,"lng":-6.395165},"8300B138961":{"name":"Castlebellingham","lat":53.897582,"lng":-6.389295},"8300B138971":{"name":"Dunleer","lat":53.831909,"lng":-6.395068},"8300B139001":{"name":"Grangebellew","lat":53.816106,"lng":-6.335484},"8300B139141":{"name":"George's Street","lat":53.716592,"lng":-6.35728},"8300B139151":{"name":"Melifont Park","lat":53.723916,"lng":-6.363132},"8300B139161":{"name":"Killineer","lat":53.749795,"lng":-6.38196},"8300B139171":{"name":"Silloge","lat":53.765144,"lng":-6.395219},"8300B139181":{"name":"Monasterboice","lat":53.768375,"lng":-6.398952},"8300B139191":{"name":"Mullins Cross","lat":53.857755,"lng":-6.401756},"8300B139201":{"name":"Saint Mary's Villas","lat":53.887829,"lng":-6.388484},"8300B139211":{"name":"Greengates","lat":53.957355,"lng":-6.385895},"8300B139241":{"name":"Greengates","lat":53.955981,"lng":-6.385338},"8300B139251":{"name":"Saint Oliver's Park","lat":53.889194,"lng":-6.388446},"8300B139261":{"name":"Mullins Cross","lat":53.857913,"lng":-6.401431},"8300B139291":{"name":"Tullyeskar","lat":53.757067,"lng":-6.386018},"8300B139301":{"name":"Saint Oliver's Park","lat":53.889413,"lng":-6.388636},"8300B139311":{"name":"Drogheda Institute","lat":53.72842,"lng":-6.357941},"8300B139321":{"name":"Shrewsbury Manor","lat":53.72033,"lng":-6.32835},"8300B139331":{"name":"Riverside Crescent","lat":54.013866,"lng":-6.401439},"8300B139341":{"name":"Doylesfort Road","lat":54.019363,"lng":-6.396451},"8300B139351":{"name":"Dowdallshill","lat":54.025212,"lng":-6.394619},"8300B139361":{"name":"Saint Patrick's Cemetery","lat":54.021964,"lng":-6.395405},"8300B139371":{"name":"Strandfield","lat":54.034825,"lng":-6.380681},"8300B139381":{"name":"Ballymascanlan","lat":54.032501,"lng":-6.359124},"8300B139391":{"name":"Jenkinstown","lat":54.008232,"lng":-6.292977},"8300B139401":{"name":"Annaloughan","lat":54.00224,"lng":-6.276777},"8300B139411":{"name":"Lordship","lat":53.999871,"lng":-6.26397},"8300B139421":{"name":"Mountbagnal","lat":53.997161,"lng":-6.235864},"8300B139431":{"name":"Riverstown","lat":53.994332,"lng":-6.218886},"8300B139441":{"name":"Monksland","lat":54.00484,"lng":-6.177641},"8300B139451":{"name":"Willville","lat":53.997446,"lng":-6.158379},"8300B139461":{"name":"Millgrange","lat":54.019751,"lng":-6.145443},"8300B139471":{"name":"Knocknagoran","lat":54.083895,"lng":-6.252974},"8300B139521":{"name":"Cornamucklagh","lat":54.109049,"lng":-6.286681},"8300B139531":{"name":"Omeath","lat":54.087512,"lng":-6.258203},"8300B139541":{"name":"Knocknagoran","lat":54.08403,"lng":-6.252984},"8300B139551":{"name":"Ballyonan","lat":54.074127,"lng":-6.241343},"8300B139561":{"name":"Carlingford","lat":54.040876,"lng":-6.185196},"8300B139581":{"name":"Millgrange","lat":54.019629,"lng":-6.144533},"8300B139591":{"name":"Muchgrange","lat":54.011855,"lng":-6.138134},"8300B139601":{"name":"Willville","lat":53.99743,"lng":-6.157906},"8300B139611":{"name":"Monksland","lat":54.004668,"lng":-6.177588},"8300B139621":{"name":"Galtrimsland","lat":54.00058,"lng":-6.178239},"8300B139631":{"name":"Bush School","lat":53.998893,"lng":-6.189128},"8300B139641":{"name":"Riverstown","lat":53.994181,"lng":-6.21845},"8300B139651":{"name":"Mountbagnal","lat":53.997072,"lng":-6.235913},"8300B139661":{"name":"Gyles Quay","lat":53.997154,"lng":-6.240288},"8300B139671":{"name":"Lordship","lat":53.999781,"lng":-6.263943},"8300B139681":{"name":"Bellurgan","lat":54.015217,"lng":-6.319945},"8300B139691":{"name":"Ballymascanlan","lat":54.032535,"lng":-6.359641},"8300B139701":{"name":"Strandfield","lat":54.034645,"lng":-6.380703},"8300B139711":{"name":"Doolargy","lat":54.043062,"lng":-6.331741},"8300B139721":{"name":"Dowdallshill","lat":54.023837,"lng":-6.395012},"8300B139731":{"name":"Saint Patrick's Cemetery","lat":54.021665,"lng":-6.395233},"8300B139741":{"name":"Doylesfort Road","lat":54.018948,"lng":-6.396376},"8300B139751":{"name":"Riverside Crescent","lat":54.013606,"lng":-6.401449},"8300B139801":{"name":"Flurrybridge","lat":54.099505,"lng":-6.360868},"8300B139811":{"name":"Ravensdale","lat":54.055504,"lng":-6.337902},"8300B139821":{"name":"Broughattin","lat":54.049851,"lng":-6.344374},"8300B139831":{"name":"Broughattin","lat":54.049875,"lng":-6.344159},"8300B139851":{"name":"Ballymascanlan Roundabout","lat":54.036218,"lng":-6.382466},"8300B139861":{"name":"Dunleer","lat":53.829467,"lng":-6.393946},"8300B139871":{"name":"Doolargy","lat":54.042959,"lng":-6.33147},"8300B139881":{"name":"Faughart","lat":54.044665,"lng":-6.388697},"8300B139891":{"name":"Saint Brigid's Shrine","lat":54.052905,"lng":-6.397328},"8300B139901":{"name":"Faughart Upper","lat":54.04731,"lng":-6.380226},"8300B139911":{"name":"Dundalk Clarke Station","lat":54.000108,"lng":-6.412339},"8300B139921":{"name":"Dundalk Clarke Station","lat":54.000024,"lng":-6.412113},"8300B141321":{"name":"Commons Grove","lat":53.931913,"lng":-6.406061},"8300B152311":{"name":"Ardee","lat":53.860017,"lng":-6.541233},"8300B1523401":{"name":"Collon","lat":53.778275,"lng":-6.486487},"8300B1524301":{"name":"Ardee N33","lat":53.864704,"lng":-6.541571},"8300B1524401":{"name":"Ardee","lat":53.859921,"lng":-6.541403},"8300B152461":{"name":"Ardee N33","lat":53.864728,"lng":-6.541312},"8300B189531":{"name":"Tinure","lat":53.791129,"lng":-6.417622},"8300B189541":{"name":"Tinure","lat":53.790907,"lng":-6.418248},"8300B189551":{"name":"Mullary","lat":53.799322,"lng":-6.394579},"8300B189561":{"name":"Mullary","lat":53.799252,"lng":-6.394599},"8300B554691":{"name":"Mooretown","lat":53.944513,"lng":-6.383328},"8310B0102041":{"name":"Martry","lat":53.692599,"lng":-6.781849},"8310B0102051":{"name":"Martry","lat":53.692849,"lng":-6.783859},"8310B0109481":{"name":"Bettystown","lat":53.69889,"lng":-6.24449},"8310B0132761":{"name":"Keenoge","lat":53.657665,"lng":-6.26301},"8310B0137731":{"name":"Dunville","lat":53.64489,"lng":-6.64699},"8310B0137741":{"name":"Dunville","lat":53.645,"lng":-6.6473},"8310B0189651":{"name":"Blackcastle Estate","lat":53.6642,"lng":-6.67239},"8310B0189671":{"name":"Carne Wood","lat":53.63435,"lng":-6.6545},"8310B0189681":{"name":"Johnstown","lat":53.6355,"lng":-6.64888},"8310B0189691":{"name":"Johnstown","lat":53.63546,"lng":-6.64847},"8310B0189701":{"name":"Carne Wood","lat":53.63444,"lng":-6.65327},"8310B0189711":{"name":"Belcourt","lat":53.662992,"lng":-6.674251},"8310B0189721":{"name":"Academy Street","lat":53.65,"lng":-6.68098},"8310B1001001":{"name":"Kiltale","lat":53.525463,"lng":-6.669645},"8310B1003201":{"name":"Gormanston Camp","lat":53.640879,"lng":-6.235902},"8310B1003301":{"name":"Sarsfieldstown","lat":53.65439,"lng":-6.258713},"8310B1003401":{"name":"Whitecross","lat":53.667892,"lng":-6.278814},"8310B1003601":{"name":"Painestown","lat":53.698329,"lng":-6.309422},"8310B100371":{"name":"Deepforde","lat":53.703413,"lng":-6.315625},"8310B100611":{"name":"Southgate Shopping Centre","lat":53.701265,"lng":-6.309834},"8310B100631":{"name":"Deepforde","lat":53.702969,"lng":-6.314068},"8310B1006401":{"name":"Painestown","lat":53.697463,"lng":-6.308593},"8310B100651":{"name":"Julianstown","lat":53.672533,"lng":-6.2853},"8310B1006601":{"name":"Whitecross","lat":53.667077,"lng":-6.277107},"8310B1006701":{"name":"Keenoge","lat":53.657086,"lng":-6.261854},"8310B1006801":{"name":"Sarsfieldstown","lat":53.653783,"lng":-6.257815},"8310B1006901":{"name":"Gormanston Camp","lat":53.640885,"lng":-6.235085},"8310B1007001":{"name":"Gormanston East","lat":53.635855,"lng":-6.221276},"8310B1009601":{"name":"Alderbrook","lat":53.504902,"lng":-6.391921},"8310B100971":{"name":"Ballybin Road","lat":53.52118,"lng":-6.41133},"8310B1009801":{"name":"Tudor Grove","lat":53.51375,"lng":-6.40194},"8310B1009901":{"name":"Johnswood Court","lat":53.51631,"lng":-6.40627},"8310B1010001":{"name":"Rath","lat":53.52504,"lng":-6.41515},"8310B1010101":{"name":"Bullstown","lat":53.483069,"lng":-6.372541},"8310B101031":{"name":"Cushinstown","lat":53.573234,"lng":-6.446935},"8310B1010401":{"name":"Johnswood Court","lat":53.51668,"lng":-6.40641},"8310B1010501":{"name":"Tudor Grove","lat":53.513489,"lng":-6.400945},"8310B101061":{"name":"Ninemile Stone","lat":53.49726,"lng":-6.385126},"8310B1010801":{"name":"Newtown Commons","lat":53.468552,"lng":-6.359314},"8310B1011701":{"name":"Piercetown","lat":53.450396,"lng":-6.47667},"8310B1011801":{"name":"Ballybin","lat":53.515878,"lng":-6.418392},"8310B1011901":{"name":"Jamestown","lat":53.504497,"lng":-6.451786},"8310B1012001":{"name":"Steeplechase Hill","lat":53.508746,"lng":-6.469814},"8310B1012101":{"name":"Steeplechase Hill","lat":53.50907,"lng":-6.471898},"8310B1012201":{"name":"Bourne Avenue","lat":53.508668,"lng":-6.39594},"8310B1012301":{"name":"Jamestown","lat":53.504495,"lng":-6.450987},"8310B1012401":{"name":"Ballybin","lat":53.515935,"lng":-6.418616},"8310B1012901":{"name":"Piercetown","lat":53.45533,"lng":-6.482291},"8310B1013001":{"name":"Rathbeggan","lat":53.46794,"lng":-6.492927},"8310B1013101":{"name":"Growtown","lat":53.478212,"lng":-6.505083},"8310B1013201":{"name":"Raynestown","lat":53.483453,"lng":-6.515235},"8310B1013301":{"name":"Ballymurphy","lat":53.495409,"lng":-6.527779},"8310B1013401":{"name":"Seachnall Abbey","lat":53.505776,"lng":-6.539888},"8310B1013501":{"name":"Lismullin","lat":53.588609,"lng":-6.595792},"8310B1013601":{"name":"Garlow Cross","lat":53.603167,"lng":-6.619577},"8310B101371":{"name":"Johnstown Centre","lat":53.642898,"lng":-6.659796},"8310B1013801":{"name":"Blackwater Retail Park","lat":53.655345,"lng":-6.703819},"8310B1013901":{"name":"Liscartan","lat":53.672672,"lng":-6.74002},"8310B1014101":{"name":"Fairyhouse","lat":53.485032,"lng":-6.473666},"8310B1014201":{"name":"Kells Business Park","lat":53.736489,"lng":-6.901754},"8310B1014301":{"name":"Carnaross","lat":53.750581,"lng":-6.955062},"8310B1014401":{"name":"Riverside","lat":53.75387,"lng":-6.963366},"8310B101481":{"name":"Ballybin Road","lat":53.5215,"lng":-6.41138},"8310B1016601":{"name":"Bullstown","lat":53.482617,"lng":-6.372362},"8310B1017001":{"name":"Riverside","lat":53.75405,"lng":-6.963362},"8310B1017101":{"name":"Carnaross","lat":53.750993,"lng":-6.955856},"8310B1017201":{"name":"Kells Business Park","lat":53.735897,"lng":-6.899814},"8310B1017301":{"name":"Eureka School","lat":53.730614,"lng":-6.884403},"8310B1017401":{"name":"Kilmainham","lat":53.714995,"lng":-6.827974},"8310B1017501":{"name":"Hurdlestown","lat":53.707775,"lng":-6.799516},"8310B1017601":{"name":"Tankardstown","lat":53.686455,"lng":-6.768223},"8310B1017701":{"name":"Liscartan","lat":53.672318,"lng":-6.73888},"8310B1017801":{"name":"Blackwater Retail Park","lat":53.654802,"lng":-6.701007},"8310B1017901":{"name":"Dalgan Park","lat":53.608918,"lng":-6.627338},"8310B1018001":{"name":"Ardboyne Hotel","lat":53.641969,"lng":-6.67076},"8310B1018101":{"name":"Kilcarn","lat":53.631873,"lng":-6.663245},"8310B1018201":{"name":"Garlow Cross","lat":53.603016,"lng":-6.619023},"8310B1018301":{"name":"Tara","lat":53.592742,"lng":-6.60333},"8310B1018401":{"name":"Lismullin","lat":53.58953,"lng":-6.59691},"8310B1018501":{"name":"Bourne Avenue","lat":53.508673,"lng":-6.395668},"8310B1018601":{"name":"Ross Cross","lat":53.567119,"lng":-6.579671},"8310B1018701":{"name":"Seachnall Abbey","lat":53.50582,"lng":-6.539781},"8310B1018801":{"name":"Ballymurphy","lat":53.495962,"lng":-6.528212},"8310B1018901":{"name":"Raynestown","lat":53.4833,"lng":-6.514502},"8310B1019001":{"name":"Growtown","lat":53.478373,"lng":-6.505032},"8310B1019101":{"name":"Rathbeggan","lat":53.467272,"lng":-6.491972},"8310B1019201":{"name":"Bracetown","lat":53.429973,"lng":-6.46029},"8310B101981":{"name":"The Old Mill","lat":53.501944,"lng":-6.467104},"8310B101991":{"name":"Killester","lat":53.469845,"lng":-6.471003},"8310B102001":{"name":"Killester","lat":53.470328,"lng":-6.47085},"8310B1029301":{"name":"Rathregan Court","lat":53.471086,"lng":-6.539301},"8310B1029401":{"name":"Batterjohn","lat":53.521675,"lng":-6.651546},"8310B1029701":{"name":"Friars Park","lat":53.553074,"lng":-6.774968},"8310B1029801":{"name":"Tower View","lat":53.562181,"lng":-6.788441},"8310B1029901":{"name":"Whitehall","lat":53.562418,"lng":-6.795046},"8310B1030201":{"name":"Athboy","lat":53.62174,"lng":-6.921001},"8310B1030301":{"name":"Whitehall","lat":53.562994,"lng":-6.796872},"8310B1030401":{"name":"Tower View","lat":53.562287,"lng":-6.788257},"8310B1030501":{"name":"Lackanash","lat":53.556577,"lng":-6.781779},"8310B1030601":{"name":"Trim Ring Road","lat":53.553145,"lng":-6.785379},"8310B1030701":{"name":"Victorine Abbey","lat":53.55405,"lng":-6.764963},"8310B1030801":{"name":"Scurlockstown","lat":53.548981,"lng":-6.744271},"8310B1030901":{"name":"Kiltale","lat":53.525609,"lng":-6.669821},"8310B1031001":{"name":"Batterjohn","lat":53.521345,"lng":-6.64943},"8310B1031101":{"name":"Rathregan Court","lat":53.471368,"lng":-6.539548},"8310B1031201":{"name":"Batterstown","lat":53.469292,"lng":-6.536652},"8310B1031301":{"name":"Kildalkey","lat":53.570838,"lng":-6.905281},"8310B103141":{"name":"Kildalkey","lat":53.571028,"lng":-6.906394},"8310B1031501":{"name":"Trim Centre","lat":53.554855,"lng":-6.79102},"8310B103241":{"name":"Clonard","lat":53.451051,"lng":-7.020453},"8310B103351":{"name":"Clonard","lat":53.451184,"lng":-7.020315},"8310B103381":{"name":"Enfield","lat":53.414068,"lng":-6.827825},"8310B103411":{"name":"Lackanash","lat":53.557026,"lng":-6.782065},"8310B103511":{"name":"Enfield Station","lat":53.41533,"lng":-6.83528},"8310B103521":{"name":"Enfield Station","lat":53.41484,"lng":-6.8339},"8310B1036901":{"name":"Ballivor","lat":53.532955,"lng":-6.963475},"8310B1037001":{"name":"Rathmolyon","lat":53.488065,"lng":-6.804704},"8310B1037101":{"name":"Summerhill","lat":53.482202,"lng":-6.734537},"8310B1045201":{"name":"Tara","lat":53.592506,"lng":-6.603186},"8310B104631":{"name":"The Willows","lat":53.502598,"lng":-6.535776},"8310B1046501":{"name":"Dunshaughlin","lat":53.512453,"lng":-6.53947},"8310B1050201":{"name":"Ratoath East","lat":53.507365,"lng":-6.46026},"8310B1055701":{"name":"Elm Grove","lat":53.480371,"lng":-6.730584},"8310B1055801":{"name":"Navan R147","lat":53.655567,"lng":-6.68711},"8310B105591":{"name":"Grange Hall","lat":53.517774,"lng":-6.545733},"8310B1056001":{"name":"Dunshaughlin","lat":53.512899,"lng":-6.538783},"8310B106521":{"name":"Hickey's Lane","lat":53.49981,"lng":-6.387576},"8310B106531":{"name":"Hickey's Lane","lat":53.499779,"lng":-6.387276},"8310B1072401":{"name":"Drakestown","lat":53.767815,"lng":-6.725326},"8310B1087001":{"name":"Bettystown","lat":53.698388,"lng":-6.24422},"8310B1087101":{"name":"Laytown Station","lat":53.678295,"lng":-6.240136},"8310B1089801":{"name":"Flemington","lat":53.640557,"lng":-6.498138},"8310B109131":{"name":"Slane","lat":53.708893,"lng":-6.545164},"8310B1093301":{"name":"Laytown Station","lat":53.678566,"lng":-6.240261},"8310B1093401":{"name":"Bettystown","lat":53.69839,"lng":-6.24493},"8310B109881":{"name":"Metges Place","lat":53.647471,"lng":-6.654826},"8310B109891":{"name":"Metges Place","lat":53.647176,"lng":-6.654956},"8310B111021":{"name":"Navan Centre","lat":53.65392,"lng":-6.6864},"8310B111031":{"name":"Our Lady's Hospital","lat":53.651248,"lng":-6.697349},"8310B111081":{"name":"Our Lady's Hospital","lat":53.651293,"lng":-6.695684},"8310B111351":{"name":"Laytown Village","lat":53.681867,"lng":-6.237989},"8310B111361":{"name":"Inse Bay","lat":53.685085,"lng":-6.241079},"8310B111371":{"name":"Sacred Heart Church","lat":53.68866,"lng":-6.242142},"8310B111381":{"name":"Brookside","lat":53.695668,"lng":-6.243198},"8310B111401":{"name":"Triton Road","lat":53.697542,"lng":-6.248405},"8310B111411":{"name":"Eastham Road","lat":53.70159,"lng":-6.256037},"8310B111441":{"name":"Donacarney","lat":53.711045,"lng":-6.276583},"8310B111451":{"name":"Coney Hall","lat":53.718449,"lng":-6.256522},"8310B111471":{"name":"Tower Cross","lat":53.722559,"lng":-6.259852},"8310B111521":{"name":"Coney Hall","lat":53.718283,"lng":-6.256847},"8310B111531":{"name":"Donacarney","lat":53.710863,"lng":-6.27703},"8310B111541":{"name":"Eastham Road","lat":53.701649,"lng":-6.255777},"8310B111551":{"name":"Triton Road","lat":53.697547,"lng":-6.248783},"8310B111561":{"name":"Brookside","lat":53.695378,"lng":-6.243043},"8310B111571":{"name":"Sacred Heart Church","lat":53.688449,"lng":-6.241833},"8310B111581":{"name":"Inse Bay","lat":53.685162,"lng":-6.240804},"8310B111591":{"name":"Laytown Village","lat":53.68171,"lng":-6.237708},"8310B111691":{"name":"Flemington","lat":53.640665,"lng":-6.498179},"8310B111791":{"name":"Golf Links Road","lat":53.714309,"lng":-6.250908},"8310B111801":{"name":"Golf Links Road","lat":53.713606,"lng":-6.250605},"8310B1235401":{"name":"Harlockstown","lat":53.496831,"lng":-6.404061},"8310B123551":{"name":"Harlockstown","lat":53.496674,"lng":-6.402371},"8310B126111":{"name":"Drogheda Retail Park","lat":53.702525,"lng":-6.380215},"8310B126171":{"name":"Tesco Drogheda","lat":53.701463,"lng":-6.372834},"8310B131071":{"name":"Oldcastle","lat":53.769256,"lng":-7.162279},"8310B131161":{"name":"Crossakiel","lat":53.714757,"lng":-7.02037},"8310B131181":{"name":"Crossakiel","lat":53.714657,"lng":-7.02057},"8310B1317301":{"name":"Nobber","lat":53.821283,"lng":-6.747108},"8310B132031":{"name":"Ballivor","lat":53.532902,"lng":-6.963552},"8310B1320901":{"name":"Kilmainham","lat":53.716525,"lng":-6.83187},"8310B1321201":{"name":"Wilkinstown","lat":53.734812,"lng":-6.711607},"8310B1321501":{"name":"Hurdlestown","lat":53.708102,"lng":-6.800703},"8310B1321901":{"name":"Kilberry","lat":53.70687,"lng":-6.68625},"8310B1323401":{"name":"Tankardstown","lat":53.686138,"lng":-6.768005},"8310B1324101":{"name":"Scallanstown","lat":53.682062,"lng":-6.759707},"8310B132541":{"name":"Rathmolyon","lat":53.487987,"lng":-6.804948},"8310B1325501":{"name":"Scurlockstown","lat":53.548476,"lng":-6.743214},"8310B1326201":{"name":"Julianstown","lat":53.674205,"lng":-6.286549},"8310B1326301":{"name":"Kentstown","lat":53.628035,"lng":-6.532041},"8310B1328301":{"name":"Duleek","lat":53.655482,"lng":-6.416005},"8310B1328302":{"name":"Duleek","lat":53.65513,"lng":-6.416752},"8310B1328401":{"name":"Gormanston East","lat":53.638208,"lng":-6.226667},"8310B1329001":{"name":"Dalgan Park","lat":53.609205,"lng":-6.628054},"8310B1329201":{"name":"Balrath Cross","lat":53.622937,"lng":-6.487848},"8310B133151":{"name":"Grange Hall","lat":53.516771,"lng":-6.544561},"8310B1331701":{"name":"Ross Cross","lat":53.566328,"lng":-6.579697},"8310B1332301":{"name":"Enfield","lat":53.413984,"lng":-6.828444},"8310B1332801":{"name":"Cushinstown","lat":53.572128,"lng":-6.448969},"8310B133301":{"name":"Pelletstown","lat":53.489065,"lng":-6.575348},"8310B1333101":{"name":"Pelletstown","lat":53.488985,"lng":-6.575457},"8310B133331":{"name":"Batterstown","lat":53.469112,"lng":-6.536598},"8310B133371":{"name":"The Willows","lat":53.5023,"lng":-6.5356},"8310B1333801":{"name":"Dunshaughlin","lat":53.513391,"lng":-6.540124},"8310B133601":{"name":"Woodlands","lat":53.505746,"lng":-6.46799},"8310B133611":{"name":"Steeplechase Green","lat":53.511666,"lng":-6.471805},"8310B133621":{"name":"Steeplechase Green","lat":53.511765,"lng":-6.471831},"8310B133631":{"name":"Ashbourne","lat":53.51125,"lng":-6.39738},"8310B1339001":{"name":"Piercetown","lat":53.45581,"lng":-6.476235},"8310B133941":{"name":"Ninemile Stone","lat":53.497318,"lng":-6.385395},"8310B1340701":{"name":"Newtown Commons","lat":53.468283,"lng":-6.359309},"8310B1340901":{"name":"Bracetown","lat":53.430077,"lng":-6.460693},"8310B134111":{"name":"MSD Dunboyne","lat":53.44906,"lng":-6.47565},"8310B134121":{"name":"MSD Dunboyne","lat":53.44825,"lng":-6.47445},"8310B134261":{"name":"Ratoath East","lat":53.507577,"lng":-6.460674},"8310B134271":{"name":"Woodlands","lat":53.506708,"lng":-6.469061},"8310B134401":{"name":"Warrenstown","lat":53.511863,"lng":-6.618747},"8310B134411":{"name":"Warrenstown","lat":53.511888,"lng":-6.618565},"8310B134621":{"name":"Kentstown","lat":53.627803,"lng":-6.532125},"8310B134631":{"name":"Skryne Road","lat":53.511245,"lng":-6.464899},"8310B134651":{"name":"Skryne Road","lat":53.511298,"lng":-6.464822},"8310B134661":{"name":"The Old Mill","lat":53.500863,"lng":-6.467611},"8310B1347001":{"name":"Fairyhouse","lat":53.484549,"lng":-6.473718},"8310B135231":{"name":"Kells","lat":53.726709,"lng":-6.874307},"8310B1352401":{"name":"Kells West","lat":53.729386,"lng":-6.881049},"8310B1353901":{"name":"Kells","lat":53.726771,"lng":-6.873291},"8310B1355001":{"name":"Dunsany","lat":53.541776,"lng":-6.621334},"8310B1355101":{"name":"Swainstown","lat":53.555352,"lng":-6.646958},"8310B1356601":{"name":"Navan Centre","lat":53.654055,"lng":-6.686113},"8310B1356801":{"name":"Johnstown Centre","lat":53.643461,"lng":-6.65946},"8310B1357101":{"name":"Kilcarn","lat":53.635071,"lng":-6.665518},"8310B1357301":{"name":"Rath","lat":53.524516,"lng":-6.414405},"8310B1358101":{"name":"Trim Ring Road","lat":53.55312,"lng":-6.785636},"8310B1358901":{"name":"Athboy","lat":53.621899,"lng":-6.920679},"8310B1359201":{"name":"Friars Park","lat":53.552942,"lng":-6.775183},"8310B136161":{"name":"Trim Retail Park","lat":53.561619,"lng":-6.767807},"8310B136541":{"name":"Scallanstown","lat":53.681619,"lng":-6.758554},"8310B136571":{"name":"Boyne View","lat":53.639591,"lng":-6.658222},"8310B136581":{"name":"Boyne View","lat":53.639326,"lng":-6.657837},"8310B1365901":{"name":"B\u00f3thar Sion","lat":53.644095,"lng":-6.663161},"8310B136611":{"name":"B\u00f3thar Sion","lat":53.644145,"lng":-6.663568},"8310B136621":{"name":"Limekilnhill","lat":53.643986,"lng":-6.672769},"8310B136631":{"name":"Limekilnhill","lat":53.64334,"lng":-6.672048},"8310B1367201":{"name":"Walterstown","lat":53.536634,"lng":-6.708897},"8310B1367501":{"name":"Cooljohn","lat":53.568607,"lng":-6.686348},"8310B1367601":{"name":"Bective","lat":53.580091,"lng":-6.697681},"8310B1367701":{"name":"Bective North","lat":53.586017,"lng":-6.710458},"8310B1369601":{"name":"Ardboyne Hotel","lat":53.641218,"lng":-6.670315},"8310B1369801":{"name":"Ratoath Village","lat":53.507208,"lng":-6.464789},"8310B1370901":{"name":"Ashbourne Community College","lat":53.503652,"lng":-6.390596},"8310B1372401":{"name":"Emerald Park","lat":53.54567,"lng":-6.45831},"8310B137261":{"name":"Bective Abbey","lat":53.582685,"lng":-6.704805},"8310B137271":{"name":"Bective Abbey","lat":53.582668,"lng":-6.704851},"8310B137281":{"name":"Kilmessan","lat":53.559275,"lng":-6.660116},"8310B137291":{"name":"Kilmessan","lat":53.55926,"lng":-6.660328},"8310B137301":{"name":"Victorine Abbey","lat":53.553971,"lng":-6.765015},"8310B137471":{"name":"Dunsany","lat":53.541783,"lng":-6.621168},"8310B137481":{"name":"Swainstown","lat":53.555324,"lng":-6.646793},"8310B137571":{"name":"Walterstown","lat":53.536595,"lng":-6.708702},"8310B137601":{"name":"Cooljohn","lat":53.568449,"lng":-6.685825},"8310B137611":{"name":"Bective North","lat":53.585893,"lng":-6.710552},"8310B1378101":{"name":"Proudstown Road","lat":53.660358,"lng":-6.679774},"8310B1378201":{"name":"Drakestown","lat":53.767762,"lng":-6.725464},"8310B1378501":{"name":"Kentstown","lat":53.627585,"lng":-6.534159},"8310B1378801":{"name":"Nobber","lat":53.821391,"lng":-6.747181},"8310B1378901":{"name":"Castletown","lat":53.78067,"lng":-6.714754},"8310B1379001":{"name":"Wilkinstown","lat":53.73462,"lng":-6.71137},"8310B1379101":{"name":"Kilberry","lat":53.705301,"lng":-6.684608},"8310B1379201":{"name":"Proudstown Road","lat":53.660545,"lng":-6.679617},"8310B1379301":{"name":"Kentstown","lat":53.627597,"lng":-6.533689},"8310B1379401":{"name":"Balrath Cross","lat":53.622725,"lng":-6.487402},"8310B138461":{"name":"Abbey Road","lat":53.654438,"lng":-6.68412},"8310B138991":{"name":"Mill Race","lat":53.657993,"lng":-6.410489},"8310B139111":{"name":"Bective","lat":53.579991,"lng":-6.697563},"8310B139121":{"name":"Blackcastle Demesne","lat":53.66194,"lng":-6.67369},"8310B139131":{"name":"Mill Race","lat":53.657927,"lng":-6.41096},"8310B141011":{"name":"Carlanstown","lat":53.758857,"lng":-6.841585},"8310B141021":{"name":"Carlanstown","lat":53.758856,"lng":-6.841479},"8310B141031":{"name":"Eureka School","lat":53.730921,"lng":-6.885607},"8310B1503501":{"name":"Tower Cross","lat":53.722161,"lng":-6.257201},"8310B1523701":{"name":"Slane","lat":53.708961,"lng":-6.544889},"8310B1524201":{"name":"Ashbourne","lat":53.51129,"lng":-6.39774},"8310B1553001":{"name":"Castletown","lat":53.780775,"lng":-6.714493},"8310B189001":{"name":"Gainstown","lat":53.623351,"lng":-6.706312},"8310B189011":{"name":"Reask Court","lat":53.640597,"lng":-6.703031},"8310B189021":{"name":"Reask Court","lat":53.641013,"lng":-6.702383},"8310B189031":{"name":"Claremont Stadium","lat":53.642007,"lng":-6.701204},"8310B189041":{"name":"Claremont Stadium","lat":53.64222,"lng":-6.700955},"8310B189051":{"name":"Watters Lane","lat":53.644976,"lng":-6.699857},"8310B189061":{"name":"Watters Lane","lat":53.645135,"lng":-6.69964},"8310B189071":{"name":"Elm View","lat":53.646795,"lng":-6.699393},"8310B189081":{"name":"Elm View","lat":53.64705,"lng":-6.699748},"8310B189091":{"name":"Clogherboy","lat":53.648371,"lng":-6.701371},"8310B189101":{"name":"Clogherboy","lat":53.64856,"lng":-6.701411},"8310B189111":{"name":"Beaufort House","lat":53.651298,"lng":-6.701069},"8310B189121":{"name":"Beaufort House","lat":53.651227,"lng":-6.700376},"8310B189131":{"name":"Brews Hill","lat":53.651586,"lng":-6.690411},"8310B189151":{"name":"Navan R147","lat":53.65541,"lng":-6.686707},"8310B189161":{"name":"Blackwater Drive","lat":53.658873,"lng":-6.686175},"8310B189171":{"name":"Blackwater Drive","lat":53.659204,"lng":-6.686846},"8310B189181":{"name":"Rathaldron Court","lat":53.661706,"lng":-6.691247},"8310B189191":{"name":"Rathaldron Court","lat":53.661891,"lng":-6.691725},"8310B189201":{"name":"Leisure Link","lat":53.665296,"lng":-6.695127},"8310B189211":{"name":"Leisure Link","lat":53.666601,"lng":-6.692624},"8310B189221":{"name":"Clonmagadden Fort","lat":53.667369,"lng":-6.690557},"8310B189231":{"name":"Clonmagadden Fort","lat":53.6675,"lng":-6.69019},"8310B189241":{"name":"Tara Court","lat":53.667909,"lng":-6.687362},"8310B189251":{"name":"Tara Court","lat":53.667982,"lng":-6.685771},"8310B189261":{"name":"The Paddocks","lat":53.668182,"lng":-6.683586},"8310B189271":{"name":"The Paddocks","lat":53.668136,"lng":-6.683481},"8310B189281":{"name":"Russell Court","lat":53.664271,"lng":-6.680182},"8310B189291":{"name":"Russell Court","lat":53.664037,"lng":-6.680098},"8310B189301":{"name":"Aisling Place","lat":53.663782,"lng":-6.676596},"8310B189311":{"name":"Aisling Place","lat":53.663817,"lng":-6.676489},"8310B189321":{"name":"Ballybatter","lat":53.62905,"lng":-6.689083},"8310B189331":{"name":"Ballybatter","lat":53.630618,"lng":-6.688641},"8310B189341":{"name":"Balreask Manor","lat":53.635869,"lng":-6.688115},"8310B189351":{"name":"Balreask Manor","lat":53.636572,"lng":-6.68826},"8310B189361":{"name":"Canterbrook","lat":53.638164,"lng":-6.688392},"8310B189371":{"name":"Canterbrook","lat":53.638875,"lng":-6.688521},"8310B189381":{"name":"Balreask Village","lat":53.640745,"lng":-6.688538},"8310B189391":{"name":"Balreask Village","lat":53.641303,"lng":-6.688642},"8310B189401":{"name":"Dan Shaw Road","lat":53.645464,"lng":-6.691871},"8310B189411":{"name":"Dan Shaw Road","lat":53.645198,"lng":-6.691441},"8310B189421":{"name":"Ramparts Walk","lat":53.653213,"lng":-6.678939},"8310B189431":{"name":"Ramparts Walk","lat":53.653261,"lng":-6.678408},"8310B189441":{"name":"The Orchard","lat":53.651112,"lng":-6.668597},"8310B189451":{"name":"The Orchard","lat":53.651038,"lng":-6.667616},"8310B189461":{"name":"Athlumney Village","lat":53.650779,"lng":-6.666172},"8310B189471":{"name":"Athlumney Village","lat":53.650782,"lng":-6.665642},"8310B189481":{"name":"Bailis","lat":53.649606,"lng":-6.659326},"8310B189491":{"name":"Bailis","lat":53.649379,"lng":-6.658274},"8310B189501":{"name":"Cois Glais\u00edn","lat":53.636252,"lng":-6.657829},"8310B189511":{"name":"Cois Glais\u00edn","lat":53.635964,"lng":-6.657778},"8310B189521":{"name":"Navan","lat":53.6534,"lng":-6.68721},"8310B189571":{"name":"Navan","lat":53.65329,"lng":-6.6877},"8310B189581":{"name":"Saint Oliver's School","lat":53.662871,"lng":-6.679514},"8310B189591":{"name":"Saint Oliver's School","lat":53.662977,"lng":-6.67936},"8310B189601":{"name":"Navan Park and Ride","lat":53.65321,"lng":-6.699863},"8310B189631":{"name":"Beaufort College","lat":53.6455,"lng":-6.686889},"8310B189641":{"name":"Beaufort College","lat":53.64475,"lng":-6.687028},"8310B353101":{"name":"Summerhill","lat":53.481075,"lng":-6.732476},"8310B5620101":{"name":"Blackcastle","lat":53.66234,"lng":-6.67323},"8310B680001":{"name":"Tobair B\u00e1n","lat":53.728144,"lng":-6.889205},"8310B680011":{"name":"Drumbaragh","lat":53.725976,"lng":-6.940748},"8310B680021":{"name":"Crossakiel North","lat":53.724497,"lng":-7.014288},"8310B680031":{"name":"Ballinlough","lat":53.735195,"lng":-7.033652},"8310B680121":{"name":"Ballinlough","lat":53.735001,"lng":-7.033057},"8310B680131":{"name":"Crossakiel North","lat":53.724287,"lng":-7.014307},"8310B680141":{"name":"Drumbaragh","lat":53.726158,"lng":-6.939554},"8310B680151":{"name":"Tobair B\u00e1n","lat":53.728181,"lng":-6.888706},"8310B680161":{"name":"Kells West","lat":53.728908,"lng":-6.882491},"8310DB003328":{"name":"Clonee Village","lat":53.410481,"lng":-6.442477},"8310DB003331":{"name":"Dunboyne Station","lat":53.415955,"lng":-6.460977},"8310DB003332":{"name":"Dunboyne NS","lat":53.418379,"lng":-6.47291},"8310DB003334":{"name":"Dunboyne NS","lat":53.418055,"lng":-6.471478},"8310DB003335":{"name":"Mill View","lat":53.416025,"lng":-6.459696},"8310DB003338":{"name":"Clonee Village","lat":53.410601,"lng":-6.442067},"8310LL12502":{"name":"Kilmainhamwood","lat":53.84899,"lng":-6.80624},"8310LL12503":{"name":"Kilmainhamwood","lat":53.84872,"lng":-6.80604},"8310LL189611":{"name":"Railway Street","lat":53.649306,"lng":-6.685972},"8310LL189621":{"name":"Railway Street","lat":53.649604,"lng":-6.686203},"8320B102921":{"name":"Tullamore","lat":53.27715,"lng":-7.49159},"8320B104531":{"name":"Tullamore","lat":53.276842,"lng":-7.491639},"8320B1521001":{"name":"Birr","lat":53.09611,"lng":-7.9108},"8320B1521801":{"name":"Birr","lat":53.09609,"lng":-7.91048},"8320B24773":{"name":"Tubber","lat":53.37689,"lng":-7.66081},"8320B247741":{"name":"Tubber","lat":53.37668,"lng":-7.66087},"8320B350541":{"name":"Killeigh","lat":53.214091,"lng":-7.450581},"8320B350542":{"name":"Killeigh","lat":53.214145,"lng":-7.450445},"8320B358421":{"name":"Ferbane","lat":53.27275,"lng":-7.82796},"8320B3584301":{"name":"Cloghan","lat":53.22403,"lng":-7.88445},"8320B3584401":{"name":"Ferbane","lat":53.27281,"lng":-7.82815},"8320B358451":{"name":"Cloghan","lat":53.22377,"lng":-7.88454},"8320B359831":{"name":"Clara","lat":53.34414,"lng":-7.614732},"8320B3598401":{"name":"Clara","lat":53.344257,"lng":-7.615176},"8330B1032601":{"name":"Heathstown","lat":53.490234,"lng":-7.201633},"8330B1032701":{"name":"Ardmore Road","lat":53.523037,"lng":-7.310005},"8330B1032801":{"name":"The Manor","lat":53.524551,"lng":-7.317054},"8330B1032901":{"name":"Prospect","lat":53.525749,"lng":-7.330156},"8330B1033001":{"name":"Prospect","lat":53.525828,"lng":-7.329913},"8330B1033101":{"name":"The Manor","lat":53.524806,"lng":-7.317608},"8330B1033201":{"name":"Ardmore Road","lat":53.522795,"lng":-7.308501},"8330B1033301":{"name":"Heathstown","lat":53.490259,"lng":-7.201346},"8330B1033401":{"name":"Coralstown","lat":53.481101,"lng":-7.170904},"8330B1036701":{"name":"Killucan","lat":53.513862,"lng":-7.142809},"8330B1036801":{"name":"Raharney","lat":53.52404,"lng":-7.09279},"8330B104431":{"name":"Rathowen","lat":53.655764,"lng":-7.520146},"8330B104441":{"name":"Ballinalack","lat":53.628278,"lng":-7.469812},"8330B104471":{"name":"Saint Mary's Hospital","lat":53.535527,"lng":-7.349729},"8330B1049701":{"name":"Coole","lat":53.698737,"lng":-7.372116},"8330B1049801":{"name":"Castlepollard","lat":53.679557,"lng":-7.298837},"8330B1049901":{"name":"Delvin","lat":53.611764,"lng":-7.093192},"8330B105161":{"name":"Collinstown","lat":53.647532,"lng":-7.212671},"8330B105171":{"name":"Collinstown","lat":53.64763,"lng":-7.212533},"8330B111731":{"name":"Clonmellon","lat":53.663853,"lng":-7.017099},"8330B111741":{"name":"Clonmellon","lat":53.663941,"lng":-7.01687},"8330B1312201":{"name":"Rathowen","lat":53.655565,"lng":-7.51974},"8330B1312701":{"name":"Ballinalack","lat":53.628206,"lng":-7.469738},"8330B1315201":{"name":"Coole","lat":53.6987,"lng":-7.372071},"8330B1316101":{"name":"Castlepollard","lat":53.679961,"lng":-7.298846},"8330B1317701":{"name":"Delvin","lat":53.611805,"lng":-7.092693},"8330B1317901":{"name":"Killucan","lat":53.513358,"lng":-7.14401},"8330B1319301":{"name":"Raharney","lat":53.523888,"lng":-7.092959},"8330B1322701":{"name":"Coralstown","lat":53.481691,"lng":-7.173047},"8330B1354401":{"name":"Kinnegad","lat":53.454618,"lng":-7.100323},"8330B1354501":{"name":"Kinnegad","lat":53.454632,"lng":-7.101015},"8330B1357501":{"name":"Austin Friars Street","lat":53.526,"lng":-7.33762},"8330B1357601":{"name":"Mullingar Castle Street","lat":53.526514,"lng":-7.340038},"8330B1357801":{"name":"Mullingar Station","lat":53.52299,"lng":-7.346321},"8330B1387901":{"name":"Saint Mary's Hospital","lat":53.53486,"lng":-7.35047},"8330B150641":{"name":"Tyrrellspass","lat":53.38751,"lng":-7.37872},"8330B150651":{"name":"Kilbeggan","lat":53.368114,"lng":-7.497841},"8330B150661":{"name":"Horseleap","lat":53.392522,"lng":-7.581491},"8330B150671":{"name":"Moate","lat":53.39528,"lng":-7.71976},"8330B152171":{"name":"Tyrrellspass","lat":53.38743,"lng":-7.37855},"8330B1523201":{"name":"Horseleap","lat":53.392477,"lng":-7.581521},"8330B1554301":{"name":"Moate","lat":53.39519,"lng":-7.71991},"8330B1554401":{"name":"Kilbeggan","lat":53.368107,"lng":-7.498186},"8330B1581701":{"name":"Ballinahowen","lat":53.34972,"lng":-7.84791},"8330B358411":{"name":"Ballinahowen","lat":53.349577,"lng":-7.847477},"8330B455461":{"name":"Bellough","lat":53.42406,"lng":-7.96818},"8330B455471":{"name":"Battery Road","lat":53.422614,"lng":-7.949886},"8330B455481":{"name":"Connaught Street","lat":53.421893,"lng":-7.946577},"8330B455491":{"name":"Northgate Street","lat":53.42542,"lng":-7.94101},"8330B455501":{"name":"Gleeson Street","lat":53.424997,"lng":-7.934657},"8330B455511":{"name":"MacDiarmada Road","lat":53.42091,"lng":-7.93043},"8330B455521":{"name":"Lower Road","lat":53.423375,"lng":-7.927859},"8330B455531":{"name":"Bower School","lat":53.423066,"lng":-7.922172},"8330B455541":{"name":"Retreat Park","lat":53.422173,"lng":-7.917781},"8330B455551":{"name":"Cartrontroy","lat":53.421834,"lng":-7.908123},"8330B455561":{"name":"Cypress Gardens","lat":53.421531,"lng":-7.900782},"8330B455581":{"name":"Athlone Business Park","lat":53.41402,"lng":-7.89671},"8330B455591":{"name":"TUS East Campus","lat":53.41569,"lng":-7.89991},"8330B455601":{"name":"Kilmartin Centre","lat":53.41191,"lng":-7.89383},"8330B455611":{"name":"Athlone Business Park","lat":53.41401,"lng":-7.89706},"8330B455621":{"name":"Cypress Gardens","lat":53.421469,"lng":-7.900932},"8330B455631":{"name":"Cartrontroy","lat":53.421699,"lng":-7.908364},"8330B455641":{"name":"Retreat Park","lat":53.422074,"lng":-7.917736},"8330B455651":{"name":"Bower School","lat":53.422922,"lng":-7.921751},"8330B455661":{"name":"Lower Road","lat":53.423169,"lng":-7.928055},"8330B455671":{"name":"MacDiarmada Road","lat":53.421049,"lng":-7.930224},"8330B455681":{"name":"Gleeson Street","lat":53.425042,"lng":-7.934867},"8330B455691":{"name":"Athlone Station","lat":53.42685,"lng":-7.93635},"8330B455701":{"name":"Northgate Street","lat":53.42466,"lng":-7.94042},"8330B455711":{"name":"Battery Road","lat":53.42256,"lng":-7.950337},"8330B455721":{"name":"Annesfield Woods","lat":53.42436,"lng":-7.96213},"8330B455731":{"name":"Bellough","lat":53.42422,"lng":-7.96717},"8330B455791":{"name":"Iona Park","lat":53.42651,"lng":-7.9516},"8330B455801":{"name":"Luan Gallery","lat":53.42426,"lng":-7.94355},"8330B455811":{"name":"Grace Park Road","lat":53.424725,"lng":-7.930309},"8330B455821":{"name":"Sarsfield Square","lat":53.427512,"lng":-7.932411},"8330B455831":{"name":"Regional Sports Centre","lat":53.42915,"lng":-7.922326},"8330B455841":{"name":"Arcadia Crescent","lat":53.431572,"lng":-7.92944},"8330B455851":{"name":"Arcadia","lat":53.432269,"lng":-7.938137},"8330B455861":{"name":"Primary Care Centre","lat":53.433303,"lng":-7.940152},"8330B455871":{"name":"Coosan Heath","lat":53.436617,"lng":-7.935376},"8330B455881":{"name":"Coosan Road","lat":53.435282,"lng":-7.926665},"8330B455891":{"name":"Clonbrusk","lat":53.432771,"lng":-7.921251},"8330B455901":{"name":"Department of Education","lat":53.433629,"lng":-7.914102},"8330B455911":{"name":"Woodville Road","lat":53.43449,"lng":-7.90143},"8330B455921":{"name":"Blyry Lower","lat":53.42991,"lng":-7.90173},"8330B455931":{"name":"Garrycastle","lat":53.424542,"lng":-7.90106},"8330B455941":{"name":"Garrycastle","lat":53.42444,"lng":-7.90123},"8330B455951":{"name":"Blyry Lower","lat":53.43047,"lng":-7.90196},"8330B455961":{"name":"Woodville Road","lat":53.43447,"lng":-7.90166},"8330B455971":{"name":"Department of Education","lat":53.433077,"lng":-7.908791},"8330B455981":{"name":"Clonbrusk","lat":53.432771,"lng":-7.920665},"8330B455991":{"name":"Coosan Road","lat":53.435183,"lng":-7.926725},"8330B456001":{"name":"Coosan Heath","lat":53.436527,"lng":-7.935451},"8330B456011":{"name":"Primary Care Centre","lat":53.433267,"lng":-7.939971},"8330B456021":{"name":"Arcadia","lat":53.432377,"lng":-7.937926},"8330B456031":{"name":"Arcadia Crescent","lat":53.431635,"lng":-7.929349},"8330B456041":{"name":"Grace Park Road","lat":53.427386,"lng":-7.932381},"8330B456051":{"name":"Grace Park Road","lat":53.42476,"lng":-7.930038},"8330B456061":{"name":"Luan Gallery","lat":53.4242,"lng":-7.94362},"8330B456071":{"name":"Iona Park","lat":53.42611,"lng":-7.95307},"8330B5001301":{"name":"Orwell Grove","lat":53.42267,"lng":-7.97236},"8330B5001401":{"name":"Annesfield Woods","lat":53.42449,"lng":-7.96199},"8330B5001501":{"name":"Mitchell's Terrace","lat":53.423614,"lng":-7.957903},"8330B5001601":{"name":"Battery Heights","lat":53.423747,"lng":-7.953269},"8330B5001701":{"name":"Pearse Street","lat":53.422773,"lng":-7.94489},"8330B5001801":{"name":"John Broderick Street","lat":53.422238,"lng":-7.934962},"8330B5001901":{"name":"Golden Island","lat":53.42132,"lng":-7.932631},"8330B500221":{"name":"Golden Island","lat":53.420944,"lng":-7.934798},"8330B525511":{"name":"Drumraney","lat":53.48205,"lng":-7.74936},"8330B525551":{"name":"Drumraney","lat":53.48208,"lng":-7.74909},"8330B5534001":{"name":"Ballymore West","lat":53.49087,"lng":-7.6801},"8330B553461":{"name":"Ballymore West","lat":53.49078,"lng":-7.67994},"8330B5546201":{"name":"Castle Street","lat":53.422664,"lng":-7.942574},"8330B5547001":{"name":"Connaught Street","lat":53.421803,"lng":-7.946411},"8330B5547601":{"name":"Battery Heights","lat":53.42363,"lng":-7.953164},"8330B5547701":{"name":"Mitchell's Terrace","lat":53.423515,"lng":-7.957798},"8330B5547801":{"name":"Orwell Grove","lat":53.42241,"lng":-7.97248},"8330B5551001":{"name":"Athlone Station","lat":53.42677,"lng":-7.93517},"8330B555391":{"name":"TUS East Campus","lat":53.41526,"lng":-7.89871},"8330B5577101":{"name":"Glassan","lat":53.47099,"lng":-7.8641},"8330B557741":{"name":"Glassan","lat":53.47107,"lng":-7.86385},"8330B598101":{"name":"Loughnavalley","lat":53.486677,"lng":-7.526155},"8330B598111":{"name":"Ballinea","lat":53.50691,"lng":-7.42091},"8330B598131":{"name":"Killare","lat":53.484504,"lng":-7.579546},"8330B598141":{"name":"Loughnavalley","lat":53.486714,"lng":-7.526381},"8330B5981501":{"name":"Ballinea","lat":53.507,"lng":-7.42096},"8330B598181":{"name":"Killare","lat":53.484527,"lng":-7.581022},"8330B9910001":{"name":"Athlone Station","lat":53.42659,"lng":-7.93523},"8330PB14119":{"name":"St. Loman's GAA","lat":53.53371,"lng":-7.31498},"8330PB14120":{"name":"St. Loman's GAA","lat":53.53372,"lng":-7.3146},"8330PB14121":{"name":"St. Loman's Hospital","lat":53.53239,"lng":-7.31847},"8330PB14122":{"name":"St. Loman's Hospital","lat":53.53225,"lng":-7.31857},"8340B136281":{"name":"Bunclody","lat":52.655031,"lng":-6.652148},"8340B136291":{"name":"Enniscorthy Technology Park","lat":52.489883,"lng":-6.566007},"8340B1363001":{"name":"Wexford Hospital","lat":52.34207,"lng":-6.484158},"8340B140641":{"name":"Kilrane","lat":52.242031,"lng":-6.354853},"8340B2346401":{"name":"Ballykilliane","lat":52.290279,"lng":-6.463688},"8340B2988801":{"name":"Wexford Racecourse","lat":52.342007,"lng":-6.487653},"8340B298901":{"name":"Rosslare Harbour","lat":52.249689,"lng":-6.343805},"8340B3004001":{"name":"Trinity Street","lat":52.334811,"lng":-6.456056},"8340B3300201":{"name":"Killurin","lat":52.38182,"lng":-6.575596},"8340B330031":{"name":"Ballyhogue","lat":52.414272,"lng":-6.575253},"8340B330041":{"name":"Ballyhogue","lat":52.414153,"lng":-6.57511},"8340B330051":{"name":"Clonmore","lat":52.428746,"lng":-6.614463},"8340B330081":{"name":"Clonmore","lat":52.428839,"lng":-6.614238},"8340B330201":{"name":"Bricketstown","lat":52.356191,"lng":-6.654022},"8340B330221":{"name":"Ballycullane South","lat":52.277474,"lng":-6.837808},"8340B330251":{"name":"Camaross","lat":52.362409,"lng":-6.702845},"8340B330261":{"name":"Ballycullane South","lat":52.277494,"lng":-6.837968},"8340B330271":{"name":"Bricketstown","lat":52.355855,"lng":-6.652975},"8340B3302801":{"name":"Glenour","lat":52.383533,"lng":-6.717245},"8340B330291":{"name":"Ballyvergin","lat":52.362327,"lng":-6.71176},"8340B330321":{"name":"Ballyhine","lat":52.339816,"lng":-6.56419},"8340B330341":{"name":"Adamstown","lat":52.392997,"lng":-6.719184},"8340B3303701":{"name":"Fethard","lat":52.192147,"lng":-6.840195},"8340B330381":{"name":"Ballyhine","lat":52.339872,"lng":-6.564379},"8340B330401":{"name":"Taghmon","lat":52.32236,"lng":-6.65119},"8340B330471":{"name":"Rosegarland","lat":52.282236,"lng":-6.753848},"8340B330491":{"name":"Rosegarland","lat":52.282236,"lng":-6.753848},"8340B330521":{"name":"Clongeen","lat":52.296741,"lng":-6.769832},"8340B330601":{"name":"Raheenagurren","lat":52.670357,"lng":-6.276289},"8340B330621":{"name":"Taghmon","lat":52.32237,"lng":-6.65219},"8340B330631":{"name":"Raheenagurren","lat":52.670353,"lng":-6.276008},"8340B330641":{"name":"Courtown","lat":52.644912,"lng":-6.230147},"8340B3306701":{"name":"Courtown Harbour","lat":52.644022,"lng":-6.227774},"8340B3306901":{"name":"Duncannon","lat":52.22054,"lng":-6.932219},"8340B330701":{"name":"Ardamine","lat":52.625277,"lng":-6.231767},"8340B330721":{"name":"Foulkesmill","lat":52.314246,"lng":-6.752949},"8340B330731":{"name":"Foulkesmill","lat":52.31422,"lng":-6.753008},"8340B330751":{"name":"Clongeen","lat":52.297279,"lng":-6.769685},"8340B330771":{"name":"Ardamine","lat":52.625281,"lng":-6.231765},"8340B330801":{"name":"Ballygarrett","lat":52.574016,"lng":-6.229699},"8340B3308601":{"name":"Ramsgrange","lat":52.245174,"lng":-6.918916},"8340B3308801":{"name":"Ballinaboola","lat":52.369538,"lng":-6.837964},"8340B330891":{"name":"Ballygarrett","lat":52.57347,"lng":-6.22996},"8340B330901":{"name":"Ballymacar","lat":52.386772,"lng":-6.906719},"8340B3309101":{"name":"Campile","lat":52.291687,"lng":-6.942178},"8340B330931":{"name":"Ballymacar","lat":52.386784,"lng":-6.907057},"8340B331041":{"name":"Camaross","lat":52.362375,"lng":-6.702259},"8340B331181":{"name":"Bridgetown","lat":52.230418,"lng":-6.552541},"8340B331191":{"name":"Bridgetown","lat":52.230409,"lng":-6.552512},"8340B331251":{"name":"Kilmuckridge","lat":52.514011,"lng":-6.28324},"8340B3312901":{"name":"Kilmuckridge","lat":52.514061,"lng":-6.283281},"8340B331321":{"name":"Dunmain","lat":52.306402,"lng":-6.88075},"8340B3314201":{"name":"Galbally","lat":52.399239,"lng":-6.639883},"8340B331491":{"name":"Dunmain","lat":52.306367,"lng":-6.880809},"8340B331501":{"name":"Galbally","lat":52.399054,"lng":-6.639389},"8340B331591":{"name":"Kilrane","lat":52.242228,"lng":-6.35675},"8340B3316001":{"name":"Tagoat","lat":52.24393,"lng":-6.391541},"8340B3316101":{"name":"Ballykilliane","lat":52.28915,"lng":-6.463962},"8340B3316201":{"name":"Trinity Street","lat":52.334671,"lng":-6.45562},"8340B3316301":{"name":"Ballinaboola","lat":52.369807,"lng":-6.838558},"8340B331641":{"name":"Tagoat","lat":52.243582,"lng":-6.390241},"8340B338551":{"name":"National Heritage Park","lat":52.348316,"lng":-6.517353},"8340B338571":{"name":"National Heritage Park","lat":52.348351,"lng":-6.51722},"8340B338821":{"name":"Blackwater","lat":52.446816,"lng":-6.347521},"8340B3388901":{"name":"Blackwater","lat":52.44627,"lng":-6.347768},"8340B339011":{"name":"Ballina Lower","lat":52.421311,"lng":-6.357112},"8340B3390601":{"name":"Kilmacoe","lat":52.398998,"lng":-6.369811},"8340B339141":{"name":"Curracloe","lat":52.393081,"lng":-6.391471},"8340B3391801":{"name":"Curracloe","lat":52.393108,"lng":-6.391278},"8340B339311":{"name":"Mountelliott","lat":52.419302,"lng":-6.93623},"8340B3393401":{"name":"Castlebridge","lat":52.382226,"lng":-6.450364},"8340B3393701":{"name":"Mountelliott","lat":52.419383,"lng":-6.936228},"8340B339461":{"name":"Clonevin","lat":52.557487,"lng":-6.235836},"8340B339491":{"name":"Clonevin","lat":52.557684,"lng":-6.235755},"8340B339541":{"name":"Wellingtonbridge","lat":52.266779,"lng":-6.750003},"8340B339631":{"name":"Rosslare Strand","lat":52.272771,"lng":-6.386467},"8340B3396401":{"name":"Wellingtonbridge","lat":52.266644,"lng":-6.749934},"8340B339651":{"name":"Ramsgrange","lat":52.245137,"lng":-6.9188},"8340B339661":{"name":"Campile","lat":52.291633,"lng":-6.942194},"8340B3398601":{"name":"Oilgate","lat":52.424497,"lng":-6.53123},"8340B339981":{"name":"Castlebridge","lat":52.38114,"lng":-6.450272},"8340B3510601":{"name":"Camolin","lat":52.616394,"lng":-6.424634},"8340B3510801":{"name":"Ferns","lat":52.589832,"lng":-6.493746},"8340B351131":{"name":"Oilgate","lat":52.422322,"lng":-6.529607},"8340B351151":{"name":"Ballycanew","lat":52.610984,"lng":-6.305572},"8340B3512001":{"name":"Bunclody","lat":52.655172,"lng":-6.651966},"8340B3512701":{"name":"Tagoat","lat":52.243861,"lng":-6.391089},"8340B351471":{"name":"Tagoat","lat":52.243598,"lng":-6.390279},"8340B355111":{"name":"Ferns","lat":52.589932,"lng":-6.496635},"8340B355121":{"name":"Gorey Main Street","lat":52.67558,"lng":-6.29511},"8340B3551901":{"name":"Camolin","lat":52.616502,"lng":-6.424601},"8340B355231":{"name":"Clogh","lat":52.642957,"lng":-6.3423},"8340B355241":{"name":"Enniscorthy Technology Park","lat":52.491657,"lng":-6.565493},"8340B3552601":{"name":"Rosslare Strand","lat":52.272281,"lng":-6.385778},"8340B355291":{"name":"Clogh","lat":52.642513,"lng":-6.342701},"8340B355461":{"name":"New Ross","lat":52.39502,"lng":-6.9461},"8340B355471":{"name":"New Ross","lat":52.39417,"lng":-6.94642},"8340B355501":{"name":"Rosslare Europort","lat":52.25298,"lng":-6.33374},"8340B3555101":{"name":"Wexford O'Hanrahan Station","lat":52.343134,"lng":-6.464234},"8340B3555201":{"name":"Enniscorthy","lat":52.501485,"lng":-6.564318},"8340B3555301":{"name":"Gorey Main Street","lat":52.675518,"lng":-6.295045},"8340B355541":{"name":"Gorey Station","lat":52.672029,"lng":-6.29246},"8340B3555701":{"name":"Wexford Hospital","lat":52.342113,"lng":-6.483981},"8340B553921":{"name":"Rosslare Harbour","lat":52.24949,"lng":-6.34411},"8340BB330391":{"name":"Adamstown","lat":52.392996,"lng":-6.719125},"8340LL10405":{"name":"New Ross Road Roundabout","lat":52.338311,"lng":-6.51374},"8340LL10407":{"name":"New Ross Road Roundabout","lat":52.338277,"lng":-6.513169},"8350B0351751":{"name":"Hollywood","lat":53.09205,"lng":-6.60692},"8350B0351761":{"name":"Hollywood","lat":53.0907,"lng":-6.60655},"8350B102301":{"name":"Kilmurry","lat":53.160128,"lng":-6.128907},"8350B1023101":{"name":"Glenview","lat":53.145959,"lng":-6.124156},"8350B102391":{"name":"Ashford","lat":53.012967,"lng":-6.107432},"8350B102401":{"name":"Ballinalea","lat":53.005511,"lng":-6.103175},"8350B1024101":{"name":"Rathnew","lat":52.994812,"lng":-6.080657},"8350B1024201":{"name":"Wicklow Retail Park","lat":52.986111,"lng":-6.056302},"8350B1024301":{"name":"Bollarney South","lat":52.982258,"lng":-6.049907},"8350B102441":{"name":"Grand Hotel","lat":52.980422,"lng":-6.04707},"8350B1060501":{"name":"Convent Road","lat":52.976033,"lng":-6.041416},"8350B106061":{"name":"Convent Road","lat":52.975623,"lng":-6.041658},"8350B1060801":{"name":"Bollarney South","lat":52.983184,"lng":-6.051563},"8350B1060901":{"name":"Rathnew","lat":52.99397,"lng":-6.078028},"8350B106121":{"name":"Arklow Methodist Ch","lat":52.800957,"lng":-6.148013},"8350B1061401":{"name":"Ballinalea","lat":53.00568,"lng":-6.10366},"8350B1061501":{"name":"Ashford","lat":53.012367,"lng":-6.108121},"8350B1061601":{"name":"Rathmore","lat":53.052152,"lng":-6.092401},"8350B106261":{"name":"Glenview Hotel","lat":53.14679,"lng":-6.124957},"8350B1062701":{"name":"Kilmurry","lat":53.154954,"lng":-6.126261},"8350B110611":{"name":"Rosehill","lat":52.97205,"lng":-6.050848},"8350B110621":{"name":"Wicklow Primary Health Centre","lat":52.989821,"lng":-6.068352},"8350B110631":{"name":"Knockrobin","lat":52.992268,"lng":-6.072942},"8350B110641":{"name":"Rathnew North","lat":52.997411,"lng":-6.085176},"8350B110651":{"name":"Rathnew North","lat":52.996534,"lng":-6.083505},"8350B110661":{"name":"Knockrobin","lat":52.991437,"lng":-6.070495},"8350B110671":{"name":"Wicklow Primary Health Centre","lat":52.989418,"lng":-6.067974},"8350B110681":{"name":"Rosehill","lat":52.972302,"lng":-6.049807},"8350B110691":{"name":"Ballynerrin Road","lat":52.97084,"lng":-6.056268},"8350B1333401":{"name":"Blessington","lat":53.17172,"lng":-6.531226},"8350B1334901":{"name":"Annalecky Cross","lat":53.037356,"lng":-6.635333},"8350B133651":{"name":"Mill Street","lat":52.94303,"lng":-6.712237},"8350B1339301":{"name":"Kiltegan","lat":52.904161,"lng":-6.606758},"8350B134391":{"name":"Tinahealy","lat":52.79936,"lng":-6.46439},"8350B134501":{"name":"Shilelagh","lat":52.75546,"lng":-6.533995},"8350B134551":{"name":"Carnew","lat":52.70967,"lng":-6.49827},"8350B1355301":{"name":"Arklow","lat":52.798352,"lng":-6.1568},"8350B1355401":{"name":"Tourist Office","lat":52.797755,"lng":-6.15942},"8350B1355501":{"name":"Grand Hotel","lat":52.979947,"lng":-6.048228},"8350B1355601":{"name":"Colley Row","lat":52.97888,"lng":-6.03674},"8350B136181":{"name":"St Marys Church","lat":53.171139,"lng":-6.532204},"8350B136191":{"name":"Annalecky Cross","lat":53.037259,"lng":-6.63547},"8350B136201":{"name":"Mill Street","lat":52.942986,"lng":-6.712358},"8350B136221":{"name":"Kiltegan","lat":52.90446,"lng":-6.606912},"8350B136241":{"name":"Crossbridge","lat":52.816183,"lng":-6.500604},"8350B136251":{"name":"Tinahealy","lat":52.79927,"lng":-6.46454},"8350B136261":{"name":"Shilelagh","lat":52.75523,"lng":-6.53415},"8350B136271":{"name":"Carnew","lat":52.70985,"lng":-6.497963},"8350B3202601":{"name":"Rathmore","lat":53.052546,"lng":-6.091712},"8350B351481":{"name":"Arklow","lat":52.795584,"lng":-6.162626},"8350B351491":{"name":"Arklow Methodist Ch","lat":52.800855,"lng":-6.148373},"8350B3551701":{"name":"Knockmore","lat":52.785795,"lng":-6.16845},"8350B3551801":{"name":"Knockmore","lat":52.785817,"lng":-6.168701},"8350B355211":{"name":"Arklow","lat":52.79541,"lng":-6.162441},"8350B4361001":{"name":"Crossbridge","lat":52.816149,"lng":-6.500027},"8350CO11016":{"name":"Wyndham Park","lat":53.20484,"lng":-6.10512},"8350DB004132":{"name":"Bray Main Street","lat":53.202301,"lng":-6.110004},"8350DB004151":{"name":"Bray Main Street","lat":53.201869,"lng":-6.110547},"8350DB004167":{"name":"Bray Station","lat":53.20451,"lng":-6.1011},"8350DB004170":{"name":"Methodist Church","lat":53.203484,"lng":-6.106973},"8350DB004171":{"name":"Kilmantain Park","lat":53.200509,"lng":-6.111505},"8350DB004173":{"name":"The Nurseries","lat":53.195334,"lng":-6.117944},"8350DB004175":{"name":"St Fergal's Church","lat":53.189046,"lng":-6.126151},"8350DB004178":{"name":"Ballywaltrim Heights","lat":53.188086,"lng":-6.127435},"8350DB004180":{"name":"Killarney Road","lat":53.194936,"lng":-6.118889},"8350DB004181":{"name":"Glenlucan","lat":53.19776,"lng":-6.116161},"8350DB004237":{"name":"Killickabawn","lat":53.121271,"lng":-6.110155},"8350DB004238":{"name":"Kilpedder Footbridge","lat":53.111547,"lng":-6.105741},"8350DB004239":{"name":"Glenview Park","lat":53.113967,"lng":-6.107562},"8350DB004533":{"name":"Kilmacanogue","lat":53.169505,"lng":-6.136486},"8350DB004650":{"name":"Kilpeddar Grove","lat":53.110903,"lng":-6.104813},"8350DB004651":{"name":"Garden Village","lat":53.101191,"lng":-6.106824},"8350DB004652":{"name":"Coillte Offices","lat":53.097125,"lng":-6.110004},"8350DB004653":{"name":"Newtownmountkennedy","lat":53.092196,"lng":-6.112086},"8350DB004654":{"name":"Springfield Heights","lat":53.088464,"lng":-6.109144},"8350DB004655":{"name":"Newtown Business Ctr","lat":53.084346,"lng":-6.1051},"8350DB004656":{"name":"Newcastle Hospital","lat":53.07949,"lng":-6.100462},"8350DB004657":{"name":"Newcastle Hospital","lat":53.079835,"lng":-6.101267},"8350DB004658":{"name":"Springfield Heights","lat":53.08885,"lng":-6.110217},"8350DB004659":{"name":"Newtownmountkennedy","lat":53.09183,"lng":-6.112252},"8350DB004660":{"name":"Coillte Offices","lat":53.097797,"lng":-6.109855},"8350DB004661":{"name":"Garden Village","lat":53.09969,"lng":-6.108502},"8350DB004844":{"name":"Glencormack Road","lat":53.174376,"lng":-6.139282},"8350DB005092":{"name":"Springfield Cemetery","lat":53.185829,"lng":-6.12906},"8350DB006000":{"name":"Kilmacanogue","lat":53.168784,"lng":-6.135329},"8350DB007279":{"name":"Newtown Business Ctr","lat":53.085062,"lng":-6.105486},"8360B10993":{"name":"Kilkee","lat":52.679846,"lng":-9.645549},"8360B131031":{"name":"Rosmadda West","lat":52.700112,"lng":-8.60026},"8360B131091":{"name":"Rosmadda West","lat":52.700165,"lng":-8.600483},"8360B1340501":{"name":"Rathfolan","lat":52.765435,"lng":-8.901528},"8360B331431":{"name":"Bridgetown","lat":52.761986,"lng":-8.526318},"8360B3320001":{"name":"Meelick","lat":52.701135,"lng":-8.653184},"8360B3320101":{"name":"Larkins Cross","lat":52.689831,"lng":-8.603536},"8360B3320201":{"name":"Ballykeelaun","lat":52.697085,"lng":-8.613963},"8360B3320301":{"name":"Rosmadda West","lat":52.700288,"lng":-8.600973},"8360B3320501":{"name":"Blackwater","lat":52.709833,"lng":-8.602806},"8360B3320601":{"name":"Ardnacrusha","lat":52.706947,"lng":-8.618718},"8360B333261":{"name":"Rosmadda West","lat":52.700145,"lng":-8.600749},"8360B333271":{"name":"Blackwater","lat":52.709807,"lng":-8.602628},"8360B333371":{"name":"Kilmurry","lat":52.777135,"lng":-8.782811},"8360B333601":{"name":"Ardataggle","lat":52.754144,"lng":-8.508639},"8360B333731":{"name":"Meelick","lat":52.700954,"lng":-8.653448},"8360B333741":{"name":"Elton Court","lat":52.700075,"lng":-8.65635},"8360B333751":{"name":"Ballycannon","lat":52.70307,"lng":-8.64944},"8360B333761":{"name":"Parteen","lat":52.69467,"lng":-8.6185},"8360B333771":{"name":"Ballykeelaun","lat":52.697013,"lng":-8.613977},"8360B333781":{"name":"Gortatogher","lat":52.698284,"lng":-8.607958},"8360B333791":{"name":"Gortatogher","lat":52.698204,"lng":-8.60778},"8360B333801":{"name":"Lakyle Heights","lat":52.708273,"lng":-8.610702},"8360B333811":{"name":"Lakyle Heights","lat":52.708383,"lng":-8.610422},"8360B333821":{"name":"Ballycannon","lat":52.702909,"lng":-8.649423},"8360B333831":{"name":"Elton Court","lat":52.700068,"lng":-8.656024},"8360B3345501":{"name":"Lackabranner","lat":52.847065,"lng":-8.477288},"8360B3346301":{"name":"Ogonnelloe","lat":52.882432,"lng":-8.456638},"8360B3346401":{"name":"Raheen","lat":52.890022,"lng":-8.508757},"8360B334651":{"name":"Tuamgraney South","lat":52.897023,"lng":-8.539381},"8360B335351":{"name":"Carrowgar","lat":52.916307,"lng":-9.346271},"8360B335361":{"name":"Rinneen","lat":52.890677,"lng":-9.388815},"8360B335381":{"name":"Spanish Point South","lat":52.837504,"lng":-9.429506},"8360B335391":{"name":"Quilty","lat":52.817019,"lng":-9.456118},"8360B3354201":{"name":"Doonbeg","lat":52.730243,"lng":-9.529687},"8360B3362001":{"name":"Meelick Roundabout","lat":52.679884,"lng":-8.699407},"8360B3362701":{"name":"Ballintlea West","lat":52.709193,"lng":-8.772049},"8360B336291":{"name":"Cappagh","lat":52.731019,"lng":-8.793474},"8360B3363101":{"name":"Ballycasey","lat":52.715223,"lng":-8.862277},"8360B336361":{"name":"Smithstown Business Park","lat":52.716015,"lng":-8.873171},"8360B336431":{"name":"Ballaghboy","lat":52.839657,"lng":-8.945575},"8360B336441":{"name":"Drim","lat":52.834161,"lng":-8.881995},"8360B336451":{"name":"Ballaghboy","lat":52.839676,"lng":-8.945427},"8360B336481":{"name":"Drim","lat":52.834148,"lng":-8.882034},"8360B336491":{"name":"Quin South","lat":52.815305,"lng":-8.862209},"8360B336501":{"name":"Knappogue Castle","lat":52.795633,"lng":-8.826574},"8360B3365201":{"name":"Sixmilebridge","lat":52.741168,"lng":-8.775576},"8360B336541":{"name":"Deerpark","lat":52.72054,"lng":-8.813104},"8360B3365501":{"name":"Hurlers Cross","lat":52.70985,"lng":-8.847002},"8360B3365601":{"name":"Kilmurry","lat":52.777107,"lng":-8.783092},"8360B336571":{"name":"Knappogue Castle","lat":52.795614,"lng":-8.826588},"8360B336581":{"name":"Quin South","lat":52.815475,"lng":-8.86242},"8360B3366001":{"name":"Shannon Free Zone","lat":52.70426,"lng":-8.897041},"8360B336621":{"name":"Montpelier","lat":52.750241,"lng":-8.496566},"8360B336631":{"name":"Cratloemoyle","lat":52.681926,"lng":-8.711212},"8360B336641":{"name":"Cratloe","lat":52.698414,"lng":-8.762656},"8360B336651":{"name":"Aidan Park","lat":52.712679,"lng":-8.868443},"8360B336661":{"name":"John and Paul Church","lat":52.709486,"lng":-8.866219},"8360B336671":{"name":"Shannon Town Hall","lat":52.705738,"lng":-8.877228},"8360B336681":{"name":"Shannon Town Centre","lat":52.708293,"lng":-8.881837},"8360B336701":{"name":"Tullyglass","lat":52.705881,"lng":-8.889468},"8360B336711":{"name":"Drumgeely","lat":52.703295,"lng":-8.891517},"8360B336721":{"name":"Caherteige","lat":52.704857,"lng":-8.900028},"8360B336741":{"name":"Montpelier","lat":52.750267,"lng":-8.496744},"8360B3367501":{"name":"Raheen","lat":52.890211,"lng":-8.50873},"8360B336761":{"name":"Free Zone West","lat":52.703351,"lng":-8.901935},"8360B3367801":{"name":"Clonlara","lat":52.723934,"lng":-8.553261},"8360B3368201":{"name":"O'Briens Bridge","lat":52.752635,"lng":-8.500045},"8360B336831":{"name":"O'Briens Bridge","lat":52.752779,"lng":-8.500017},"8360B3368401":{"name":"Killaloe","lat":52.80406,"lng":-8.43974},