{"7010B158131":{"name":"Ulsterbus Depot","lat":54.996629,"lng":-7.317866,"code":"158131"},"7010B158241":{"name":"Magee Campus","lat":55.002956,"lng":-7.322545,"code":"158241"},"7040B107131":{"name":"Cullaville","lat":54.062045,"lng":-6.643525,"code":"107131"},"7040B139481":{"name":"Newry","lat":54.168253,"lng":-6.339098,"code":"139481"},"7040B139491":{"name":"Buttercrane SC","lat":54.172871,"lng":-6.340996,"code":"139491"},"7040B139501":{"name":"Newry","lat":54.172227,"lng":-6.340441,"code":"139501"},"7040B139511":{"name":"Newry","lat":54.168692,"lng":-6.339019,"code":"139511"},"7040B139761":{"name":"Killeen Br","lat":54.131009,"lng":-6.346082,"code":"139761"},"7040B139771":{"name":"Killeen Br","lat":54.131023,"lng":-6.346479,"code":"139771"},"7040B139781":{"name":"Meigh Cross","lat":54.115863,"lng":-6.357129,"code":"139781"},"7040B139791":{"name":"Meigh Cross","lat":54.115892,"lng":-6.357279,"code":"139791"},"7040B150611":{"name":"Regional College","lat":54.176486,"lng":-6.34535,"code":"150611"},"7040B156051":{"name":"Newry","lat":54.176002,"lng":-6.339467,"code":"156051"},"7040B156061":{"name":"Newry Bus Station","lat":54.174999,"lng":-6.340145,"code":"156061"},"7050B108081":{"name":"Enniskillen","lat":54.343694,"lng":-7.640079,"code":"108081"},"7050B140871":{"name":"Derrylin","lat":54.191672,"lng":-7.565929,"code":"140871"},"7050B1409001":{"name":"Bellanaleck","lat":54.295005,"lng":-7.638015,"code":"140901"},"7050B141541":{"name":"Belleek","lat":54.476171,"lng":-8.094502,"code":"141541"},"7050B1415501":{"name":"Bellanaleck","lat":54.295058,"lng":-7.63783,"code":"141551"},"7050B141561":{"name":"Derrylin","lat":54.191678,"lng":-7.565736,"code":"141561"},"7050B630091":{"name":"Letterbreen","lat":54.309287,"lng":-7.732686,"code":"630091"},"7050B630101":{"name":"Letterbreen","lat":54.309493,"lng":-7.732162,"code":"630101"},"7050B6310001":{"name":"Belcoo","lat":54.297258,"lng":-7.869896,"code":"631001"},"7050B631071":{"name":"Loughview Drive","lat":54.297374,"lng":-7.870114,"code":"631071"},"7060B152481":{"name":"Sion Mills","lat":54.784312,"lng":-7.471637,"code":"152481"},"7060B156031":{"name":"Ballygawley","lat":54.456349,"lng":-7.033901,"code":"156031"},"7060B157111":{"name":"Newtownstewart","lat":54.721891,"lng":-7.372982,"code":"157111"},"7060B158031":{"name":"Ulsterbus Depot","lat":54.601343,"lng":-7.30175,"code":"158031"},"7060B1581001":{"name":"Newtownstewart","lat":54.721774,"lng":-7.373015,"code":"158101"},"7060B158121":{"name":"Bradley Way","lat":54.826507,"lng":-7.47009,"code":"158121"},"7060B1581401":{"name":"Sion Mills","lat":54.785779,"lng":-7.472348,"code":"158141"},"7060B158181":{"name":"Canal Street","lat":54.827746,"lng":-7.463786,"code":"158181"},"821000005":{"name":"Carlow Inst","lat":52.8191,"lng":-6.94496,"code":"12324"},"821000007":{"name":"Leighlinbridge","lat":52.736693,"lng":-6.975816,"code":"351871"},"821000008":{"name":"Leighlinbridge","lat":52.7365,"lng":-6.97598,"code":"13228"},"821000009":{"name":"Bagenalstown West","lat":52.7005,"lng":-6.96598,"code":"351831"},"821000010":{"name":"Bagenalstown West","lat":52.70052,"lng":-6.96478,"code":"351821"},"8210B0351841":{"name":"Royal Oak","lat":52.70218,"lng":-6.98459,"code":"351841"},"8210B111621":{"name":"St Patrick's Avenue","lat":52.837124,"lng":-6.91467,"code":"111621"},"8210B111891":{"name":"Sleaty Road","lat":52.844148,"lng":-6.939762,"code":"111891"},"8210B1340201":{"name":"Hacketstown","lat":52.865375,"lng":-6.558453,"code":"134021"},"8210B136061":{"name":"SETU Carlow","lat":52.829981,"lng":-6.935975,"code":"136061"},"8210B136211":{"name":"Rathvilly","lat":52.880551,"lng":-6.695562,"code":"136211"},"8210B136231":{"name":"Hacketstown","lat":52.865221,"lng":-6.558399,"code":"136231"},"8210B153991":{"name":"Tullow North","lat":52.80482,"lng":-6.732506,"code":"153991"},"8210B154001":{"name":"Tullow North","lat":52.804658,"lng":-6.732496,"code":"154001"},"8210B202101":{"name":"Wexford Rd BP","lat":52.820615,"lng":-6.897133,"code":"202101"},"8210B3355701":{"name":"Carlow Bus Stn","lat":52.833738,"lng":-6.926948,"code":"335571"},"8210B3511401":{"name":"Rathvilly","lat":52.880619,"lng":-6.695248,"code":"351141"},"8210B3511801":{"name":"Kildavin","lat":52.683916,"lng":-6.685386,"code":"351181"},"8210B351711":{"name":"Ballon","lat":52.740188,"lng":-6.7704,"code":"351711"},"8210B351721":{"name":"Ballon","lat":52.740087,"lng":-6.770225,"code":"351721"},"8210B5981201":{"name":"SETU Carlow","lat":52.830054,"lng":-6.936121,"code":"598121"},"8210CO11091":{"name":"Carlow Inst","lat":52.819187,"lng":-6.94511,"code":"201001"},"8210CO11092":{"name":"Carraig Abhainn","lat":52.825857,"lng":-6.937188,"code":"11092"},"8210CO11093":{"name":"Bourlum Wood","lat":52.823409,"lng":-6.935764,"code":"110931"},"8210CO11094":{"name":"SETU Green Road","lat":52.825497,"lng":-6.934096,"code":"110941"},"8210CO11095":{"name":"New Street","lat":52.829729,"lng":-6.93095,"code":"110951"},"8210CO11096":{"name":"Hanover Road","lat":52.831403,"lng":-6.929143,"code":"110961"},"8210CO11098":{"name":"Fire Station","lat":52.83703,"lng":-6.92286,"code":"110981"},"8210CO11099":{"name":"Green Lane","lat":52.841239,"lng":-6.917605,"code":"110991"},"8210CO11100":{"name":"Deerpark Rnbt","lat":52.845026,"lng":-6.910029,"code":"111001"},"8210CO11101":{"name":"Enterprise B Pk","lat":52.840432,"lng":-6.909015,"code":"111011"},"8210CO11102":{"name":"Sandhills","lat":52.839602,"lng":-6.904687,"code":"201041"},"8210CO11103":{"name":"Burrindale","lat":52.841719,"lng":-6.902289,"code":"201051"},"8210CO11104":{"name":"Beechwood Park","lat":52.844729,"lng":-6.899318,"code":"111041"},"8210CO11105":{"name":"Tinte\u00e1n Coille","lat":52.846753,"lng":-6.895674,"code":"201061"},"8210CO11106":{"name":"MSD Carlow","lat":52.854254,"lng":-6.884615,"code":"201111"},"8210CO11108":{"name":"Tinte\u00e1n Coille","lat":52.846705,"lng":-6.895259,"code":"111231"},"8210CO11109":{"name":"Beechwood Park","lat":52.844924,"lng":-6.898986,"code":"111091"},"8210CO11110":{"name":"Burrindale","lat":52.84195,"lng":-6.902001,"code":"111101"},"8210CO11111":{"name":"Sandhills","lat":52.839411,"lng":-6.907423,"code":"111241"},"8210CO11112":{"name":"Enterprise B Pk","lat":52.840884,"lng":-6.909271,"code":"111121"},"8210CO11113":{"name":"Deerpark Rnbt","lat":52.844784,"lng":-6.910183,"code":"111131"},"8210CO11114":{"name":"Green Lane","lat":52.84178,"lng":-6.916849,"code":"111141"},"8210CO11115":{"name":"Fire Station","lat":52.83698,"lng":-6.922727,"code":"111151"},"8210CO11117":{"name":"Hanover Road","lat":52.831857,"lng":-6.928657,"code":"111171"},"8210CO11118":{"name":"New Street","lat":52.829034,"lng":-6.931546,"code":"111181"},"8210CO11119":{"name":"SETU Green Road","lat":52.825738,"lng":-6.933882,"code":"111191"},"8210CO11120":{"name":"Bourlum Wood","lat":52.823008,"lng":-6.9361,"code":"111201"},"8210CO11121":{"name":"Carraig Abhainn","lat":52.825967,"lng":-6.937364,"code":"111211"},"8210CO11122":{"name":"Rath Abhainn","lat":52.822572,"lng":-6.941705,"code":"111221"},"8210CO11123":{"name":"Carlow Inst","lat":52.819176,"lng":-6.944918,"code":"201011"},"8210CO11125":{"name":"Sleaty Road","lat":52.844,"lng":-6.939655,"code":"111251"},"8210CO11126":{"name":"Sleaty Street","lat":52.840491,"lng":-6.938241,"code":"111261"},"8210CO11127":{"name":"Maryborough Street","lat":52.837085,"lng":-6.938369,"code":"113911"},"8210CO11128":{"name":"Carlow Cstl","lat":52.836621,"lng":-6.935753,"code":"111281"},"8210CO11129":{"name":"Kennedy Avenue","lat":52.835658,"lng":-6.931546,"code":"111291"},"8210CO11132":{"name":"Pollerton Road","lat":52.836836,"lng":-6.918723,"code":"111321"},"8210CO11133":{"name":"St Patrick's Avenue","lat":52.837255,"lng":-6.914409,"code":"111331"},"8210CO11134":{"name":"Castlewood Gdns","lat":52.838683,"lng":-6.91136,"code":"111341"},"8210CO11135":{"name":"Askea","lat":52.835379,"lng":-6.91079,"code":"113921"},"8210CO11138":{"name":"Tullow Road","lat":52.831465,"lng":-6.907311,"code":"113951"},"8210CO11139":{"name":"The Orchards","lat":52.829989,"lng":-6.903252,"code":"111391"},"8210CO11140":{"name":"Chapelstown","lat":52.82797,"lng":-6.899742,"code":"113961"},"8210CO11143":{"name":"Chapelstown","lat":52.827806,"lng":-6.899493,"code":"111431"},"8210CO11145":{"name":"Tullow Road","lat":52.831191,"lng":-6.906873,"code":"112031"},"8210CO11146":{"name":"Ashgrove","lat":52.830639,"lng":-6.912407,"code":"113931"},"8210CO11147":{"name":"Mount Leinster Park","lat":52.833066,"lng":-6.9134,"code":"113941"},"8210CO11148":{"name":"Askea","lat":52.835257,"lng":-6.911193,"code":"111461"},"8210CO11149":{"name":"Castlewood Gdns","lat":52.838257,"lng":-6.911979,"code":"111601"},"8210CO11151":{"name":"Pollerton Road","lat":52.836699,"lng":-6.919424,"code":"113131"},"8210CO11154":{"name":"Kennedy Avenue","lat":52.835423,"lng":-6.931463,"code":"111821"},"8210CO11155":{"name":"Carlow Cstl","lat":52.836651,"lng":-6.936064,"code":"111861"},"8210CO11156":{"name":"Maryborough Street","lat":52.837867,"lng":-6.938305,"code":"111871"},"8210CO11157":{"name":"Sleaty Street","lat":52.839859,"lng":-6.938004,"code":"111881"},"8210CO11159":{"name":"Barrow Valley","lat":52.84543,"lng":-6.94105,"code":"202001"},"8210CO11444":{"name":"The Orchards","lat":52.830137,"lng":-6.903679,"code":"111421"},"8210LL10441":{"name":"Bagenalstown North","lat":52.703237,"lng":-6.955709,"code":"14527"},"8210LL10452":{"name":"Bagenalstown North","lat":52.70332,"lng":-6.95592,"code":"14518"},"8210PB000008":{"name":"Royal Oak","lat":52.7024,"lng":-6.98482,"code":"351811"},"8220B1000401":{"name":"Clare Street","lat":53.341434,"lng":-6.251562,"code":"100041"},"8220B100461":{"name":"Merrion Road","lat":53.328356,"lng":-6.228375,"code":"100461"},"8220B1009001":{"name":"North Road","lat":53.400198,"lng":-6.308347,"code":"100901"},"8220B1011301":{"name":"North Road","lat":53.400147,"lng":-6.307867,"code":"101131"},"8220B1011501":{"name":"Glasnevin","lat":53.369943,"lng":-6.278062,"code":"101151"},"8220B1021101":{"name":"Bachelors Walk","lat":53.346833,"lng":-6.262471,"code":"102111"},"8220B1046101":{"name":"Merrion Row","lat":53.338533,"lng":-6.254804,"code":"104611"},"8220B106421":{"name":"3Arena","lat":53.346899,"lng":-6.229431,"code":"106421"},"8220B10995":{"name":"Heuston Station","lat":53.34587,"lng":-6.29366,"code":"10995"},"8220B111761":{"name":"Westland Row Church","lat":53.342626,"lng":-6.250132,"code":"111761"},"8220B111771":{"name":"Irish Life","lat":53.349115,"lng":-6.255619,"code":"111771"},"8220B134961":{"name":"Dublin Bus\u00e1ras","lat":53.349913,"lng":-6.252387,"code":"134961"},"8220B135001":{"name":"Dublin Bus\u00e1ras","lat":53.34981,"lng":-6.25203,"code":"135001"},"8220B1350301":{"name":"Beresford Place","lat":53.348755,"lng":-6.254958,"code":"135031"},"8220B1351001":{"name":"Wellington Quay","lat":53.345864,"lng":-6.263817,"code":"135101"},"8220B1351201":{"name":"Connolly Station","lat":53.350218,"lng":-6.250527,"code":"135121"},"8220B1351401":{"name":"George's Quay","lat":53.34737,"lng":-6.25346,"code":"135141"},"8220B1352701":{"name":"Custom Hse Quay","lat":53.348359,"lng":-6.253712,"code":"135271"},"8220B1353101":{"name":"Wilton Terrace","lat":53.333451,"lng":-6.249021,"code":"135311"},"8220B1353301":{"name":"Dawson Street","lat":53.340134,"lng":-6.258584,"code":"135331"},"8220B1353501":{"name":"Eden Quay","lat":53.3478,"lng":-6.258496,"code":"135351"},"8220B1354001":{"name":"Heuston Station","lat":53.346033,"lng":-6.292647,"code":"135401"},"8220B135411":{"name":"Wilton Terrace","lat":53.333421,"lng":-6.249085,"code":"135411"},"8220B1354201":{"name":"Heuston Station","lat":53.34622,"lng":-6.29257,"code":"135421"},"8220B211521":{"name":"Merrion Sq West","lat":53.34091,"lng":-6.250788,"code":"211521"},"8220B3551501":{"name":"Vincent's Hospital","lat":53.317358,"lng":-6.215983,"code":"355151"},"8220DB000015":{"name":"Dorset Street Lwr","lat":53.360267,"lng":-6.260978,"code":"15"},"8220DB000017":{"name":"Drumcondra Stn","lat":53.363078,"lng":-6.258399,"code":"17"},"8220DB000021":{"name":"Drumcondra Village","lat":53.370101,"lng":-6.254311,"code":"21"},"8220DB000045":{"name":"Drumcondra Village","lat":53.369936,"lng":-6.254107,"code":"45"},"8220DB000048":{"name":"Drumcondra Stn","lat":53.362257,"lng":-6.258808,"code":"48"},"8220DB000055":{"name":"Mountjoy Prison","lat":53.360412,"lng":-6.26847,"code":"55"},"8220DB000057":{"name":"Dalymount","lat":53.36076,"lng":-6.2766,"code":"57"},"8220DB000080":{"name":"Phibsborough Church","lat":53.360863,"lng":-6.276054,"code":"80"},"8220DB000119":{"name":"Whitehall Village","lat":53.375191,"lng":-6.250766,"code":"119"},"8220DB000187":{"name":"Munster Street","lat":53.362734,"lng":-6.272447,"code":"187"},"8220DB000188":{"name":"Doyle's Corner","lat":53.360121,"lng":-6.272583,"code":"188"},"8220DB000190":{"name":"Broadstone","lat":53.355126,"lng":-6.273371,"code":"190"},"8220DB000195":{"name":"Broadstone","lat":53.355012,"lng":-6.273571,"code":"195"},"8220DB000198":{"name":"Doyle's Corner","lat":53.361625,"lng":-6.272838,"code":"198"},"8220DB000203":{"name":"Whitehall Village","lat":53.376393,"lng":-6.25001,"code":"203"},"8220DB000263":{"name":"Parnell Sq East","lat":53.353746,"lng":-6.262505,"code":"263"},"8220DB000277":{"name":"O'Connell St Upper","lat":53.350822,"lng":-6.260506,"code":"277"},"8220DB000341":{"name":"South Townsend St","lat":53.345945,"lng":-6.256424,"code":"341"},"8220DB000408":{"name":"Merrion Sq North","lat":53.340971,"lng":-6.250019,"code":"408"},"8220DB000409":{"name":"Holles Street","lat":53.340137,"lng":-6.247696,"code":"409"},"8220DB000417":{"name":"Merrion Road","lat":53.3277,"lng":-6.22597,"code":"417"},"8220DB000493":{"name":"Holles Street","lat":53.339853,"lng":-6.247377,"code":"493"},"8220DB000760":{"name":"Donnybrook Dpot","lat":53.31833,"lng":-6.230562,"code":"760"},"8220DB000762":{"name":"RT\u00c9 Studios","lat":53.314517,"lng":-6.224371,"code":"762"},"8220DB000770":{"name":"RT\u00c9 Studios","lat":53.314636,"lng":-6.225732,"code":"770"},"8220DB000772":{"name":"Donnybrook Dpot","lat":53.318485,"lng":-6.231321,"code":"772"},"8220DB000783":{"name":"Baggot St Lower","lat":53.335308,"lng":-6.246978,"code":"783"},"8220DB000817":{"name":"Mater Hospital","lat":53.359646,"lng":-6.269612,"code":"817"},"8220DB000834":{"name":"St Patrick's Road","lat":53.361975,"lng":-6.260428,"code":"834"},"8220DB000846":{"name":"Adelaide Road","lat":53.333454,"lng":-6.254111,"code":"846"},"8220DB000848":{"name":"Sussex Road","lat":53.329728,"lng":-6.248888,"code":"848"},"8220DB000909":{"name":"Adelaide Road","lat":53.333148,"lng":-6.254078,"code":"909"},"8220DB001171":{"name":"Gardiner St Lwr","lat":53.350318,"lng":-6.254263,"code":"1171"},"8220DB001174":{"name":"Mountjoy Sq West","lat":53.356187,"lng":-6.258545,"code":"1174"},"8220DB001506":{"name":"Hart's Corner","lat":53.366778,"lng":-6.272374,"code":"1506"},"8220DB001510":{"name":"Ballyboggan Rd E","lat":53.376907,"lng":-6.28731,"code":"1510"},"8220DB001534":{"name":"Ballyboggan Rd E","lat":53.375333,"lng":-6.285976,"code":"1534"},"8220DB001620":{"name":"Whitehall Church","lat":53.383263,"lng":-6.244106,"code":"1620"},"8220DB001642":{"name":"Whitehall Church","lat":53.38401,"lng":-6.24339,"code":"1642"},"8220DB001666":{"name":"Ashtown Roundabout","lat":53.371597,"lng":-6.330596,"code":"1666"},"8220DB001696":{"name":"Ashtown Roundabout","lat":53.371541,"lng":-6.329831,"code":"1696"},"8220DB002086":{"name":"Nutley Avenue","lat":53.318157,"lng":-6.214703,"code":"2086"},"8220DB002499":{"name":"S O'Casey Br","lat":53.348128,"lng":-6.247128,"code":"2499"},"8220DB002501":{"name":"N Wall Quay","lat":53.347376,"lng":-6.236359,"code":"2501"},"8220DB002811":{"name":"Merrion Street","lat":53.33936,"lng":-6.252308,"code":"2811"},"8220DB004542":{"name":"Finglas Place","lat":53.386664,"lng":-6.297097,"code":"4542"},"8220DB004543":{"name":"Finglas Place","lat":53.386249,"lng":-6.296993,"code":"4543"},"8220DB006252":{"name":"S O'Casey Br","lat":53.347965,"lng":-6.247044,"code":"6252"},"8220DB007387":{"name":"Merrion Sq South","lat":53.339472,"lng":-6.250817,"code":"7387"},"8220DB007398":{"name":"Convention Centre","lat":53.347499,"lng":-6.239853,"code":"7398"},"8220DB007611":{"name":"N Wall Quay","lat":53.34727,"lng":-6.23661,"code":"7611"},"8220DB008513":{"name":"Westland Row","lat":53.343163,"lng":-6.249959,"code":"8513"},"8230B1034401":{"name":"Tandy's Lane","lat":53.354034,"lng":-6.458852,"code":"103441"},"8230B1034501":{"name":"Liffey Valley SC","lat":53.356177,"lng":-6.391667,"code":"103451"},"8230B105661":{"name":"Tallaght Hospl","lat":53.28941,"lng":-6.37448,"code":"105661"},"8230B1343601":{"name":"Newlands X","lat":53.312526,"lng":-6.391253,"code":"134361"},"8230B134461":{"name":"Lucan Spa Hotel","lat":53.356832,"lng":-6.465332,"code":"134461"},"8230B1360501":{"name":"Newlands X","lat":53.313697,"lng":-6.388162,"code":"136051"},"8230B5992601":{"name":"Tallaght Hosp","lat":53.28935,"lng":-6.37381,"code":"599261"},"8230DB002213":{"name":"Liffey Valley SC","lat":53.355778,"lng":-6.392073,"code":"2213"},"8230DB002241":{"name":"Palmerstown R148","lat":53.354929,"lng":-6.371268,"code":"2241"},"8230DB004401":{"name":"Palmerstown R148","lat":53.354756,"lng":-6.37171,"code":"4401"},"8240B100121":{"name":"Blake's Cross","lat":53.505555,"lng":-6.194413,"code":"100121"},"8240B100141":{"name":"Corduff","lat":53.517109,"lng":-6.191147,"code":"100141"},"8240B100151":{"name":"Regles","lat":53.525974,"lng":-6.188959,"code":"100151"},"8240B100161":{"name":"Regles","lat":53.524731,"lng":-6.189389,"code":"100161"},"8240B100181":{"name":"Corduff","lat":53.514196,"lng":-6.191648,"code":"100181"},"8240B100191":{"name":"Blake's Cross","lat":53.505748,"lng":-6.194088,"code":"100191"},"8240B1002101":{"name":"Ballough","lat":53.533521,"lng":-6.195622,"code":"100211"},"8240B1002201":{"name":"Five Roads","lat":53.551432,"lng":-6.209817,"code":"100221"},"8240B1002301":{"name":"Grooms","lat":53.567065,"lng":-6.209459,"code":"100231"},"8240B1002401":{"name":"Courtlough","lat":53.576836,"lng":-6.202311,"code":"100241"},"8240B1002501":{"name":"Balrothery","lat":53.593508,"lng":-6.185619,"code":"100251"},"8240B1002601":{"name":"Golf Club","lat":53.596703,"lng":-6.183563,"code":"100261"},"8240B1002701":{"name":"Balbriggan RP","lat":53.601888,"lng":-6.185244,"code":"100271"},"8240B1002901":{"name":"Balbriggan College","lat":53.611367,"lng":-6.186259,"code":"100291"},"8240B1003001":{"name":"Drogheda Street","lat":53.613482,"lng":-6.189357,"code":"100301"},"8240B1003101":{"name":"Garda Station","lat":53.615919,"lng":-6.192427,"code":"100311"},"8240B100411":{"name":"Bremore","lat":53.618892,"lng":-6.196309,"code":"100411"},"8240B100421":{"name":"Bremore","lat":53.618923,"lng":-6.196276,"code":"100421"},"8240B1007101":{"name":"Balbriggan Comm Sch","lat":53.611261,"lng":-6.185795,"code":"100711"},"8240B1007201":{"name":"Balbriggan RP","lat":53.600354,"lng":-6.185431,"code":"100721"},"8240B1007301":{"name":"Golf Club","lat":53.595809,"lng":-6.183239,"code":"100731"},"8240B1007401":{"name":"Balrothery","lat":53.59338,"lng":-6.185503,"code":"100741"},"8240B1007501":{"name":"Courtlough","lat":53.576833,"lng":-6.202129,"code":"100751"},"8240B1007601":{"name":"Grooms","lat":53.567251,"lng":-6.209285,"code":"100761"},"8240B1007701":{"name":"Five Roads","lat":53.550853,"lng":-6.209012,"code":"100771"},"8240B1007801":{"name":"Ballough","lat":53.531448,"lng":-6.193433,"code":"100781"},"8240B1009301":{"name":"Coolquay","lat":53.458781,"lng":-6.35073,"code":"100931"},"8240B1010901":{"name":"Coolquay","lat":53.458587,"lng":-6.350361,"code":"101091"},"8240B1011001":{"name":"Ward Cross","lat":53.444211,"lng":-6.340937,"code":"101101"},"8240B1011101":{"name":"Broughan","lat":53.43366,"lng":-6.333221,"code":"101111"},"8240B1011201":{"name":"Kilshane","lat":53.421553,"lng":-6.324847,"code":"101121"},"8240B101281":{"name":"Blanchardstown N3","lat":53.39576,"lng":-6.39119,"code":"101281"},"8240B1043201":{"name":"Balrothery Inn","lat":53.588008,"lng":-6.189208,"code":"104321"},"8240B1045601":{"name":"Blanchardstown N3","lat":53.39732,"lng":-6.38979,"code":"104561"},"8240B1050501":{"name":"Bath Rd","lat":53.613066,"lng":-6.188619,"code":"105051"},"8240B1056201":{"name":"Kilshane Cross","lat":53.428979,"lng":-6.330169,"code":"105621"},"8240B109261":{"name":"Hamlet Lane","lat":53.613834,"lng":-6.20621,"code":"109261"},"8240B109271":{"name":"Brega","lat":53.614754,"lng":-6.20401,"code":"109271"},"8240B109281":{"name":"Stephenstown IE","lat":53.604465,"lng":-6.189849,"code":"109281"},"8240B109291":{"name":"Balbriggan Cemetery","lat":53.607985,"lng":-6.192903,"code":"109291"},"8240B109301":{"name":"Clonard Rd","lat":53.606522,"lng":-6.2017,"code":"109301"},"8240B109311":{"name":"Westbrook Drive","lat":53.61041,"lng":-6.19428,"code":"109311"},"8240B109321":{"name":"Ashfield","lat":53.613504,"lng":-6.194435,"code":"109321"},"8240B111911":{"name":"Terminal 2 Zone 19","lat":53.42611,"lng":-6.2384,"code":"111911"},"8240B111931":{"name":"Airport Zone 13","lat":53.42765,"lng":-6.24153,"code":"111931"},"8240B112001":{"name":"Airport Zone 12","lat":53.42829,"lng":-6.24256,"code":"112001"},"8240B112021":{"name":"Airport Zone 13","lat":53.42792,"lng":-6.24197,"code":"112021"},"8240B112111":{"name":"Airport Zone 13","lat":53.42806,"lng":-6.24219,"code":"112111"},"8240B1332001":{"name":"Balbriggan Comm Cen","lat":53.607128,"lng":-6.183508,"code":"133201"},"8240B1333201":{"name":"Balrothery","lat":53.587968,"lng":-6.189527,"code":"133321"},"8240B1342501":{"name":"Ward Cross","lat":53.443825,"lng":-6.340967,"code":"134251"},"8240B1343201":{"name":"Kilshane Cross","lat":53.428819,"lng":-6.33025,"code":"134321"},"8240B1344501":{"name":"Kildonan","lat":53.413411,"lng":-6.319225,"code":"134451"},"8240B1347401":{"name":"Balbriggan Station","lat":53.611614,"lng":-6.18332,"code":"134741"},"8240B1347601":{"name":"Barons Hall Grove","lat":53.61238,"lng":-6.197389,"code":"134761"},"8240B1347701":{"name":"Hastings","lat":53.613346,"lng":-6.209587,"code":"134771"},"8240B1348101":{"name":"Hamlet Lane","lat":53.61574,"lng":-6.199071,"code":"134811"},"8240B1348501":{"name":"Castleland Rdbt","lat":53.60207,"lng":-6.178301,"code":"134851"},"8240B1348601":{"name":"Millfield Centre","lat":53.606981,"lng":-6.198748,"code":"134861"},"8240B136971":{"name":"Balbriggan","lat":53.607362,"lng":-6.183483,"code":"136971"},"8240B1371301":{"name":"Balbriggan Garda","lat":53.615464,"lng":-6.191494,"code":"137131"},"8240DB000661":{"name":"Westend Office Park","lat":53.392422,"lng":-6.383489,"code":"661"},"8240DB001545":{"name":"Westend Office Park","lat":53.392757,"lng":-6.384289,"code":"1545"},"8240DB001623":{"name":"Omni Park SC","lat":53.391932,"lng":-6.24626,"code":"1623"},"8240DB001640":{"name":"Omni Park SC","lat":53.39235,"lng":-6.245987,"code":"1640"},"8240DB002294":{"name":"Mill Road","lat":53.390087,"lng":-6.370347,"code":"2294"},"8240DB003669":{"name":"Aircraft Hangars","lat":53.428466,"lng":-6.23508,"code":"3669"},"8240DB003676":{"name":"Airside","lat":53.446782,"lng":-6.228358,"code":"3676"},"8240DB003696":{"name":"N1 Business Park","lat":53.443182,"lng":-6.227996,"code":"3696"},"8240DB003713":{"name":"Balheary Park","lat":53.468689,"lng":-6.213452,"code":"3713"},"8240DB003750":{"name":"Balheary Park","lat":53.468495,"lng":-6.213099,"code":"3750"},"8240DB003755":{"name":"Turvey Avenue","lat":53.494283,"lng":-6.195254,"code":"3755"},"8240DB003863":{"name":"Turvey Avenue","lat":53.494535,"lng":-6.194671,"code":"3863"},"8240DB004433":{"name":"Seatown","lat":53.461652,"lng":-6.213507,"code":"4433"},"8240DB005074":{"name":"Swords Pavilions","lat":53.45315,"lng":-6.215972,"code":"5074"},"8240DB005079":{"name":"Swords Pavilions","lat":53.453019,"lng":-6.215601,"code":"5079"},"8240DB006048":{"name":"Peter & Paul Church","lat":53.604501,"lng":-6.184468,"code":"6048"},"8240DB006179":{"name":"Mill Road","lat":53.389553,"lng":-6.370773,"code":"6179"},"8240DB006359":{"name":"Seatown","lat":53.462224,"lng":-6.213287,"code":"6359"},"8240DB007166":{"name":"Navan Rd Stn","lat":53.377094,"lng":-6.345787,"code":"7166"},"8240DB007167":{"name":"Navan Rd Stn","lat":53.375866,"lng":-6.344783,"code":"7167"},"8240DB007174":{"name":"Peter & Paul Church","lat":53.603952,"lng":-6.184446,"code":"7174"},"8240DB007297":{"name":"Connolly Hospital","lat":53.388016,"lng":-6.370787,"code":"7297"},"8240DB007298":{"name":"Connolly Hospital","lat":53.387569,"lng":-6.370293,"code":"7298"},"8240DB007374":{"name":"Junction 6","lat":53.383986,"lng":-6.365243,"code":"7374"},"8240DB007389":{"name":"Junction 6","lat":53.386018,"lng":-6.370608,"code":"7389"},"8240DB008243":{"name":"Ballymun Kickhams","lat":53.417428,"lng":-6.264607,"code":"8243"},"8250B1022401":{"name":"Cabinteely Cross","lat":53.262441,"lng":-6.150357,"code":"102241"},"8250B1350601":{"name":"UCD Belfield Campus","lat":53.305315,"lng":-6.216635,"code":"135061"},"8250DB000435":{"name":"Sycamore Crescent","lat":53.295989,"lng":-6.203746,"code":"435"},"8250DB000461":{"name":"Stillorgan Pk Hotel","lat":53.2948,"lng":-6.203541,"code":"461"},"8250DB000768":{"name":"UCD Stillorgan Rd","lat":53.309418,"lng":-6.218775,"code":"768"},"8250DB002007":{"name":"Woodbine Road","lat":53.308875,"lng":-6.216111,"code":"2007"},"8250DB002016":{"name":"Newtownpark Avenue","lat":53.278209,"lng":-6.184067,"code":"2016"},"8250DB002017":{"name":"Foxrock Church","lat":53.274197,"lng":-6.175015,"code":"2017"},"8250DB002060":{"name":"Foxrock Church","lat":53.273955,"lng":-6.175086,"code":"2060"},"8250DB002062":{"name":"Newtownpark Avenue","lat":53.279024,"lng":-6.186852,"code":"2062"},"8250DB003134":{"name":"Wyattville Road","lat":53.246907,"lng":-6.136031,"code":"3134"},"8250DB003135":{"name":"Hospital","lat":53.242929,"lng":-6.130555,"code":"3135"},"8250DB003143":{"name":"Hospital","lat":53.242691,"lng":-6.13082,"code":"3143"},"8250DB003145":{"name":"Willow Court","lat":53.247921,"lng":-6.138235,"code":"3145"},"8250DB004571":{"name":"Stillorgan Park","lat":53.288979,"lng":-6.194875,"code":"4571"},"8250DB004727":{"name":"Laurence Park","lat":53.290812,"lng":-6.197783,"code":"4727"},"8250DB005127":{"name":"Cabinteely Bypass","lat":53.262016,"lng":-6.15041,"code":"5127"},"8250DB005128":{"name":"Clonkeen Road","lat":53.265527,"lng":-6.157739,"code":"5128"},"8250DB007362":{"name":"Clonkeen Road","lat":53.265939,"lng":-6.157692,"code":"7362"},"8260B0103541":{"name":"Pinewood Court","lat":53.40492,"lng":-6.67706,"code":"103541"},"8260B0103551":{"name":"Pinewood Court","lat":53.405,"lng":-6.67674,"code":"103551"},"8260B1031601":{"name":"Maynooth University","lat":53.382085,"lng":-6.598795,"code":"103161"},"8260B1032201":{"name":"Moyvalley","lat":53.427362,"lng":-6.909633,"code":"103221"},"8260B103361":{"name":"Ballynadrumny","lat":53.428907,"lng":-6.957837,"code":"103361"},"8260B1033701":{"name":"Moyvalley","lat":53.427496,"lng":-6.909585,"code":"103371"},"8260B103391":{"name":"Cloncurry Cross","lat":53.41544,"lng":-6.791443,"code":"103391"},"8260B103421":{"name":"Kilcock Square","lat":53.400305,"lng":-6.667297,"code":"103421"},"8260B1034301":{"name":"Maynooth University","lat":53.382175,"lng":-6.598822,"code":"103431"},"8260B1329901":{"name":"Ballynadrumny","lat":53.42906,"lng":-6.957833,"code":"132991"},"8260B1333601":{"name":"Cloncurry Cross","lat":53.415267,"lng":-6.79217,"code":"133361"},"8260B133391":{"name":"Ferrans Lock","lat":53.411969,"lng":-6.712179,"code":"133391"},"8260B133411":{"name":"Ferrans Lock","lat":53.411966,"lng":-6.711908,"code":"133411"},"8260B1340301":{"name":"Kilcock","lat":53.399067,"lng":-6.667516,"code":"134031"},"8260B134061":{"name":"Millerstown","lat":53.395692,"lng":-6.656675,"code":"134061"},"8260B134081":{"name":"Millerstown","lat":53.39599,"lng":-6.657567,"code":"134081"},"8260B1354601":{"name":"Maynooth Station","lat":53.379678,"lng":-6.589058,"code":"135461"},"8260DB003918":{"name":"Old Greenfield","lat":53.37645,"lng":-6.587422,"code":"3918"},"8260DB005115":{"name":"Kilcock","lat":53.403179,"lng":-6.671162,"code":"5115"},"8260DB005117":{"name":"Kilcock","lat":53.404444,"lng":-6.673409,"code":"5117"},"8270B0351791":{"name":"Cloghabrody","lat":52.53288,"lng":-7.13953,"code":"351791"},"8270B0351861":{"name":"Cloghabrody","lat":52.53297,"lng":-7.1393,"code":"351861"},"8270B1360901":{"name":"Gowran","lat":52.628326,"lng":-7.070169,"code":"136091"},"8270B136101":{"name":"Thomastown","lat":52.525714,"lng":-7.139022,"code":"136101"},"8270B136111":{"name":"Ballyhale","lat":52.467569,"lng":-7.200764,"code":"136111"},"8270B136121":{"name":"Mullinavat","lat":52.368248,"lng":-7.171074,"code":"136121"},"8270B3305801":{"name":"Knocktopher","lat":52.486171,"lng":-7.214827,"code":"330581"},"8270B3306501":{"name":"Ballyhale","lat":52.467361,"lng":-7.200547,"code":"330651"},"8270B3311201":{"name":"Lukeswell","lat":52.396603,"lng":-7.184737,"code":"331121"},"8270B331981":{"name":"Piltown","lat":52.351168,"lng":-7.331918,"code":"331981"},"8270B332871":{"name":"Fiddown","lat":52.333063,"lng":-7.316658,"code":"332871"},"8270B332881":{"name":"Mooncoin","lat":52.295934,"lng":-7.260447,"code":"332881"},"8270B3378001":{"name":"Kilkenny Stn","lat":52.65414,"lng":-7.242973,"code":"337801"},"8270B337811":{"name":"Ormonde Road","lat":52.648113,"lng":-7.252244,"code":"337811"},"8270B3384801":{"name":"Paulstown","lat":52.680771,"lng":-7.029553,"code":"338481"},"8270B3386701":{"name":"Mullinavat","lat":52.368714,"lng":-7.170963,"code":"338671"},"8270B3389501":{"name":"Inistioge","lat":52.488797,"lng":-7.065472,"code":"338951"},"8270B3389701":{"name":"Ballykeoghan","lat":52.330855,"lng":-7.160916,"code":"338971"},"8270B3390501":{"name":"Clonamery","lat":52.469097,"lng":-7.001968,"code":"339051"},"8270B339131":{"name":"Clonamery","lat":52.46908,"lng":-7.002101,"code":"339131"},"8270B339211":{"name":"Stripes","lat":52.434785,"lng":-6.960947,"code":"339211"},"8270B3392901":{"name":"Stripes","lat":52.434751,"lng":-6.961227,"code":"339291"},"8270B339881":{"name":"Paulstown","lat":52.680491,"lng":-7.030565,"code":"339881"},"8270B339951":{"name":"Inistioge","lat":52.48843,"lng":-7.06541,"code":"339951"},"8270B3505501":{"name":"Gowran","lat":52.628186,"lng":-7.070615,"code":"350551"},"8270B3510301":{"name":"Thomastown","lat":52.52531,"lng":-7.137895,"code":"351031"},"8270B351041":{"name":"Knocktopher","lat":52.486013,"lng":-7.215463,"code":"351041"},"8270B351101":{"name":"Lukeswell","lat":52.396646,"lng":-7.184413,"code":"351101"},"8270B3511601":{"name":"Bennettsbridge","lat":52.592163,"lng":-7.184389,"code":"351161"},"8270B3511602":{"name":"Bennettsbridge","lat":52.591758,"lng":-7.184308,"code":"351162"},"8270B351171":{"name":"Ballykeoghan","lat":52.33099,"lng":-7.160884,"code":"351171"},"8270B3512601":{"name":"Glenmore","lat":52.35356,"lng":-7.022893,"code":"351261"},"8270B351461":{"name":"Glenmore","lat":52.353525,"lng":-7.022997,"code":"351461"},"8270B351501":{"name":"Kilmacow","lat":52.311865,"lng":-7.176645,"code":"351501"},"8270B351511":{"name":"Kilmacow","lat":52.31357,"lng":-7.175015,"code":"351511"},"8270B3580801":{"name":"Piltown","lat":52.351148,"lng":-7.330762,"code":"358081"},"8270B3580901":{"name":"Fiddown","lat":52.332767,"lng":-7.31587,"code":"358091"},"8270B3581001":{"name":"Mooncoin","lat":52.295794,"lng":-7.259731,"code":"358101"},"8270B5571201":{"name":"Ormonde Road","lat":52.648229,"lng":-7.252094,"code":"557121"},"8280B1315601":{"name":"Mountmellick","lat":53.117395,"lng":-7.327096,"code":"131561"},"8280B1315602":{"name":"Mountmellick","lat":53.117481,"lng":-7.326961,"code":"131562"},"8280B1553201":{"name":"Portlaoise JFL Ave","lat":53.03276,"lng":-7.29629,"code":"155321"},"8280B1554101":{"name":"Portlaoise JFL Ave","lat":53.032906,"lng":-7.297705,"code":"155411"},"8280B330831":{"name":"Stradbally","lat":53.013666,"lng":-7.146256,"code":"330831"},"8280B3308701":{"name":"Stradbally","lat":53.015956,"lng":-7.150046,"code":"330871"},"8290B104421":{"name":"Edgeworthstown","lat":53.696713,"lng":-7.611005,"code":"104421"},"8290B104951":{"name":"Granard","lat":53.777316,"lng":-7.496276,"code":"104951"},"8290B1049601":{"name":"Abbeylara","lat":53.765417,"lng":-7.44896,"code":"104961"},"8290B131141":{"name":"Edgeworthstown","lat":53.696767,"lng":-7.611126,"code":"131141"},"8290B1313701":{"name":"Abbeylara","lat":53.765182,"lng":-7.448797,"code":"131371"},"8290B1357701":{"name":"Longford Stn","lat":53.724391,"lng":-7.796019,"code":"135771"},"8290B135801":{"name":"Longford Centre","lat":53.728542,"lng":-7.801333,"code":"135801"},"8290B1359001":{"name":"Granard","lat":53.777558,"lng":-7.496091,"code":"135901"},"8290B141591":{"name":"St Josephs Care Ctr","lat":53.725114,"lng":-7.788363,"code":"141591"},"8290B1416701":{"name":"St Josephs Care Ctr","lat":53.724596,"lng":-7.784835,"code":"141671"},"8290B1520801":{"name":"Ballymahon","lat":53.565258,"lng":-7.766383,"code":"152081"},"8290B152151":{"name":"Ballymahon","lat":53.565212,"lng":-7.766172,"code":"152151"},"8290B152201":{"name":"Newtownforbes","lat":53.767423,"lng":-7.834488,"code":"152201"},"8290B551581":{"name":"Cloonfiugh","lat":53.673006,"lng":-7.90334,"code":"551581"},"8290B551591":{"name":"Cloonfiugh","lat":53.672988,"lng":-7.903446,"code":"551591"},"8290B553421":{"name":"Lanesborough","lat":53.672425,"lng":-7.988831,"code":"553421"},"8290B553451":{"name":"Lanesborough","lat":53.672775,"lng":-7.989467,"code":"553451"},"8290B556281":{"name":"Newtownforbes","lat":53.766407,"lng":-7.834903,"code":"556281"},"8290B557251":{"name":"Killashee","lat":53.681559,"lng":-7.880448,"code":"557251"},"8290B557271":{"name":"Killashee","lat":53.681523,"lng":-7.880357,"code":"557271"},"8290B557731":{"name":"Keenagh","lat":53.623838,"lng":-7.816019,"code":"557731"},"8290B557751":{"name":"Keenagh","lat":53.623856,"lng":-7.815883,"code":"557751"},"830000001":{"name":"Garrybawn","lat":53.99199,"lng":-6.39168,"code":"680251"},"830000002":{"name":"Grange Drive","lat":53.98833,"lng":-6.38069,"code":"680261"},"830000067":{"name":"Park Street","lat":54.00207,"lng":-6.40384,"code":"680221"},"830000069":{"name":"Dundalk R Pk","lat":53.9876,"lng":-6.37744,"code":"680421"},"8300B0068023":{"name":"Ashbrook","lat":53.99547,"lng":-6.39865,"code":"680231"},"8300B0068024":{"name":"Woodbury Gardens","lat":53.99283,"lng":-6.39594,"code":"680241"},"8300B0068027":{"name":"College Mnr","lat":53.98781,"lng":-6.38804,"code":"680271"},"8300B0107051":{"name":"Linenfield","lat":53.73872,"lng":-6.34832,"code":"107051"},"8300B0107061":{"name":"Linenfield","lat":53.7386,"lng":-6.34854,"code":"107061"},"8300B014659":{"name":"Lavin Park","lat":53.73956,"lng":-6.41336,"code":"14659"},"8300B014660":{"name":"Lavin Park","lat":53.73949,"lng":-6.4136,"code":"14660"},"8300B014966":{"name":"Kilsaran","lat":53.88567,"lng":-6.38839,"code":"14966"},"8300B014967":{"name":"Kilsaran","lat":53.88548,"lng":-6.38867,"code":"14967"},"8300B014968":{"name":"Fatima Drive","lat":54.019178,"lng":-6.426272,"code":"14968"},"8300B014981":{"name":"Ard na Mara","lat":53.79518,"lng":-6.24487,"code":"14981"},"8300B014982":{"name":"Ard na Mara","lat":53.79513,"lng":-6.24448,"code":"14982"},"8300B0170001":{"name":"Mell","lat":53.719069,"lng":-6.367992,"code":"170001"},"8300B0680281":{"name":"Legion Avenue","lat":54.01199,"lng":-6.40832,"code":"680281"},"8300B0680291":{"name":"Woodview Terrace","lat":54.01365,"lng":-6.41564,"code":"680291"},"8300B0680301":{"name":"St Ronan's Terrace","lat":54.01429,"lng":-6.41839,"code":"680301"},"8300B0680311":{"name":"De La Salle College","lat":54.01652,"lng":-6.42936,"code":"680311"},"8300B0680321":{"name":"Barton Pk","lat":54.013268,"lng":-6.418402,"code":"680321"},"8300B0680331":{"name":"Redeemer Cntr","lat":54.00742,"lng":-6.41841,"code":"680331"},"8300B0680341":{"name":"Pc Sliabh na gCloch","lat":54.00424,"lng":-6.41993,"code":"680341"},"8300B0680351":{"name":"Redeemer Ch","lat":54.00516,"lng":-6.41554,"code":"680351"},"8300B0680361":{"name":"Legion Avenue","lat":54.01252,"lng":-6.4101,"code":"680361"},"8300B0680371":{"name":"Point Road","lat":54.00577,"lng":-6.36755,"code":"680371"},"8300B0680381":{"name":"Greenwood Drive","lat":54.00048,"lng":-6.36913,"code":"680381"},"8300B0680391":{"name":"Cherryvale","lat":53.99609,"lng":-6.37762,"code":"680391"},"8300B0680401":{"name":"Ashgrove","lat":53.99391,"lng":-6.37547,"code":"680401"},"8300B0680411":{"name":"Bothar Na Feirme","lat":53.98823,"lng":-6.37211,"code":"680411"},"8300B100381":{"name":"Drogheda Stn","lat":53.712555,"lng":-6.338864,"code":"100381"},"8300B100511":{"name":"Magdalene Tower","lat":53.718322,"lng":-6.349076,"code":"100511"},"8300B100521":{"name":"Stapleton Place","lat":53.998882,"lng":-6.405948,"code":"100521"},"8300B100551":{"name":"Hardman's Gdns","lat":53.721223,"lng":-6.349599,"code":"100551"},"8300B100601":{"name":"Melifont Pk","lat":53.723804,"lng":-6.362818,"code":"100601"},"8300B100621":{"name":"St Mary's Hospital","lat":53.713305,"lng":-6.341819,"code":"100621"},"8300B101401":{"name":"Lios Na Dara","lat":53.99977,"lng":-6.421832,"code":"101401"},"8300B101491":{"name":"Lios Na Dara","lat":53.99966,"lng":-6.42227,"code":"101491"},"8300B102011":{"name":"Gyles Quay","lat":53.997508,"lng":-6.239861,"code":"102011"},"8300B102031":{"name":"Greenore","lat":54.033575,"lng":-6.131622,"code":"102031"},"8300B103471":{"name":"Five Oaks","lat":53.705285,"lng":-6.322867,"code":"103471"},"8300B103501":{"name":"Bryanstown Mnr","lat":53.710289,"lng":-6.334287,"code":"103501"},"8300B103581":{"name":"St Mary's Hospital","lat":53.713203,"lng":-6.342868,"code":"103581"},"8300B103591":{"name":"Drogheda Bus","lat":53.712612,"lng":-6.353847,"code":"103591"},"8300B103611":{"name":"Cross Lane","lat":53.72443,"lng":-6.359324,"code":"103611"},"8300B103621":{"name":"Brookville","lat":53.72494,"lng":-6.34537,"code":"103621"},"8300B103641":{"name":"Newfield Est","lat":53.722322,"lng":-6.3381,"code":"103641"},"8300B103651":{"name":"The Chesters","lat":53.726942,"lng":-6.332295,"code":"103651"},"8300B103661":{"name":"Termon Aby","lat":53.72896,"lng":-6.33038,"code":"103661"},"8300B103731":{"name":"Grange Rise","lat":53.72737,"lng":-6.34377,"code":"103731"},"8300B103781":{"name":"Grange Rise","lat":53.726677,"lng":-6.343657,"code":"103781"},"8300B103991":{"name":"Mill Haven","lat":53.729297,"lng":-6.344645,"code":"103991"},"8300B104011":{"name":"Ballymakenny Coll","lat":53.730284,"lng":-6.345244,"code":"104011"},"8300B104411":{"name":"Ballymakenny Coll","lat":53.730283,"lng":-6.345122,"code":"104411"},"8300B104571":{"name":"Mill Haven","lat":53.729142,"lng":-6.344439,"code":"104571"},"8300B105081":{"name":"Ballymascanlan Rnbt","lat":54.036063,"lng":-6.383197,"code":"105081"},"8300B1050901":{"name":"Dundalk Bus Stn","lat":54.00532,"lng":-6.40413,"code":"105091"},"8300B1056301":{"name":"Flurrybridge","lat":54.099674,"lng":-6.360769,"code":"105631"},"8300B106001":{"name":"Muchgrange","lat":54.011866,"lng":-6.138256,"code":"106001"},"8300B106501":{"name":"Drogheda Hospl","lat":53.72334,"lng":-6.3543,"code":"106501"},"8300B106511":{"name":"Drogheda Hospl","lat":53.72328,"lng":-6.35449,"code":"106511"},"8300B106541":{"name":"Dromiskin","lat":53.921337,"lng":-6.400241,"code":"106541"},"8300B1070101":{"name":"Dundalk IT","lat":53.984181,"lng":-6.395973,"code":"107011"},"8300B1070201":{"name":"Dromiskin","lat":53.92142,"lng":-6.39966,"code":"107021"},"8300B107041":{"name":"Annagassan","lat":53.882365,"lng":-6.342999,"code":"107041"},"8300B107091":{"name":"Annaghvacky","lat":54.035065,"lng":-6.546454,"code":"107091"},"8300B107821":{"name":"Louth","lat":53.950681,"lng":-6.540767,"code":"107821"},"8300B107831":{"name":"Mullacrew","lat":53.937773,"lng":-6.539725,"code":"107831"},"8300B107841":{"name":"Tallanstown","lat":53.919508,"lng":-6.547609,"code":"107841"},"8300B1079701":{"name":"Fatima Park","lat":54.020179,"lng":-6.42824,"code":"107971"},"8300B1079901":{"name":"Bay Estate","lat":53.997479,"lng":-6.374382,"code":"107991"},"8300B1082601":{"name":"Tullyallen","lat":53.736773,"lng":-6.419068,"code":"108261"},"8300B108311":{"name":"Scarlet Street","lat":53.719978,"lng":-6.34142,"code":"108311"},"8300B108321":{"name":"Harmony Heights","lat":53.724212,"lng":-6.332772,"code":"108321"},"8300B108331":{"name":"Harmony Heights","lat":53.723973,"lng":-6.332959,"code":"108331"},"8300B108341":{"name":"Hardman's Gdns","lat":53.720553,"lng":-6.349913,"code":"108341"},"8300B1086301":{"name":"Termonfeckin","lat":53.762264,"lng":-6.268674,"code":"108631"},"8300B108651":{"name":"Clogherhead","lat":53.791719,"lng":-6.238943,"code":"108651"},"8300B108661":{"name":"Dales","lat":53.798157,"lng":-6.254537,"code":"108661"},"8300B108671":{"name":"Dales","lat":53.79819,"lng":-6.254338,"code":"108671"},"8300B108681":{"name":"Clogherhead","lat":53.791717,"lng":-6.238806,"code":"108681"},"8300B1087501":{"name":"Ravensdale","lat":54.055311,"lng":-6.337574,"code":"108751"},"8300B108761":{"name":"Ardee Ch","lat":53.852558,"lng":-6.538255,"code":"108761"},"8300B108771":{"name":"Ardee Ch","lat":53.852195,"lng":-6.537994,"code":"108771"},"8300B108911":{"name":"Carlingford","lat":54.040823,"lng":-6.185244,"code":"108911"},"8300B108921":{"name":"Ballyonan","lat":54.07387,"lng":-6.240987,"code":"108921"},"8300B108931":{"name":"Omeath","lat":54.087587,"lng":-6.25846,"code":"108931"},"8300B108941":{"name":"Cornamucklagh","lat":54.108981,"lng":-6.286974,"code":"108941"},"8300B108971":{"name":"Knockbridge","lat":53.97158,"lng":-6.486593,"code":"108971"},"8300B109121":{"name":"Collon","lat":53.778467,"lng":-6.486708,"code":"109121"},"8300B109141":{"name":"Castle Park","lat":54.015442,"lng":-6.423444,"code":"109141"},"8300B109151":{"name":"Farndreg","lat":54.008836,"lng":-6.41994,"code":"109151"},"8300B109161":{"name":"Woodview Terrace","lat":54.013158,"lng":-6.413078,"code":"109161"},"8300B109171":{"name":"Seatown Place","lat":54.00558,"lng":-6.3892,"code":"109171"},"8300B109181":{"name":"Quay Street","lat":54.007173,"lng":-6.38209,"code":"109181"},"8300B109191":{"name":"Lennonstown Mnr","lat":54.00342,"lng":-6.368399,"code":"109191"},"8300B109201":{"name":"Kingswood","lat":53.991857,"lng":-6.370666,"code":"109201"},"8300B109211":{"name":"Aghameen Park","lat":53.986931,"lng":-6.38254,"code":"109211"},"8300B109221":{"name":"\u00d3 Fiaich College","lat":53.986574,"lng":-6.39277,"code":"109221"},"8300B109231":{"name":"Park Street","lat":54.002155,"lng":-6.404069,"code":"109231"},"8300B109241":{"name":"Dundalk Sports","lat":53.991323,"lng":-6.3872,"code":"109241"},"8300B109251":{"name":"Slieveroe Cres","lat":53.992241,"lng":-6.382456,"code":"109251"},"8300B109401":{"name":"Scotch Hall","lat":53.713497,"lng":-6.347887,"code":"109401"},"8300B109411":{"name":"St Joseph's Terrace","lat":53.719107,"lng":-6.372304,"code":"109411"},"8300B109441":{"name":"Hunterstown","lat":53.827967,"lng":-6.533657,"code":"109441"},"8300B109461":{"name":"Cherrybrook","lat":53.845481,"lng":-6.538638,"code":"109461"},"8300B109471":{"name":"Hunterstown","lat":53.827343,"lng":-6.533345,"code":"109471"},"8300B1095101":{"name":"Tullyallen","lat":53.736828,"lng":-6.419127,"code":"109511"},"8300B109521":{"name":"Saint Malachy's Vil","lat":53.998182,"lng":-6.410795,"code":"109521"},"8300B1095401":{"name":"Knockbridge","lat":53.971587,"lng":-6.486486,"code":"109541"},"8300B109551":{"name":"Saint Malachy's Vil","lat":53.998843,"lng":-6.409973,"code":"109551"},"8300B1095601":{"name":"Louth","lat":53.950719,"lng":-6.540887,"code":"109561"},"8300B109571":{"name":"Mullacrew","lat":53.937755,"lng":-6.539756,"code":"109571"},"8300B1095801":{"name":"Tallanstown","lat":53.919824,"lng":-6.547781,"code":"109581"},"8300B109591":{"name":"Cherrybrook","lat":53.846924,"lng":-6.539044,"code":"109591"},"8300B109631":{"name":"Mooretown","lat":53.944519,"lng":-6.383084,"code":"109631"},"8300B109641":{"name":"Commons Grove","lat":53.932215,"lng":-6.406556,"code":"109641"},"8300B109661":{"name":"Annagassan","lat":53.882201,"lng":-6.342793,"code":"109661"},"8300B111311":{"name":"Bellurgan","lat":54.015746,"lng":-6.320473,"code":"111311"},"8300B111481":{"name":"Grammar School","lat":53.719102,"lng":-6.305164,"code":"111481"},"8300B111491":{"name":"Weirhope","lat":53.714984,"lng":-6.335814,"code":"111491"},"8300B111501":{"name":"Scotch Hall","lat":53.713597,"lng":-6.347928,"code":"111501"},"8300B111511":{"name":"Weirhope","lat":53.715187,"lng":-6.334897,"code":"111511"},"8300B111701":{"name":"Termonfeckin","lat":53.762259,"lng":-6.268736,"code":"111701"},"8300B117051":{"name":"Baltray","lat":53.737105,"lng":-6.275047,"code":"117051"},"8300B117061":{"name":"Baltray","lat":53.737221,"lng":-6.274981,"code":"117061"},"8300B117901":{"name":"Muirhevna","lat":53.99063,"lng":-6.40069,"code":"119701"},"8300B117911":{"name":"Castle Park","lat":54.01529,"lng":-6.42218,"code":"17911"},"8300B117921":{"name":"\u00c1rd Easmuinn","lat":54.00777,"lng":-6.4142,"code":"117921"},"8300B117931":{"name":"Roden Place","lat":54.00476,"lng":-6.3975,"code":"117931"},"8300B117941":{"name":"Mountain Court","lat":54.00656,"lng":-6.37462,"code":"117941"},"8300B117951":{"name":"Ladywell Sq","lat":53.99353,"lng":-6.40493,"code":"117951"},"8300B117961":{"name":"Saltown","lat":54.017763,"lng":-6.424669,"code":"117961"},"8300B1260101":{"name":"Ballsgrove","lat":53.711671,"lng":-6.361472,"code":"126011"},"8300B1260201":{"name":"Marian Park","lat":53.708437,"lng":-6.356356,"code":"126021"},"8300B1260601":{"name":"Moneymore","lat":53.725949,"lng":-6.354733,"code":"126061"},"8300B1260701":{"name":"Windml Rd","lat":53.720037,"lng":-6.356161,"code":"126071"},"8300B1261301":{"name":"Meadow View","lat":53.706413,"lng":-6.346437,"code":"126131"},"8300B126191":{"name":"Highlands","lat":53.714518,"lng":-6.38389,"code":"126191"},"8300B1262201":{"name":"West Street","lat":53.715001,"lng":-6.352676,"code":"126221"},"8300B126231":{"name":"Crushrod Ave","lat":53.72145,"lng":-6.34491,"code":"126231"},"8300B1262401":{"name":"Scarlet Street","lat":53.719653,"lng":-6.341681,"code":"126241"},"8300B1262501":{"name":"Dominick Street","lat":53.714472,"lng":-6.355363,"code":"126251"},"8300B1262601":{"name":"Saint Finian's Park","lat":53.708634,"lng":-6.368149,"code":"126261"},"8300B1262701":{"name":"Marley's Lane","lat":53.71067,"lng":-6.37542,"code":"126271"},"8300B1262801":{"name":"Hillview","lat":53.714614,"lng":-6.371039,"code":"126281"},"8300B1262901":{"name":"Rathmullan Road","lat":53.714931,"lng":-6.361996,"code":"126291"},"8300B1263001":{"name":"Mary Street","lat":53.71295,"lng":-6.346045,"code":"126301"},"8300B126311":{"name":"Riverbank","lat":53.715582,"lng":-6.38544,"code":"126311"},"8300B126321":{"name":"St Oliver's College","lat":53.714504,"lng":-6.3788,"code":"126321"},"8300B126331":{"name":"Lidl Drogheda","lat":53.705723,"lng":-6.369534,"code":"126331"},"8300B131211":{"name":"Louth County Hospl","lat":53.98858,"lng":-6.399022,"code":"131211"},"8300B1312401":{"name":"Haggardstown","lat":53.962722,"lng":-6.386723,"code":"131241"},"8300B1314101":{"name":"Castlebellingham","lat":53.897522,"lng":-6.389526,"code":"131411"},"8300B131451":{"name":"Saint Mary's Villas","lat":53.888254,"lng":-6.388665,"code":"131451"},"8300B1316301":{"name":"Dunleer","lat":53.825121,"lng":-6.394569,"code":"131631"},"8300B1319801":{"name":"Monasterboice","lat":53.768399,"lng":-6.398675,"code":"131981"},"8300B132051":{"name":"Silloge","lat":53.765676,"lng":-6.395365,"code":"132051"},"8300B133581":{"name":"Haggardstown","lat":53.963015,"lng":-6.387108,"code":"133581"},"8300B1359401":{"name":"M1 Retail Park","lat":53.727093,"lng":-6.387303,"code":"135941"},"8300B1359501":{"name":"Drogheda Bus","lat":53.71172,"lng":-6.35339,"code":"135951"},"8300B136021":{"name":"Aston Village","lat":53.732884,"lng":-6.329817,"code":"136021"},"8300B136131":{"name":"Cedarfield","lat":53.705278,"lng":-6.374474,"code":"136131"},"8300B136141":{"name":"Cedarfield","lat":53.705072,"lng":-6.375209,"code":"136141"},"8300B136651":{"name":"The Chesters","lat":53.727102,"lng":-6.332183,"code":"136651"},"8300B136661":{"name":"Newfield Est","lat":53.722179,"lng":-6.338121,"code":"136661"},"8300B136681":{"name":"Brookville","lat":53.72498,"lng":-6.34498,"code":"136681"},"8300B136701":{"name":"Cross Lane","lat":53.724314,"lng":-6.359389,"code":"136701"},"8300B136821":{"name":"O'Raghallaigh's GAA","lat":53.7218,"lng":-6.35967,"code":"136821"},"8300B136831":{"name":"George's Street","lat":53.7165,"lng":-6.35706,"code":"136831"},"8300B136851":{"name":"Drogheda Bus","lat":53.71257,"lng":-6.35209,"code":"136851"},"8300B136881":{"name":"Bryanstown Mnr","lat":53.709332,"lng":-6.332053,"code":"136881"},"8300B137011":{"name":"Blackbull","lat":53.707824,"lng":-6.327038,"code":"137011"},"8300B137021":{"name":"Five Oaks","lat":53.705485,"lng":-6.323025,"code":"137021"},"8300B137041":{"name":"Termon Aby","lat":53.72894,"lng":-6.33019,"code":"137041"},"8300B137051":{"name":"Crushrod Ave","lat":53.72152,"lng":-6.345568,"code":"137051"},"8300B137071":{"name":"Windml Rd","lat":53.719985,"lng":-6.356966,"code":"137071"},"8300B137161":{"name":"Newfoundwell Rd","lat":53.720893,"lng":-6.340687,"code":"137161"},"8300B137171":{"name":"Beaulieu Vllge","lat":53.730187,"lng":-6.328453,"code":"137171"},"8300B137181":{"name":"Drogheda Stn","lat":53.712163,"lng":-6.337834,"code":"137181"},"8300B137201":{"name":"James Street","lat":53.713138,"lng":-6.346613,"code":"137201"},"8300B137221":{"name":"James Street","lat":53.713221,"lng":-6.348049,"code":"137221"},"8300B137231":{"name":"O'Raghallaigh's GAA","lat":53.722587,"lng":-6.361259,"code":"137231"},"8300B137251":{"name":"Blackbull","lat":53.707774,"lng":-6.327312,"code":"137251"},"8300B137311":{"name":"Bryanstown Vllge","lat":53.708535,"lng":-6.330963,"code":"137311"},"8300B137321":{"name":"Windml Rd","lat":53.72035,"lng":-6.35739,"code":"137321"},"8300B137341":{"name":"Bryanstown Vllge","lat":53.708727,"lng":-6.331213,"code":"137341"},"8300B137351":{"name":"Stameen","lat":53.704579,"lng":-6.318638,"code":"137351"},"8300B137361":{"name":"Beaulieu Vllge","lat":53.730124,"lng":-6.328426,"code":"137361"},"8300B137371":{"name":"Newfoundwell Rd","lat":53.720865,"lng":-6.340597,"code":"137371"},"8300B138921":{"name":"Grangebellew","lat":53.816045,"lng":-6.335639,"code":"138921"},"8300B138931":{"name":"Stapleton Place","lat":53.99869,"lng":-6.405712,"code":"138931"},"8300B138941":{"name":"Louth County Hospl","lat":53.989176,"lng":-6.399213,"code":"138941"},"8300B138951":{"name":"Dundalk IT","lat":53.983388,"lng":-6.395165,"code":"138951"},"8300B138961":{"name":"Castlebellingham","lat":53.897582,"lng":-6.389295,"code":"138961"},"8300B138971":{"name":"Dunleer","lat":53.831909,"lng":-6.395068,"code":"138971"},"8300B139001":{"name":"Grangebellew","lat":53.816106,"lng":-6.335484,"code":"139001"},"8300B139141":{"name":"George's Street","lat":53.716592,"lng":-6.35728,"code":"139141"},"8300B139151":{"name":"Melifont Pk","lat":53.723916,"lng":-6.363132,"code":"139151"},"8300B139161":{"name":"Killineer","lat":53.749795,"lng":-6.38196,"code":"139161"},"8300B139171":{"name":"Silloge","lat":53.765144,"lng":-6.395219,"code":"139171"},"8300B139181":{"name":"Monasterboice","lat":53.768375,"lng":-6.398952,"code":"139181"},"8300B139191":{"name":"Mullins Cross","lat":53.857755,"lng":-6.401756,"code":"139191"},"8300B139201":{"name":"Saint Mary's Villas","lat":53.887829,"lng":-6.388484,"code":"139201"},"8300B139211":{"name":"Greengates","lat":53.957355,"lng":-6.385895,"code":"139211"},"8300B139241":{"name":"Greengates","lat":53.955981,"lng":-6.385338,"code":"139241"},"8300B139251":{"name":"St Oliver's Park","lat":53.889194,"lng":-6.388446,"code":"139251"},"8300B139261":{"name":"Mullins Cross","lat":53.857913,"lng":-6.401431,"code":"139261"},"8300B139291":{"name":"Tullyeskar","lat":53.757067,"lng":-6.386018,"code":"139291"},"8300B139301":{"name":"St Oliver's Park","lat":53.889413,"lng":-6.388636,"code":"139301"},"8300B139311":{"name":"Drogheda Inst","lat":53.72842,"lng":-6.357941,"code":"139311"},"8300B139321":{"name":"Shrewsbury Manor","lat":53.72033,"lng":-6.32835,"code":"139321"},"8300B139331":{"name":"Riverside Crescent","lat":54.013866,"lng":-6.401439,"code":"139331"},"8300B139341":{"name":"Doylesfort Rd","lat":54.019363,"lng":-6.396451,"code":"139341"},"8300B139351":{"name":"Dowdallshill","lat":54.025212,"lng":-6.394619,"code":"139351"},"8300B139361":{"name":"St Patrick's Cmtry","lat":54.021964,"lng":-6.395405,"code":"139361"},"8300B139371":{"name":"Strandfield","lat":54.034825,"lng":-6.380681,"code":"139371"},"8300B139381":{"name":"Ballymascanlan","lat":54.032501,"lng":-6.359124,"code":"139381"},"8300B139391":{"name":"Jenkinstown","lat":54.008232,"lng":-6.292977,"code":"139391"},"8300B139401":{"name":"Annaloughan","lat":54.00224,"lng":-6.276777,"code":"139401"},"8300B139411":{"name":"Lordship","lat":53.999871,"lng":-6.26397,"code":"139411"},"8300B139421":{"name":"Mountbagnal","lat":53.997161,"lng":-6.235864,"code":"139421"},"8300B139431":{"name":"Riverstown","lat":53.994332,"lng":-6.218886,"code":"139431"},"8300B139441":{"name":"Monksland","lat":54.00484,"lng":-6.177641,"code":"139441"},"8300B139451":{"name":"Willville","lat":53.997446,"lng":-6.158379,"code":"139451"},"8300B139461":{"name":"Millgrange","lat":54.019751,"lng":-6.145443,"code":"139461"},"8300B139471":{"name":"Knocknagoran","lat":54.083895,"lng":-6.252974,"code":"139471"},"8300B139521":{"name":"Cornamucklagh","lat":54.109049,"lng":-6.286681,"code":"139521"},"8300B139531":{"name":"Omeath","lat":54.087512,"lng":-6.258203,"code":"139531"},"8300B139541":{"name":"Knocknagoran","lat":54.08403,"lng":-6.252984,"code":"139541"},"8300B139551":{"name":"Ballyonan","lat":54.074127,"lng":-6.241343,"code":"139551"},"8300B139561":{"name":"Carlingford","lat":54.040876,"lng":-6.185196,"code":"139561"},"8300B139581":{"name":"Millgrange","lat":54.019629,"lng":-6.144533,"code":"139581"},"8300B139591":{"name":"Muchgrange","lat":54.011855,"lng":-6.138134,"code":"139591"},"8300B139601":{"name":"Willville","lat":53.99743,"lng":-6.157906,"code":"139601"},"8300B139611":{"name":"Monksland","lat":54.004668,"lng":-6.177588,"code":"139611"},"8300B139621":{"name":"Galtrimsland","lat":54.00058,"lng":-6.178239,"code":"139621"},"8300B139631":{"name":"Bush School","lat":53.998893,"lng":-6.189128,"code":"139631"},"8300B139641":{"name":"Riverstown","lat":53.994181,"lng":-6.21845,"code":"139641"},"8300B139651":{"name":"Mountbagnal","lat":53.997072,"lng":-6.235913,"code":"139651"},"8300B139661":{"name":"Gyles Quay","lat":53.997154,"lng":-6.240288,"code":"139661"},"8300B139671":{"name":"Lordship","lat":53.999781,"lng":-6.263943,"code":"139671"},"8300B139681":{"name":"Bellurgan","lat":54.015217,"lng":-6.319945,"code":"139681"},"8300B139691":{"name":"Ballymascanlan","lat":54.032535,"lng":-6.359641,"code":"139691"},"8300B139701":{"name":"Strandfield","lat":54.034645,"lng":-6.380703,"code":"139701"},"8300B139711":{"name":"Doolargy","lat":54.043062,"lng":-6.331741,"code":"139711"},"8300B139721":{"name":"Dowdallshill","lat":54.023837,"lng":-6.395012,"code":"139721"},"8300B139731":{"name":"St Patrick's Cmtry","lat":54.021665,"lng":-6.395233,"code":"139731"},"8300B139741":{"name":"Doylesfort Rd","lat":54.018948,"lng":-6.396376,"code":"139741"},"8300B139751":{"name":"Riverside Crescent","lat":54.013606,"lng":-6.401449,"code":"139751"},"8300B139801":{"name":"Flurrybridge","lat":54.099505,"lng":-6.360868,"code":"139801"},"8300B139811":{"name":"Ravensdale","lat":54.055504,"lng":-6.337902,"code":"139811"},"8300B139821":{"name":"Broughattin","lat":54.049851,"lng":-6.344374,"code":"139821"},"8300B139831":{"name":"Broughattin","lat":54.049875,"lng":-6.344159,"code":"139831"},"8300B139851":{"name":"Ballymascanlan Rnbt","lat":54.036218,"lng":-6.382466,"code":"139851"},"8300B139861":{"name":"Dunleer","lat":53.829467,"lng":-6.393946,"code":"139861"},"8300B139871":{"name":"Doolargy","lat":54.042959,"lng":-6.33147,"code":"139871"},"8300B139911":{"name":"Dundalk Stn","lat":54.000108,"lng":-6.412339,"code":"139911"},"8300B139921":{"name":"Dundalk Stn","lat":54.000024,"lng":-6.412113,"code":"139921"},"8300B141321":{"name":"Commons Grove","lat":53.931913,"lng":-6.406061,"code":"141321"},"8300B152311":{"name":"Ardee","lat":53.860017,"lng":-6.541233,"code":"152311"},"8300B1523401":{"name":"Collon","lat":53.778275,"lng":-6.486487,"code":"152341"},"8300B1524301":{"name":"Ardee N33","lat":53.864704,"lng":-6.541571,"code":"152431"},"8300B1524401":{"name":"Ardee","lat":53.859921,"lng":-6.541403,"code":"152441"},"8300B152461":{"name":"Ardee N33","lat":53.864728,"lng":-6.541312,"code":"152461"},"8300B189531":{"name":"Tinure","lat":53.791129,"lng":-6.417622,"code":"189531"},"8300B189541":{"name":"Tinure","lat":53.790907,"lng":-6.418248,"code":"189541"},"8300B189551":{"name":"Mullary","lat":53.799322,"lng":-6.394579,"code":"189551"},"8300B189561":{"name":"Mullary","lat":53.799252,"lng":-6.394599,"code":"189561"},"8300B554691":{"name":"Mooretown","lat":53.944513,"lng":-6.383328,"code":"554691"},"8300LL12843":{"name":"Toberona Road","lat":54.02134,"lng":-6.43116,"code":"12843"},"8310B0102041":{"name":"Martry","lat":53.692599,"lng":-6.781849,"code":"102041"},"8310B0102051":{"name":"Martry","lat":53.692849,"lng":-6.783859,"code":"102051"},"8310B0109481":{"name":"Bettystown","lat":53.69889,"lng":-6.24449,"code":"109481"},"8310B0132761":{"name":"Keenoge","lat":53.657665,"lng":-6.26301,"code":"132761"},"8310B0137731":{"name":"Dunville","lat":53.64489,"lng":-6.64699,"code":"137731"},"8310B0137741":{"name":"Dunville","lat":53.645,"lng":-6.6473,"code":"137741"},"8310B0189651":{"name":"Blackcastle Est","lat":53.6642,"lng":-6.67239,"code":"189651"},"8310B0189671":{"name":"Carne Wood","lat":53.63435,"lng":-6.6545,"code":"189671"},"8310B0189681":{"name":"Johnstown","lat":53.6355,"lng":-6.64888,"code":"189681"},"8310B0189691":{"name":"Johnstown","lat":53.63546,"lng":-6.64847,"code":"189691"},"8310B0189701":{"name":"Carne Wood","lat":53.63444,"lng":-6.65327,"code":"189701"},"8310B0189711":{"name":"Belcourt","lat":53.662992,"lng":-6.674251,"code":"189711"},"8310B0189721":{"name":"Academy Street","lat":53.65,"lng":-6.68098,"code":"189721"},"8310B1001001":{"name":"Kiltale","lat":53.525463,"lng":-6.669645,"code":"100101"},"8310B1003201":{"name":"Gormanston Camp","lat":53.640879,"lng":-6.235902,"code":"100321"},"8310B1003301":{"name":"Sarsfieldstown","lat":53.65439,"lng":-6.258713,"code":"100331"},"8310B1003401":{"name":"Whitecross","lat":53.667892,"lng":-6.278814,"code":"100341"},"8310B1003601":{"name":"Painestown","lat":53.698329,"lng":-6.309422,"code":"100361"},"8310B100371":{"name":"Deepforde","lat":53.703413,"lng":-6.315625,"code":"100371"},"8310B100611":{"name":"Southgate SC","lat":53.701265,"lng":-6.309834,"code":"100611"},"8310B100631":{"name":"Deepforde","lat":53.702969,"lng":-6.314068,"code":"100631"},"8310B1006401":{"name":"Painestown","lat":53.697463,"lng":-6.308593,"code":"100641"},"8310B100651":{"name":"Julianstown","lat":53.672533,"lng":-6.2853,"code":"100651"},"8310B1006601":{"name":"Whitecross","lat":53.667077,"lng":-6.277107,"code":"100661"},"8310B1006701":{"name":"Keenoge","lat":53.657086,"lng":-6.261854,"code":"100671"},"8310B1006801":{"name":"Sarsfieldstown","lat":53.653783,"lng":-6.257815,"code":"100681"},"8310B1006901":{"name":"Gormanston Camp","lat":53.640885,"lng":-6.235085,"code":"100691"},"8310B1007001":{"name":"Gormanston East","lat":53.635855,"lng":-6.221276,"code":"100701"},"8310B1009601":{"name":"Alderbrook","lat":53.504902,"lng":-6.391921,"code":"100961"},"8310B100971":{"name":"Ballybin Road","lat":53.52118,"lng":-6.41133,"code":"100971"},"8310B1009801":{"name":"Tudor Grove","lat":53.51375,"lng":-6.40194,"code":"100981"},"8310B1009901":{"name":"Johnswood Court","lat":53.51631,"lng":-6.40627,"code":"100991"},"8310B1010001":{"name":"Rath","lat":53.52504,"lng":-6.41515,"code":"101001"},"8310B1010101":{"name":"Bullstown","lat":53.483069,"lng":-6.372541,"code":"101011"},"8310B101031":{"name":"Cushinstown","lat":53.573234,"lng":-6.446935,"code":"101031"},"8310B1010401":{"name":"Johnswood Court","lat":53.51668,"lng":-6.40641,"code":"101041"},"8310B1010501":{"name":"Tudor Grove","lat":53.513489,"lng":-6.400945,"code":"101051"},"8310B101061":{"name":"Ninemile Stone","lat":53.49726,"lng":-6.385126,"code":"101061"},"8310B1010801":{"name":"Newtown Commons","lat":53.468552,"lng":-6.359314,"code":"101081"},"8310B1011701":{"name":"Piercetown","lat":53.450396,"lng":-6.47667,"code":"101171"},"8310B1011801":{"name":"Ballybin","lat":53.515878,"lng":-6.418392,"code":"101181"},"8310B1011901":{"name":"Jamestown","lat":53.504497,"lng":-6.451786,"code":"101191"},"8310B1012001":{"name":"Steeplechase Hill","lat":53.508746,"lng":-6.469814,"code":"101201"},"8310B1012101":{"name":"Steeplechase Hill","lat":53.50907,"lng":-6.471898,"code":"101211"},"8310B1012201":{"name":"Bourne Avenue","lat":53.508668,"lng":-6.39594,"code":"101221"},"8310B1012301":{"name":"Jamestown","lat":53.504495,"lng":-6.450987,"code":"101231"},"8310B1012401":{"name":"Ballybin","lat":53.515935,"lng":-6.418616,"code":"101241"},"8310B1012901":{"name":"Piercetown","lat":53.45533,"lng":-6.482291,"code":"101291"},"8310B1013001":{"name":"Rathbeggan","lat":53.46794,"lng":-6.492927,"code":"101301"},"8310B1013101":{"name":"Growtown","lat":53.478212,"lng":-6.505083,"code":"101311"},"8310B1013201":{"name":"Raynestown","lat":53.483453,"lng":-6.515235,"code":"101321"},"8310B1013301":{"name":"Ballymurphy","lat":53.495409,"lng":-6.527779,"code":"101331"},"8310B1013401":{"name":"Seachnall Aby","lat":53.505776,"lng":-6.539888,"code":"101341"},"8310B1013501":{"name":"Lismullin","lat":53.588609,"lng":-6.595792,"code":"101351"},"8310B1013601":{"name":"Garlow Cross","lat":53.603167,"lng":-6.619577,"code":"101361"},"8310B101371":{"name":"Johnstown Centre","lat":53.642898,"lng":-6.659796,"code":"101371"},"8310B1013801":{"name":"Blackwater RP","lat":53.655345,"lng":-6.703819,"code":"101381"},"8310B1013901":{"name":"Liscartan","lat":53.672672,"lng":-6.74002,"code":"101391"},"8310B1014101":{"name":"Fairyhouse","lat":53.485032,"lng":-6.473666,"code":"101411"},"8310B1014201":{"name":"Kells Business Pk","lat":53.736489,"lng":-6.901754,"code":"101421"},"8310B1014301":{"name":"Carnaross","lat":53.750581,"lng":-6.955062,"code":"101431"},"8310B1014401":{"name":"Riverside","lat":53.75387,"lng":-6.963366,"code":"101441"},"8310B101481":{"name":"Ballybin Road","lat":53.5215,"lng":-6.41138,"code":"101481"},"8310B1016601":{"name":"Bullstown","lat":53.482617,"lng":-6.372362,"code":"101661"},"8310B1017001":{"name":"Riverside","lat":53.75405,"lng":-6.963362,"code":"101701"},"8310B1017101":{"name":"Carnaross","lat":53.750993,"lng":-6.955856,"code":"101711"},"8310B1017201":{"name":"Kells Business Pk","lat":53.735897,"lng":-6.899814,"code":"101721"},"8310B1017301":{"name":"Eureka School","lat":53.730614,"lng":-6.884403,"code":"101731"},"8310B1017401":{"name":"Kilmainham","lat":53.714995,"lng":-6.827974,"code":"101741"},"8310B1017501":{"name":"Hurdlestown","lat":53.707775,"lng":-6.799516,"code":"101751"},"8310B1017601":{"name":"Tankardstown","lat":53.686455,"lng":-6.768223,"code":"101761"},"8310B1017701":{"name":"Liscartan","lat":53.672318,"lng":-6.73888,"code":"101771"},"8310B1017801":{"name":"Blackwater RP","lat":53.654802,"lng":-6.701007,"code":"101781"},"8310B1017901":{"name":"Dalgan Park","lat":53.608918,"lng":-6.627338,"code":"101791"},"8310B1018001":{"name":"Ardboyne Hotel","lat":53.641969,"lng":-6.67076,"code":"101801"},"8310B1018101":{"name":"Kilcarn","lat":53.631873,"lng":-6.663245,"code":"101811"},"8310B1018201":{"name":"Garlow Cross","lat":53.603016,"lng":-6.619023,"code":"101821"},"8310B1018301":{"name":"Tara","lat":53.592742,"lng":-6.60333,"code":"101831"},"8310B1018401":{"name":"Lismullin","lat":53.58953,"lng":-6.59691,"code":"101841"},"8310B1018501":{"name":"Bourne Avenue","lat":53.508673,"lng":-6.395668,"code":"101851"},"8310B1018601":{"name":"Ross Cross","lat":53.567119,"lng":-6.579671,"code":"101861"},"8310B1018701":{"name":"Seachnall Aby","lat":53.50582,"lng":-6.539781,"code":"101871"},"8310B1018801":{"name":"Ballymurphy","lat":53.495962,"lng":-6.528212,"code":"101881"},"8310B1018901":{"name":"Raynestown","lat":53.4833,"lng":-6.514502,"code":"101891"},"8310B1019001":{"name":"Growtown","lat":53.478373,"lng":-6.505032,"code":"101901"},"8310B1019101":{"name":"Rathbeggan","lat":53.467272,"lng":-6.491972,"code":"101911"},"8310B1019201":{"name":"Bracetown","lat":53.429973,"lng":-6.46029,"code":"101921"},"8310B101981":{"name":"The Old Mill","lat":53.501944,"lng":-6.467104,"code":"101981"},"8310B101991":{"name":"Killester","lat":53.469845,"lng":-6.471003,"code":"101991"},"8310B102001":{"name":"Killester","lat":53.470328,"lng":-6.47085,"code":"102001"},"8310B1029301":{"name":"Rathregan Court","lat":53.471086,"lng":-6.539301,"code":"102931"},"8310B1029401":{"name":"Batterjohn","lat":53.521675,"lng":-6.651546,"code":"102941"},"8310B1029701":{"name":"Friars Park","lat":53.553074,"lng":-6.774968,"code":"102971"},"8310B1029801":{"name":"Tower View","lat":53.562181,"lng":-6.788441,"code":"102981"},"8310B1029901":{"name":"Whitehall","lat":53.562418,"lng":-6.795046,"code":"102991"},"8310B1030201":{"name":"Athboy","lat":53.62174,"lng":-6.921001,"code":"103021"},"8310B1030301":{"name":"Whitehall","lat":53.562994,"lng":-6.796872,"code":"103031"},"8310B1030401":{"name":"Tower View","lat":53.562287,"lng":-6.788257,"code":"103041"},"8310B1030501":{"name":"Lackanash","lat":53.556577,"lng":-6.781779,"code":"103051"},"8310B1030601":{"name":"Trim","lat":53.553145,"lng":-6.785379,"code":"103061"},"8310B1030701":{"name":"Victorine Aby","lat":53.55405,"lng":-6.764963,"code":"103071"},"8310B1030801":{"name":"Scurlockstown","lat":53.548981,"lng":-6.744271,"code":"103081"},"8310B1030901":{"name":"Kiltale","lat":53.525609,"lng":-6.669821,"code":"103091"},"8310B1031001":{"name":"Batterjohn","lat":53.521345,"lng":-6.64943,"code":"103101"},"8310B1031101":{"name":"Rathregan Court","lat":53.471368,"lng":-6.539548,"code":"103111"},"8310B1031201":{"name":"Batterstown","lat":53.469292,"lng":-6.536652,"code":"103121"},"8310B1031301":{"name":"Kildalkey","lat":53.570838,"lng":-6.905281,"code":"103131"},"8310B103141":{"name":"Kildalkey","lat":53.571028,"lng":-6.906394,"code":"103141"},"8310B1031501":{"name":"Trim Centre","lat":53.554855,"lng":-6.79102,"code":"103151"},"8310B103241":{"name":"Clonard","lat":53.451051,"lng":-7.020453,"code":"103241"},"8310B103351":{"name":"Clonard","lat":53.451184,"lng":-7.020315,"code":"103351"},"8310B103381":{"name":"Enfield","lat":53.414068,"lng":-6.827825,"code":"103381"},"8310B103411":{"name":"Lackanash","lat":53.557026,"lng":-6.782065,"code":"103411"},"8310B103511":{"name":"Enfield Stn","lat":53.41533,"lng":-6.83528,"code":"103511"},"8310B103521":{"name":"Enfield Stn","lat":53.41484,"lng":-6.8339,"code":"103521"},"8310B1036901":{"name":"Ballivor","lat":53.532955,"lng":-6.963475,"code":"103691"},"8310B1037001":{"name":"Rathmolyon","lat":53.488065,"lng":-6.804704,"code":"103701"},"8310B1037101":{"name":"Summerhill","lat":53.482202,"lng":-6.734537,"code":"103711"},"8310B1045201":{"name":"Tara","lat":53.592506,"lng":-6.603186,"code":"104521"},"8310B104631":{"name":"The Willows","lat":53.502598,"lng":-6.535776,"code":"104631"},"8310B1046501":{"name":"Dunshaughlin","lat":53.512453,"lng":-6.53947,"code":"104651"},"8310B1050201":{"name":"Ratoath East","lat":53.507365,"lng":-6.46026,"code":"105021"},"8310B1055701":{"name":"Elm Grove","lat":53.480371,"lng":-6.730584,"code":"105571"},"8310B1055801":{"name":"Navan R147","lat":53.655567,"lng":-6.68711,"code":"105581"},"8310B105591":{"name":"Grange Hall","lat":53.517774,"lng":-6.545733,"code":"105591"},"8310B1056001":{"name":"Dunshaughlin","lat":53.512899,"lng":-6.538783,"code":"105601"},"8310B106521":{"name":"Hickey's Lane","lat":53.49981,"lng":-6.387576,"code":"106521"},"8310B106531":{"name":"Hickey's Lane","lat":53.499779,"lng":-6.387276,"code":"106531"},"8310B1072401":{"name":"Drakestown","lat":53.767815,"lng":-6.725326,"code":"107241"},"8310B1087001":{"name":"Bettystown","lat":53.698388,"lng":-6.24422,"code":"108701"},"8310B1087101":{"name":"Laytown Station","lat":53.678295,"lng":-6.240136,"code":"108711"},"8310B1089801":{"name":"Flemington","lat":53.640557,"lng":-6.498138,"code":"108981"},"8310B109131":{"name":"Slane","lat":53.708893,"lng":-6.545164,"code":"109131"},"8310B1093301":{"name":"Laytown Station","lat":53.678566,"lng":-6.240261,"code":"109331"},"8310B1093401":{"name":"Bettystown","lat":53.69839,"lng":-6.24493,"code":"109341"},"8310B109881":{"name":"Metges Place","lat":53.647471,"lng":-6.654826,"code":"109881"},"8310B109891":{"name":"Metges Place","lat":53.647176,"lng":-6.654956,"code":"109891"},"8310B111021":{"name":"Navan Centre","lat":53.65392,"lng":-6.6864,"code":"111021"},"8310B111031":{"name":"Our Lady's Hospital","lat":53.651248,"lng":-6.697349,"code":"111031"},"8310B111081":{"name":"Our Lady's Hospital","lat":53.651293,"lng":-6.695684,"code":"111081"},"8310B111351":{"name":"Laytown Village","lat":53.681867,"lng":-6.237989,"code":"111351"},"8310B111361":{"name":"Inse Bay","lat":53.685085,"lng":-6.241079,"code":"111361"},"8310B111371":{"name":"Sacred Hrt Ch","lat":53.68866,"lng":-6.242142,"code":"111371"},"8310B111381":{"name":"Brookside","lat":53.695668,"lng":-6.243198,"code":"111381"},"8310B111401":{"name":"Triton Road","lat":53.697542,"lng":-6.248405,"code":"111401"},"8310B111411":{"name":"Eastham Road","lat":53.70159,"lng":-6.256037,"code":"111411"},"8310B111441":{"name":"Donacarney","lat":53.711045,"lng":-6.276583,"code":"111441"},"8310B111451":{"name":"Coney Hall","lat":53.718449,"lng":-6.256522,"code":"111451"},"8310B111471":{"name":"Tower Cross","lat":53.722559,"lng":-6.259852,"code":"111471"},"8310B111521":{"name":"Coney Hall","lat":53.718283,"lng":-6.256847,"code":"111521"},"8310B111531":{"name":"Donacarney","lat":53.710863,"lng":-6.27703,"code":"111531"},"8310B111541":{"name":"Eastham Road","lat":53.701649,"lng":-6.255777,"code":"111541"},"8310B111551":{"name":"Triton Road","lat":53.697547,"lng":-6.248783,"code":"111551"},"8310B111561":{"name":"Brookside","lat":53.695378,"lng":-6.243043,"code":"111561"},"8310B111571":{"name":"Sacred Hrt Ch","lat":53.688449,"lng":-6.241833,"code":"111571"},"8310B111581":{"name":"Inse Bay","lat":53.685162,"lng":-6.240804,"code":"111581"},"8310B111591":{"name":"Laytown Village","lat":53.68171,"lng":-6.237708,"code":"111591"},"8310B111691":{"name":"Flemington","lat":53.640665,"lng":-6.498179,"code":"111691"},"8310B111791":{"name":"Golf Lnks Rd","lat":53.714309,"lng":-6.250908,"code":"111791"},"8310B111801":{"name":"Golf Lnks Rd","lat":53.713606,"lng":-6.250605,"code":"111801"},"8310B1235401":{"name":"Harlockstown","lat":53.496831,"lng":-6.404061,"code":"123541"},"8310B123551":{"name":"Harlockstown","lat":53.496674,"lng":-6.402371,"code":"123551"},"8310B126111":{"name":"Drogheda RP","lat":53.702525,"lng":-6.380215,"code":"126111"},"8310B126171":{"name":"Tesco Drogheda","lat":53.701463,"lng":-6.372834,"code":"126171"},"8310B131071":{"name":"Oldcastle","lat":53.769256,"lng":-7.162279,"code":"131071"},"8310B131161":{"name":"Crossakiel","lat":53.714757,"lng":-7.02037,"code":"131161"},"8310B131181":{"name":"Crossakiel","lat":53.714657,"lng":-7.02057,"code":"131181"},"8310B1317301":{"name":"Nobber","lat":53.821283,"lng":-6.747108,"code":"131731"},"8310B132031":{"name":"Ballivor","lat":53.532902,"lng":-6.963552,"code":"132031"},"8310B1320901":{"name":"Kilmainham","lat":53.716525,"lng":-6.83187,"code":"132091"},"8310B1321201":{"name":"Wilkinstown","lat":53.734812,"lng":-6.711607,"code":"132121"},"8310B1321501":{"name":"Hurdlestown","lat":53.708102,"lng":-6.800703,"code":"132151"},"8310B1321901":{"name":"Kilberry","lat":53.70687,"lng":-6.68625,"code":"132191"},"8310B1323401":{"name":"Tankardstown","lat":53.686138,"lng":-6.768005,"code":"132341"},"8310B1324101":{"name":"Scallanstown","lat":53.682062,"lng":-6.759707,"code":"132411"},"8310B132541":{"name":"Rathmolyon","lat":53.487987,"lng":-6.804948,"code":"132541"},"8310B1325501":{"name":"Scurlockstown","lat":53.548476,"lng":-6.743214,"code":"132551"},"8310B1326201":{"name":"Julianstown","lat":53.674205,"lng":-6.286549,"code":"132621"},"8310B1326301":{"name":"Kentstown","lat":53.628035,"lng":-6.532041,"code":"132631"},"8310B1328301":{"name":"Duleek","lat":53.655482,"lng":-6.416005,"code":"132831"},"8310B1328302":{"name":"Duleek","lat":53.65513,"lng":-6.416752,"code":"132931"},"8310B1328401":{"name":"Gormanston East","lat":53.638208,"lng":-6.226667,"code":"132841"},"8310B1329001":{"name":"Dalgan Park","lat":53.609205,"lng":-6.628054,"code":"132901"},"8310B1329201":{"name":"Balrath X","lat":53.622937,"lng":-6.487848,"code":"132921"},"8310B133151":{"name":"Grange Hall","lat":53.516771,"lng":-6.544561,"code":"133151"},"8310B1331701":{"name":"Ross Cross","lat":53.566328,"lng":-6.579697,"code":"133171"},"8310B1332301":{"name":"Enfield","lat":53.413984,"lng":-6.828444,"code":"133231"},"8310B1332801":{"name":"Cushinstown","lat":53.572128,"lng":-6.448969,"code":"133281"},"8310B133301":{"name":"Pelletstown","lat":53.489065,"lng":-6.575348,"code":"133301"},"8310B1333101":{"name":"Pelletstown","lat":53.488985,"lng":-6.575457,"code":"133311"},"8310B133331":{"name":"Batterstown","lat":53.469112,"lng":-6.536598,"code":"133331"},"8310B133371":{"name":"The Willows","lat":53.5023,"lng":-6.5356,"code":"133371"},"8310B1333801":{"name":"Dunshaughlin","lat":53.513391,"lng":-6.540124,"code":"133381"},"8310B133601":{"name":"Woodlands","lat":53.505746,"lng":-6.46799,"code":"133601"},"8310B133611":{"name":"Steeplechase Green","lat":53.511666,"lng":-6.471805,"code":"133611"},"8310B133621":{"name":"Steeplechase Green","lat":53.511765,"lng":-6.471831,"code":"133621"},"8310B133631":{"name":"Ashbourne","lat":53.51125,"lng":-6.39738,"code":"133631"},"8310B1339001":{"name":"Piercetown","lat":53.45581,"lng":-6.476235,"code":"133901"},"8310B133941":{"name":"Ninemile Stone","lat":53.497318,"lng":-6.385395,"code":"133941"},"8310B1340701":{"name":"Newtown Commons","lat":53.468283,"lng":-6.359309,"code":"134071"},"8310B1340901":{"name":"Bracetown","lat":53.430077,"lng":-6.460693,"code":"134091"},"8310B134111":{"name":"MSD Dunboyne","lat":53.44906,"lng":-6.47565,"code":"134111"},"8310B134121":{"name":"MSD Dunboyne","lat":53.44825,"lng":-6.47445,"code":"134121"},"8310B134261":{"name":"Ratoath East","lat":53.507577,"lng":-6.460674,"code":"134261"},"8310B134271":{"name":"Woodlands","lat":53.506708,"lng":-6.469061,"code":"134271"},"8310B134401":{"name":"Warrenstown","lat":53.511863,"lng":-6.618747,"code":"134401"},"8310B134411":{"name":"Warrenstown","lat":53.511888,"lng":-6.618565,"code":"134411"},"8310B134621":{"name":"Kentstown","lat":53.627803,"lng":-6.532125,"code":"134621"},"8310B134631":{"name":"Skryne Road","lat":53.511245,"lng":-6.464899,"code":"134631"},"8310B134651":{"name":"Skryne Road","lat":53.511298,"lng":-6.464822,"code":"134651"},"8310B134661":{"name":"The Old Mill","lat":53.500863,"lng":-6.467611,"code":"134661"},"8310B1347001":{"name":"Fairyhouse","lat":53.484549,"lng":-6.473718,"code":"134701"},"8310B135231":{"name":"Kells","lat":53.726709,"lng":-6.874307,"code":"135231"},"8310B1352401":{"name":"Kells West","lat":53.729386,"lng":-6.881049,"code":"135241"},"8310B1353901":{"name":"Kells","lat":53.726771,"lng":-6.873291,"code":"135391"},"8310B1355001":{"name":"Dunsany","lat":53.541776,"lng":-6.621334,"code":"135501"},"8310B1355101":{"name":"Swainstown","lat":53.555352,"lng":-6.646958,"code":"135511"},"8310B1356601":{"name":"Navan Centre","lat":53.654055,"lng":-6.686113,"code":"135661"},"8310B1356801":{"name":"Johnstown Centre","lat":53.643461,"lng":-6.65946,"code":"135681"},"8310B1357101":{"name":"Kilcarn","lat":53.635071,"lng":-6.665518,"code":"135711"},"8310B1357301":{"name":"Rath","lat":53.524516,"lng":-6.414405,"code":"135731"},"8310B1358101":{"name":"Trim","lat":53.55312,"lng":-6.785636,"code":"135811"},"8310B1358901":{"name":"Athboy","lat":53.621899,"lng":-6.920679,"code":"135891"},"8310B1359201":{"name":"Friars Park","lat":53.552942,"lng":-6.775183,"code":"135921"},"8310B136161":{"name":"Trim Rtl Pk","lat":53.561619,"lng":-6.767807,"code":"136161"},"8310B136541":{"name":"Scallanstown","lat":53.681619,"lng":-6.758554,"code":"136541"},"8310B136571":{"name":"Boyne View","lat":53.639591,"lng":-6.658222,"code":"136571"},"8310B136581":{"name":"Boyne View","lat":53.639326,"lng":-6.657837,"code":"136581"},"8310B1365901":{"name":"B\u00f3thar Sion","lat":53.644095,"lng":-6.663161,"code":"136591"},"8310B136611":{"name":"B\u00f3thar Sion","lat":53.644145,"lng":-6.663568,"code":"136611"},"8310B136621":{"name":"Limekilnhill","lat":53.643986,"lng":-6.672769,"code":"136621"},"8310B136631":{"name":"Limekilnhill","lat":53.64334,"lng":-6.672048,"code":"136631"},"8310B1367201":{"name":"Walterstown","lat":53.536634,"lng":-6.708897,"code":"136721"},"8310B1367501":{"name":"Cooljohn","lat":53.568607,"lng":-6.686348,"code":"136751"},"8310B1367601":{"name":"Bective","lat":53.580091,"lng":-6.697681,"code":"136761"},"8310B1367701":{"name":"Bective North","lat":53.586017,"lng":-6.710458,"code":"136771"},"8310B1369601":{"name":"Ardboyne Hotel","lat":53.641218,"lng":-6.670315,"code":"136961"},"8310B1369801":{"name":"Ratoath Village","lat":53.507208,"lng":-6.464789,"code":"136981"},"8310B1370901":{"name":"Ashbourne Comm Coll","lat":53.503652,"lng":-6.390596,"code":"137091"},"8310B1372401":{"name":"Emerald Park","lat":53.54567,"lng":-6.45831,"code":"137241"},"8310B137261":{"name":"Bective Abbey","lat":53.582685,"lng":-6.704805,"code":"137261"},"8310B137271":{"name":"Bective Abbey","lat":53.582668,"lng":-6.704851,"code":"137271"},"8310B137281":{"name":"Kilmessan","lat":53.559275,"lng":-6.660116,"code":"137281"},"8310B137291":{"name":"Kilmessan","lat":53.55926,"lng":-6.660328,"code":"137291"},"8310B137301":{"name":"Victorine Abbey","lat":53.553971,"lng":-6.765015,"code":"137301"},"8310B137471":{"name":"Dunsany","lat":53.541783,"lng":-6.621168,"code":"137471"},"8310B137481":{"name":"Swainstown","lat":53.555324,"lng":-6.646793,"code":"137481"},"8310B137571":{"name":"Walterstown","lat":53.536595,"lng":-6.708702,"code":"137571"},"8310B137601":{"name":"Cooljohn","lat":53.568449,"lng":-6.685825,"code":"137601"},"8310B137611":{"name":"Bective North","lat":53.585893,"lng":-6.710552,"code":"137611"},"8310B1378101":{"name":"Proudstown Rd","lat":53.660358,"lng":-6.679774,"code":"137811"},"8310B1378201":{"name":"Drakestown","lat":53.767762,"lng":-6.725464,"code":"137821"},"8310B1378501":{"name":"Kentstown","lat":53.627585,"lng":-6.534159,"code":"137851"},"8310B1378801":{"name":"Nobber","lat":53.821391,"lng":-6.747181,"code":"137881"},"8310B1378901":{"name":"Castletown","lat":53.78067,"lng":-6.714754,"code":"137891"},"8310B1379001":{"name":"Wilkinstown","lat":53.73462,"lng":-6.71137,"code":"137901"},"8310B1379101":{"name":"Kilberry","lat":53.705301,"lng":-6.684608,"code":"137911"},"8310B1379201":{"name":"Proudstown Rd","lat":53.660545,"lng":-6.679617,"code":"137921"},"8310B1379301":{"name":"Kentstown","lat":53.627597,"lng":-6.533689,"code":"137931"},"8310B1379401":{"name":"Balrath X","lat":53.622725,"lng":-6.487402,"code":"137941"},"8310B138461":{"name":"Abbey Rd","lat":53.654438,"lng":-6.68412,"code":"138461"},"8310B138991":{"name":"Mill Race","lat":53.657993,"lng":-6.410489,"code":"138991"},"8310B139111":{"name":"Bective","lat":53.579991,"lng":-6.697563,"code":"139111"},"8310B139121":{"name":"Blackcastle Demesne","lat":53.66194,"lng":-6.67369,"code":"139121"},"8310B139131":{"name":"Mill Race","lat":53.657927,"lng":-6.41096,"code":"139131"},"8310B141011":{"name":"Carlanstown","lat":53.758857,"lng":-6.841585,"code":"141011"},"8310B141021":{"name":"Carlanstown","lat":53.758856,"lng":-6.841479,"code":"141021"},"8310B141031":{"name":"Eureka School","lat":53.730921,"lng":-6.885607,"code":"141031"},"8310B1503501":{"name":"Tower Cross","lat":53.722161,"lng":-6.257201,"code":"150351"},"8310B1523701":{"name":"Slane","lat":53.708961,"lng":-6.544889,"code":"152371"},"8310B1524201":{"name":"Ashbourne","lat":53.51129,"lng":-6.39774,"code":"152421"},"8310B1553001":{"name":"Castletown","lat":53.780775,"lng":-6.714493,"code":"155301"},"8310B189001":{"name":"Gainstown","lat":53.623351,"lng":-6.706312,"code":"189001"},"8310B189011":{"name":"Reask Court","lat":53.640597,"lng":-6.703031,"code":"189011"},"8310B189021":{"name":"Reask Court","lat":53.641013,"lng":-6.702383,"code":"189021"},"8310B189031":{"name":"Claremont Stadium","lat":53.642007,"lng":-6.701204,"code":"189031"},"8310B189041":{"name":"Claremont Stadium","lat":53.64222,"lng":-6.700955,"code":"189041"},"8310B189051":{"name":"Watters Lane","lat":53.644976,"lng":-6.699857,"code":"189051"},"8310B189061":{"name":"Watters Lane","lat":53.645135,"lng":-6.69964,"code":"189061"},"8310B189071":{"name":"Elm View","lat":53.646795,"lng":-6.699393,"code":"189071"},"8310B189081":{"name":"Elm View","lat":53.64705,"lng":-6.699748,"code":"189081"},"8310B189091":{"name":"Clogherboy","lat":53.648371,"lng":-6.701371,"code":"189091"},"8310B189101":{"name":"Clogherboy","lat":53.64856,"lng":-6.701411,"code":"189101"},"8310B189111":{"name":"Beaufort House","lat":53.651298,"lng":-6.701069,"code":"189111"},"8310B189121":{"name":"Beaufort House","lat":53.651227,"lng":-6.700376,"code":"189121"},"8310B189131":{"name":"Brews Hill","lat":53.651586,"lng":-6.690411,"code":"189131"},"8310B189151":{"name":"Navan R147","lat":53.65541,"lng":-6.686707,"code":"189151"},"8310B189161":{"name":"Blackwater Dr","lat":53.658873,"lng":-6.686175,"code":"189161"},"8310B189171":{"name":"Blackwater Dr","lat":53.659204,"lng":-6.686846,"code":"189171"},"8310B189181":{"name":"Rathaldron Court","lat":53.661706,"lng":-6.691247,"code":"189181"},"8310B189191":{"name":"Rathaldron Court","lat":53.661891,"lng":-6.691725,"code":"189191"},"8310B189201":{"name":"Leisure Link","lat":53.665296,"lng":-6.695127,"code":"189201"},"8310B189211":{"name":"Leisure Link","lat":53.666601,"lng":-6.692624,"code":"189211"},"8310B189221":{"name":"Clonmagadden Fort","lat":53.667369,"lng":-6.690557,"code":"189221"},"8310B189231":{"name":"Clonmagadden Fort","lat":53.6675,"lng":-6.69019,"code":"189231"},"8310B189241":{"name":"Tara Court","lat":53.667909,"lng":-6.687362,"code":"189241"},"8310B189251":{"name":"Tara Court","lat":53.667982,"lng":-6.685771,"code":"189251"},"8310B189261":{"name":"The Paddocks","lat":53.668182,"lng":-6.683586,"code":"189261"},"8310B189271":{"name":"The Paddocks","lat":53.668136,"lng":-6.683481,"code":"189271"},"8310B189281":{"name":"Russell Ct","lat":53.664271,"lng":-6.680182,"code":"189281"},"8310B189291":{"name":"Russell Ct","lat":53.664037,"lng":-6.680098,"code":"189291"},"8310B189301":{"name":"Aisling Place","lat":53.663782,"lng":-6.676596,"code":"189301"},"8310B189311":{"name":"Aisling Place","lat":53.663817,"lng":-6.676489,"code":"189311"},"8310B189321":{"name":"Ballybatter","lat":53.62905,"lng":-6.689083,"code":"189321"},"8310B189331":{"name":"Ballybatter","lat":53.630618,"lng":-6.688641,"code":"189331"},"8310B189341":{"name":"Balreask Mnr","lat":53.635869,"lng":-6.688115,"code":"189341"},"8310B189351":{"name":"Balreask Mnr","lat":53.636572,"lng":-6.68826,"code":"189351"},"8310B189361":{"name":"Canterbrook","lat":53.638164,"lng":-6.688392,"code":"189361"},"8310B189371":{"name":"Canterbrook","lat":53.638875,"lng":-6.688521,"code":"189371"},"8310B189381":{"name":"Balreask Vllge","lat":53.640745,"lng":-6.688538,"code":"189381"},"8310B189391":{"name":"Balreask Vllge","lat":53.641303,"lng":-6.688642,"code":"189391"},"8310B189401":{"name":"Dan Shaw Road","lat":53.645464,"lng":-6.691871,"code":"189401"},"8310B189411":{"name":"Dan Shaw Road","lat":53.645198,"lng":-6.691441,"code":"189411"},"8310B189421":{"name":"Ramparts Walk","lat":53.653213,"lng":-6.678939,"code":"189421"},"8310B189431":{"name":"Ramparts Walk","lat":53.653261,"lng":-6.678408,"code":"189431"},"8310B189441":{"name":"The Orchard","lat":53.651112,"lng":-6.668597,"code":"189441"},"8310B189451":{"name":"The Orchard","lat":53.651038,"lng":-6.667616,"code":"189451"},"8310B189461":{"name":"Athlumney Vllge","lat":53.650779,"lng":-6.666172,"code":"189461"},"8310B189471":{"name":"Athlumney Vllge","lat":53.650782,"lng":-6.665642,"code":"189471"},"8310B189481":{"name":"Bailis","lat":53.649606,"lng":-6.659326,"code":"189481"},"8310B189491":{"name":"Bailis","lat":53.649379,"lng":-6.658274,"code":"189491"},"8310B189501":{"name":"Cois Glais\u00edn","lat":53.636252,"lng":-6.657829,"code":"189501"},"8310B189511":{"name":"Cois Glais\u00edn","lat":53.635964,"lng":-6.657778,"code":"189511"},"8310B189521":{"name":"Navan","lat":53.6534,"lng":-6.68721,"code":"189521"},"8310B189571":{"name":"Navan","lat":53.65329,"lng":-6.6877,"code":"189571"},"8310B189581":{"name":"St Oliver's School","lat":53.662871,"lng":-6.679514,"code":"189581"},"8310B189591":{"name":"St Oliver's School","lat":53.662977,"lng":-6.67936,"code":"189591"},"8310B189601":{"name":"Navan P&R","lat":53.65321,"lng":-6.699863,"code":"189601"},"8310B189631":{"name":"Beaufort College","lat":53.6455,"lng":-6.686889,"code":"189631"},"8310B189641":{"name":"Beaufort College","lat":53.64475,"lng":-6.687028,"code":"189641"},"8310B353101":{"name":"Summerhill","lat":53.481075,"lng":-6.732476,"code":"353101"},"8310B5620101":{"name":"Blackcastle","lat":53.66234,"lng":-6.67323,"code":"562011"},"8310B680001":{"name":"Tobair B\u00e1n","lat":53.728144,"lng":-6.889205,"code":"680001"},"8310B680011":{"name":"Drumbaragh","lat":53.725976,"lng":-6.940748,"code":"680011"},"8310B680021":{"name":"Crossakiel North","lat":53.724497,"lng":-7.014288,"code":"680021"},"8310B680031":{"name":"Ballinlough","lat":53.735195,"lng":-7.033652,"code":"680031"},"8310B680121":{"name":"Ballinlough","lat":53.735001,"lng":-7.033057,"code":"680121"},"8310B680131":{"name":"Crossakiel North","lat":53.724287,"lng":-7.014307,"code":"680131"},"8310B680141":{"name":"Drumbaragh","lat":53.726158,"lng":-6.939554,"code":"680141"},"8310B680151":{"name":"Tobair B\u00e1n","lat":53.728181,"lng":-6.888706,"code":"680151"},"8310B680161":{"name":"Kells West","lat":53.728908,"lng":-6.882491,"code":"680161"},"8310DB003328":{"name":"Clonee Village","lat":53.410481,"lng":-6.442477,"code":"3328"},"8310DB003331":{"name":"Dunboyne Station","lat":53.415955,"lng":-6.460977,"code":"3331"},"8310DB003332":{"name":"Dunboyne NS","lat":53.418379,"lng":-6.47291,"code":"3332"},"8310DB003334":{"name":"Dunboyne NS","lat":53.418055,"lng":-6.471478,"code":"3334"},"8310DB003335":{"name":"Mill View","lat":53.416025,"lng":-6.459696,"code":"3335"},"8310DB003338":{"name":"Clonee Village","lat":53.410601,"lng":-6.442067,"code":"3338"},"8310LL12502":{"name":"Kilmainhamwood","lat":53.84899,"lng":-6.80624,"code":"12502"},"8310LL12503":{"name":"Kilmainhamwood","lat":53.84872,"lng":-6.80604,"code":"12503"},"8310LL189611":{"name":"Railway St","lat":53.649306,"lng":-6.685972,"code":"189611"},"8310LL189621":{"name":"Railway St","lat":53.649604,"lng":-6.686203,"code":"189621"},"8320B102921":{"name":"Tullamore","lat":53.27715,"lng":-7.49159,"code":"102921"},"8320B104531":{"name":"Tullamore","lat":53.276842,"lng":-7.491639,"code":"104531"},"8320B1521001":{"name":"Birr","lat":53.09611,"lng":-7.9108,"code":"152101"},"8320B1521801":{"name":"Birr","lat":53.09609,"lng":-7.91048,"code":"152181"},"8320B24773":{"name":"Tubber","lat":53.37689,"lng":-7.66081,"code":"247731"},"8320B247741":{"name":"Tubber","lat":53.37668,"lng":-7.66087,"code":"247741"},"8320B350541":{"name":"Killeigh","lat":53.214091,"lng":-7.450581,"code":"350541"},"8320B350542":{"name":"Killeigh","lat":53.214145,"lng":-7.450445,"code":"350542"},"8320B358421":{"name":"Ferbane","lat":53.27275,"lng":-7.82796,"code":"358421"},"8320B3584301":{"name":"Cloghan","lat":53.22403,"lng":-7.88445,"code":"358431"},"8320B3584401":{"name":"Ferbane","lat":53.27281,"lng":-7.82815,"code":"358441"},"8320B358451":{"name":"Cloghan","lat":53.22377,"lng":-7.88454,"code":"358451"},"8320B359831":{"name":"Clara","lat":53.34414,"lng":-7.614732,"code":"359831"},"8320B3598401":{"name":"Clara","lat":53.344257,"lng":-7.615176,"code":"359841"},"8330B1032601":{"name":"Heathstown","lat":53.490234,"lng":-7.201633,"code":"103261"},"8330B1032701":{"name":"Ardmore Rd","lat":53.523037,"lng":-7.310005,"code":"103271"},"8330B1032801":{"name":"The Manor","lat":53.524551,"lng":-7.317054,"code":"103281"},"8330B1032901":{"name":"Prospect","lat":53.525749,"lng":-7.330156,"code":"103291"},"8330B1033001":{"name":"Prospect","lat":53.525828,"lng":-7.329913,"code":"103301"},"8330B1033101":{"name":"The Manor","lat":53.524806,"lng":-7.317608,"code":"103311"},"8330B1033201":{"name":"Ardmore Rd","lat":53.522795,"lng":-7.308501,"code":"103321"},"8330B1033301":{"name":"Heathstown","lat":53.490259,"lng":-7.201346,"code":"103331"},"8330B1033401":{"name":"Coralstown","lat":53.481101,"lng":-7.170904,"code":"103341"},"8330B1036701":{"name":"Killucan","lat":53.513862,"lng":-7.142809,"code":"103671"},"8330B1036801":{"name":"Raharney","lat":53.52404,"lng":-7.09279,"code":"103681"},"8330B104431":{"name":"Rathowen","lat":53.655764,"lng":-7.520146,"code":"104431"},"8330B104441":{"name":"Ballinalack","lat":53.628278,"lng":-7.469812,"code":"104441"},"8330B104471":{"name":"St Mary's Hospital","lat":53.535527,"lng":-7.349729,"code":"104471"},"8330B1049701":{"name":"Coole","lat":53.698737,"lng":-7.372116,"code":"104971"},"8330B1049801":{"name":"Castlepollard","lat":53.679557,"lng":-7.298837,"code":"104981"},"8330B1049901":{"name":"Delvin","lat":53.611764,"lng":-7.093192,"code":"104991"},"8330B105161":{"name":"Collinstown","lat":53.647532,"lng":-7.212671,"code":"105161"},"8330B105171":{"name":"Collinstown","lat":53.64763,"lng":-7.212533,"code":"105171"},"8330B111731":{"name":"Clonmellon","lat":53.663853,"lng":-7.017099,"code":"111731"},"8330B111741":{"name":"Clonmellon","lat":53.663941,"lng":-7.01687,"code":"111741"},"8330B1312201":{"name":"Rathowen","lat":53.655565,"lng":-7.51974,"code":"131221"},"8330B1312701":{"name":"Ballinalack","lat":53.628206,"lng":-7.469738,"code":"131271"},"8330B1315201":{"name":"Coole","lat":53.6987,"lng":-7.372071,"code":"131521"},"8330B1316101":{"name":"Castlepollard","lat":53.679961,"lng":-7.298846,"code":"131611"},"8330B1317701":{"name":"Delvin","lat":53.611805,"lng":-7.092693,"code":"131771"},"8330B1317901":{"name":"Killucan","lat":53.513358,"lng":-7.14401,"code":"131791"},"8330B1319301":{"name":"Raharney","lat":53.523888,"lng":-7.092959,"code":"131931"},"8330B1322701":{"name":"Coralstown","lat":53.481691,"lng":-7.173047,"code":"132271"},"8330B1354401":{"name":"Kinnegad","lat":53.454618,"lng":-7.100323,"code":"135441"},"8330B1354501":{"name":"Kinnegad","lat":53.454632,"lng":-7.101015,"code":"135451"},"8330B1357501":{"name":"Austin Friars St","lat":53.526,"lng":-7.33762,"code":"135751"},"8330B1357601":{"name":"Castle Street","lat":53.526514,"lng":-7.340038,"code":"135761"},"8330B1357801":{"name":"Mullingar Stn","lat":53.52299,"lng":-7.346321,"code":"135781"},"8330B1387901":{"name":"St Mary's Hospital","lat":53.53486,"lng":-7.35047,"code":"138791"},"8330B150641":{"name":"Tyrrellspass","lat":53.38751,"lng":-7.37872,"code":"150641"},"8330B150651":{"name":"Kilbeggan","lat":53.368114,"lng":-7.497841,"code":"150651"},"8330B150661":{"name":"Horseleap","lat":53.392522,"lng":-7.581491,"code":"150661"},"8330B150671":{"name":"Moate","lat":53.39528,"lng":-7.71976,"code":"150671"},"8330B152171":{"name":"Tyrrellspass","lat":53.38743,"lng":-7.37855,"code":"152171"},"8330B1523201":{"name":"Horseleap","lat":53.392477,"lng":-7.581521,"code":"152321"},"8330B1554301":{"name":"Moate","lat":53.39519,"lng":-7.71991,"code":"155431"},"8330B1554401":{"name":"Kilbeggan","lat":53.368107,"lng":-7.498186,"code":"155441"},"8330B1581701":{"name":"Ballinahowen","lat":53.34972,"lng":-7.84791,"code":"158171"},"8330B358411":{"name":"Ballinahowen","lat":53.349577,"lng":-7.847477,"code":"358411"},"8330B455461":{"name":"Bellough","lat":53.42406,"lng":-7.96818,"code":"455461"},"8330B455471":{"name":"Battery Road","lat":53.422614,"lng":-7.949886,"code":"455471"},"8330B455481":{"name":"Connaught Street","lat":53.421893,"lng":-7.946577,"code":"455481"},"8330B455491":{"name":"Northgate St","lat":53.42542,"lng":-7.94101,"code":"455491"},"8330B455501":{"name":"Gleeson Street","lat":53.424997,"lng":-7.934657,"code":"455501"},"8330B455511":{"name":"MacDiarmada Road","lat":53.42091,"lng":-7.93043,"code":"455511"},"8330B455521":{"name":"Lower Rd","lat":53.423375,"lng":-7.927859,"code":"455521"},"8330B455531":{"name":"Bower School","lat":53.423066,"lng":-7.922172,"code":"455531"},"8330B455541":{"name":"Retreat Park","lat":53.422173,"lng":-7.917781,"code":"455541"},"8330B455551":{"name":"Cartrontroy","lat":53.421834,"lng":-7.908123,"code":"455551"},"8330B455561":{"name":"Cypress Gdns","lat":53.421531,"lng":-7.900782,"code":"455561"},"8330B455581":{"name":"Athlone Business Pk","lat":53.41402,"lng":-7.89671,"code":"455581"},"8330B455591":{"name":"TUS East Campus","lat":53.41569,"lng":-7.89991,"code":"455591"},"8330B455601":{"name":"Kilmartin Ctr","lat":53.41191,"lng":-7.89383,"code":"455601"},"8330B455611":{"name":"Athlone Business Pk","lat":53.41401,"lng":-7.89706,"code":"455611"},"8330B455621":{"name":"Cypress Gdns","lat":53.421469,"lng":-7.900932,"code":"455621"},"8330B455631":{"name":"Cartrontroy","lat":53.421699,"lng":-7.908364,"code":"455631"},"8330B455641":{"name":"Retreat Park","lat":53.422074,"lng":-7.917736,"code":"455641"},"8330B455651":{"name":"Bower School","lat":53.422922,"lng":-7.921751,"code":"455651"},"8330B455661":{"name":"Lower Rd","lat":53.423169,"lng":-7.928055,"code":"455661"},"8330B455671":{"name":"MacDiarmada Road","lat":53.421049,"lng":-7.930224,"code":"455671"},"8330B455681":{"name":"Gleeson Street","lat":53.425042,"lng":-7.934867,"code":"455681"},"8330B455691":{"name":"Athlone Stn","lat":53.42685,"lng":-7.93635,"code":"455691"},"8330B455701":{"name":"Northgate St","lat":53.42466,"lng":-7.94042,"code":"455701"},"8330B455711":{"name":"Battery Road","lat":53.42256,"lng":-7.950337,"code":"455711"},"8330B455721":{"name":"Annesfield Woods","lat":53.42436,"lng":-7.96213,"code":"455721"},"8330B455731":{"name":"Bellough","lat":53.42422,"lng":-7.96717,"code":"455731"},"8330B455791":{"name":"Iona Park","lat":53.42651,"lng":-7.9516,"code":"455791"},"8330B455801":{"name":"Luan Gallery","lat":53.42426,"lng":-7.94355,"code":"455801"},"8330B455811":{"name":"Grace Park Rd","lat":53.424725,"lng":-7.930309,"code":"455811"},"8330B455821":{"name":"Sarsfield Sq","lat":53.427512,"lng":-7.932411,"code":"455821"},"8330B455831":{"name":"Regnl Sports Centre","lat":53.42915,"lng":-7.922326,"code":"455831"},"8330B455841":{"name":"Arcadia Crescent","lat":53.431572,"lng":-7.92944,"code":"455841"},"8330B455851":{"name":"Arcadia","lat":53.432269,"lng":-7.938137,"code":"455851"},"8330B455861":{"name":"Primary Care Ctr","lat":53.433303,"lng":-7.940152,"code":"455861"},"8330B455871":{"name":"Coosan Heath","lat":53.436617,"lng":-7.935376,"code":"455871"},"8330B455881":{"name":"Coosan Road","lat":53.435282,"lng":-7.926665,"code":"455881"},"8330B455891":{"name":"Clonbrusk","lat":53.432771,"lng":-7.921251,"code":"455891"},"8330B455901":{"name":"Depart of Education","lat":53.433629,"lng":-7.914102,"code":"455901"},"8330B455911":{"name":"Woodville Road","lat":53.43449,"lng":-7.90143,"code":"455911"},"8330B455921":{"name":"Blyry Lower","lat":53.42991,"lng":-7.90173,"code":"455921"},"8330B455931":{"name":"Garrycastle","lat":53.424542,"lng":-7.90106,"code":"455931"},"8330B455941":{"name":"Garrycastle","lat":53.42444,"lng":-7.90123,"code":"455941"},"8330B455951":{"name":"Blyry Lower","lat":53.43047,"lng":-7.90196,"code":"455951"},"8330B455961":{"name":"Woodville Road","lat":53.43447,"lng":-7.90166,"code":"455961"},"8330B455971":{"name":"Depart of Education","lat":53.433077,"lng":-7.908791,"code":"455971"},"8330B455981":{"name":"Clonbrusk","lat":53.432771,"lng":-7.920665,"code":"455981"},"8330B455991":{"name":"Coosan Road","lat":53.435183,"lng":-7.926725,"code":"455991"},"8330B456001":{"name":"Coosan Heath","lat":53.436527,"lng":-7.935451,"code":"456001"},"8330B456011":{"name":"Primary Care Ctr","lat":53.433267,"lng":-7.939971,"code":"456011"},"8330B456021":{"name":"Arcadia","lat":53.432377,"lng":-7.937926,"code":"456021"},"8330B456031":{"name":"Arcadia Crescent","lat":53.431635,"lng":-7.929349,"code":"456031"},"8330B456041":{"name":"Grace Park Rd","lat":53.427386,"lng":-7.932381,"code":"456041"},"8330B456051":{"name":"Grace Park Rd","lat":53.42476,"lng":-7.930038,"code":"456051"},"8330B456061":{"name":"Luan Gallery","lat":53.4242,"lng":-7.94362,"code":"456061"},"8330B456071":{"name":"Iona Park","lat":53.42611,"lng":-7.95307,"code":"456071"},"8330B5001301":{"name":"Orwell Grove","lat":53.42267,"lng":-7.97236,"code":"500131"},"8330B5001401":{"name":"Annesfield Woods","lat":53.42449,"lng":-7.96199,"code":"500141"},"8330B5001501":{"name":"Mitchell's Trce","lat":53.423614,"lng":-7.957903,"code":"500151"},"8330B5001601":{"name":"Battery Heights","lat":53.423747,"lng":-7.953269,"code":"500161"},"8330B5001701":{"name":"Pearse Street","lat":53.422773,"lng":-7.94489,"code":"500171"},"8330B5001801":{"name":"J Broderick St","lat":53.422238,"lng":-7.934962,"code":"500181"},"8330B5001901":{"name":"Golden Island","lat":53.42132,"lng":-7.932631,"code":"500191"},"8330B500221":{"name":"Golden Island","lat":53.420944,"lng":-7.934798,"code":"500221"},"8330B525511":{"name":"Drumraney","lat":53.48205,"lng":-7.74936,"code":"525511"},"8330B525551":{"name":"Drumraney","lat":53.48208,"lng":-7.74909,"code":"525551"},"8330B5534001":{"name":"Ballymore West","lat":53.49087,"lng":-7.6801,"code":"553401"},"8330B553461":{"name":"Ballymore West","lat":53.49078,"lng":-7.67994,"code":"553461"},"8330B5546201":{"name":"Castle Street","lat":53.422664,"lng":-7.942574,"code":"554621"},"8330B5547001":{"name":"Connaught Street","lat":53.421803,"lng":-7.946411,"code":"554701"},"8330B5547601":{"name":"Battery Heights","lat":53.42363,"lng":-7.953164,"code":"554761"},"8330B5547701":{"name":"Mitchell's Trce","lat":53.423515,"lng":-7.957798,"code":"554771"},"8330B5547801":{"name":"Orwell Grove","lat":53.42241,"lng":-7.97248,"code":"554781"},"8330B5551001":{"name":"Athlone Stn","lat":53.42677,"lng":-7.93517,"code":"555101"},"8330B555391":{"name":"TUS East Campus","lat":53.41526,"lng":-7.89871,"code":"555391"},"8330B5577101":{"name":"Glassan","lat":53.47099,"lng":-7.8641,"code":"557711"},"8330B557741":{"name":"Glassan","lat":53.47107,"lng":-7.86385,"code":"557741"},"8330B598101":{"name":"Loughnavalley","lat":53.486677,"lng":-7.526155,"code":"598101"},"8330B598111":{"name":"Ballinea","lat":53.50691,"lng":-7.42091,"code":"598111"},"8330B598131":{"name":"Killare","lat":53.484504,"lng":-7.579546,"code":"598131"},"8330B598141":{"name":"Loughnavalley","lat":53.486714,"lng":-7.526381,"code":"598141"},"8330B5981501":{"name":"Ballinea","lat":53.507,"lng":-7.42096,"code":"598151"},"8330B598181":{"name":"Killare","lat":53.484527,"lng":-7.581022,"code":"598181"},"8330B9910001":{"name":"Athlone Stn","lat":53.42659,"lng":-7.93523,"code":"991001"},"8330PB14088":{"name":"Austin Friars Street","lat":53.52593,"lng":-7.33866,"code":"14088"},"8330PB14119":{"name":"St. Loman's GAA","lat":53.53371,"lng":-7.31498,"code":"14119"},"8330PB14120":{"name":"St. Loman's GAA","lat":53.53372,"lng":-7.3146,"code":"14120"},"8330PB14121":{"name":"St. Loman's Hospital","lat":53.53239,"lng":-7.31847,"code":"14121"},"8330PB14122":{"name":"St. Loman's Hospital","lat":53.53225,"lng":-7.31857,"code":"14122"},"8340B136281":{"name":"Bunclody","lat":52.655031,"lng":-6.652148,"code":"136281"},"8340B136291":{"name":"Enniscorthy TP","lat":52.489883,"lng":-6.566007,"code":"136291"},"8340B1363001":{"name":"Wexford Hospl","lat":52.34207,"lng":-6.484158,"code":"136301"},"8340B140641":{"name":"Kilrane","lat":52.242031,"lng":-6.354853,"code":"140641"},"8340B2988801":{"name":"Wexford Racecrse","lat":52.342007,"lng":-6.487653,"code":"298881"},"8340B298901":{"name":"Rosslare Harbour","lat":52.249689,"lng":-6.343805,"code":"298901"},"8340B3004001":{"name":"Trinity Street","lat":52.334811,"lng":-6.456056,"code":"300401"},"8340B330321":{"name":"Ballyhine","lat":52.339816,"lng":-6.56419,"code":"330321"},