{"8220B111761":{"name":"Westland Row Church","lat":53.342626,"lng":-6.250132},"8220B1351001":{"name":"Wellington Quay","lat":53.345864,"lng":-6.263817},"8220B1351201":{"name":"Connolly Station","lat":53.350218,"lng":-6.250527},"8220B1351401":{"name":"George's Quay","lat":53.34737,"lng":-6.25346},"8220B1353301":{"name":"Dawson Street","lat":53.340134,"lng":-6.258584},"8220B1354001":{"name":"Heuston Station","lat":53.346033,"lng":-6.292647},"8220DB000016":{"name":"John Paul Park","lat":53.36644,"lng":-6.30565},"8220DB000087":{"name":"Clare Road","lat":53.376752,"lng":-6.25488},"8220DB000088":{"name":"Walnut Rise","lat":53.377287,"lng":-6.257699},"8220DB000092":{"name":"Ballymun Library","lat":53.389837,"lng":-6.264674},"8220DB000093":{"name":"Gateway Avenue","lat":53.392302,"lng":-6.264153},"8220DB000094":{"name":"Civic Centre","lat":53.396035,"lng":-6.264377},"8220DB000102":{"name":"Balbutcher Lane","lat":53.397773,"lng":-6.26772},"8220DB000104":{"name":"Poppintree Parade","lat":53.399771,"lng":-6.276819},"8220DB000105":{"name":"Belclare Park","lat":53.402936,"lng":-6.281693},"8220DB000107":{"name":"Crannogue Road","lat":53.40238,"lng":-6.280497},"8220DB000110":{"name":"Ard na Meala","lat":53.397939,"lng":-6.2686},"8220DB000112":{"name":"Civic Centre","lat":53.396154,"lng":-6.263951},"8220DB000113":{"name":"Trinity Comp School","lat":53.392268,"lng":-6.263703},"8220DB000114":{"name":"Ballymun Road","lat":53.391333,"lng":-6.263711},"8220DB000116":{"name":"Griffith Lawns","lat":53.377693,"lng":-6.259667},"8220DB000117":{"name":"Walnut Rise","lat":53.377366,"lng":-6.257546},"8220DB000118":{"name":"Clare Road","lat":53.376643,"lng":-6.253592},"8220DB000126":{"name":"Nursing Home","lat":53.399096,"lng":-6.264087},"8220DB000127":{"name":"Nursing Home","lat":53.399108,"lng":-6.26368},"8220DB000136":{"name":"McKee Road North","lat":53.39438,"lng":-6.289857},"8220DB000137":{"name":"McKee Road","lat":53.392317,"lng":-6.292631},"8220DB000155":{"name":"Old Finglas Road","lat":53.37792,"lng":-6.27951},"8220DB000176":{"name":"Old Finglas Road","lat":53.378032,"lng":-6.279299},"8220DB000180":{"name":"Cremore Crescent","lat":53.37844,"lng":-6.276396},"8220DB000193":{"name":"Clune Road","lat":53.391196,"lng":-6.294104},"8220DB000206":{"name":"Larkhill Road","lat":53.383546,"lng":-6.247477},"8220DB000211":{"name":"Falcarragh Road","lat":53.384281,"lng":-6.24916},"8220DB000212":{"name":"Larkhill Road","lat":53.383196,"lng":-6.246258},"8220DB000218":{"name":"Shantalla Road","lat":53.385924,"lng":-6.233788},"8220DB000220":{"name":"Shantalla Bridge","lat":53.38794,"lng":-6.244981},"8220DB000228":{"name":"Shanliss Road","lat":53.391877,"lng":-6.25972},"8220DB000233":{"name":"Shantalla Road","lat":53.385821,"lng":-6.233537},"8220DB000242":{"name":"Coolgreena Road","lat":53.385655,"lng":-6.23201},"8220DB000243":{"name":"Beaumont Crescent","lat":53.38578,"lng":-6.22954},"8220DB000244":{"name":"Skelly's Lane","lat":53.384998,"lng":-6.223498},"8220DB000245":{"name":"Whitethorn Rise","lat":53.384472,"lng":-6.219567},"8220DB000250":{"name":"Whitethorn Rise","lat":53.384419,"lng":-6.220245},"8220DB000251":{"name":"Skelly's Lane","lat":53.384832,"lng":-6.22322},"8220DB000253":{"name":"Beaumont Hospital","lat":53.389963,"lng":-6.224299},"8220DB000255":{"name":"Coolgreena Road","lat":53.385594,"lng":-6.231532},"8220DB000259":{"name":"Grace Park Road","lat":53.374011,"lng":-6.243885},"8220DB000297":{"name":"Eden Quay","lat":53.348143,"lng":-6.25677},"8220DB000316":{"name":"Bachelors Walk","lat":53.346893,"lng":-6.262228},"8220DB000341":{"name":"South Townsend Street","lat":53.345945,"lng":-6.256424},"8220DB000499":{"name":"Summerhill Parade","lat":53.35745,"lng":-6.249089},"8220DB000500":{"name":"Ballybough Road","lat":53.359036,"lng":-6.246289},"8220DB000501":{"name":"Clonliffe Avenue","lat":53.360706,"lng":-6.243696},"8220DB000509":{"name":"Clonliffe Avenue","lat":53.360601,"lng":-6.243325},"8220DB000510":{"name":"Ballybough Road","lat":53.359189,"lng":-6.245712},"8220DB000511":{"name":"Summerhill Parade","lat":53.357516,"lng":-6.248635},"8220DB000513":{"name":"Summerhill","lat":53.355212,"lng":-6.253973},"8220DB000530":{"name":"Killester Village","lat":53.371224,"lng":-6.204023},"8220DB000608":{"name":"Killester Village","lat":53.371078,"lng":-6.204465},"8220DB000662":{"name":"Clanmoyle Road","lat":53.37387,"lng":-6.212629},"8220DB000667":{"name":"Copeland Avenue","lat":53.367982,"lng":-6.226987},"8220DB000669":{"name":"Crescent Place","lat":53.366317,"lng":-6.228679},"8220DB000674":{"name":"Parnell Park","lat":53.374686,"lng":-6.216082},"8220DB000746":{"name":"Kildare Street","lat":53.340154,"lng":-6.255594},"8220DB000760":{"name":"Donnybrook Depot","lat":53.31833,"lng":-6.230562},"8220DB000802":{"name":"Drumalee","lat":53.356498,"lng":-6.291299},"8220DB000846":{"name":"Adelaide Road","lat":53.333454,"lng":-6.254111},"8220DB00089":{"name":"Lambay Road","lat":53.377939,"lng":-6.261644},"8220DB000956":{"name":"Naomh Barr\u00f3g GAA","lat":53.389832,"lng":-6.152901},"8220DB000958":{"name":"St. Donagh's","lat":53.390917,"lng":-6.163785},"8220DB000959":{"name":"Grange Road","lat":53.391019,"lng":-6.166908},"8220DB000960":{"name":"Tonlegee Road","lat":53.391158,"lng":-6.171879},"8220DB000961":{"name":"Millwood Villas","lat":53.391057,"lng":-6.176455},"8220DB000962":{"name":"Limewood Park","lat":53.390795,"lng":-6.182856},"8220DB000963":{"name":"Rathvale","lat":53.39051,"lng":-6.186597},"8220DB000964":{"name":"St John's Church","lat":53.390073,"lng":-6.192164},"8220DB000965":{"name":"Malahide Road","lat":53.38889,"lng":-6.196529},"8220DB000966":{"name":"Oscar Traynor Road","lat":53.391215,"lng":-6.202911},"8220DB000967":{"name":"Coolock Drive","lat":53.392292,"lng":-6.206369},"8220DB000968":{"name":"Armstrong Walk","lat":53.393759,"lng":-6.210683},"8220DB000972":{"name":"Aulden Grange","lat":53.396996,"lng":-6.234924},"8220DB000979":{"name":"St Canice's GNS","lat":53.389954,"lng":-6.297101},"8220DB000980":{"name":"Mellowes Crescent","lat":53.389805,"lng":-6.303031},"8220DB000981":{"name":"Cardiff Castle Road","lat":53.389781,"lng":-6.307061},"8220DB000984":{"name":"Cardiff Castle Road","lat":53.389911,"lng":-6.306755},"8220DB000985":{"name":"Mellowes Crescent","lat":53.389925,"lng":-6.303898},"8220DB000987":{"name":"Finglas Village","lat":53.39022,"lng":-6.299375},"8220DB000993":{"name":"Larch Hill","lat":53.397703,"lng":-6.229225},"8220DB000997":{"name":"Northside SC","lat":53.394167,"lng":-6.211493},"8220DB000998":{"name":"Armstrong Walk","lat":53.393575,"lng":-6.209789},"8220DB000999":{"name":"Coolock Drive","lat":53.392241,"lng":-6.205965},"8220DB001000":{"name":"Beechpark Avenue","lat":53.390983,"lng":-6.201808},"8220DB001001":{"name":"Brookville Crescent","lat":53.390081,"lng":-6.199215},"8220DB001002":{"name":"Tonlegee Road","lat":53.389176,"lng":-6.195194},"8220DB001003":{"name":"St John's Church","lat":53.390299,"lng":-6.191071},"8220DB001004":{"name":"Rathvale","lat":53.390638,"lng":-6.18614},"8220DB001005":{"name":"Limewood Park","lat":53.390951,"lng":-6.181917},"8220DB001006":{"name":"Millwood Villas","lat":53.39117,"lng":-6.176826},"8220DB001007":{"name":"Millbrook Drive","lat":53.391246,"lng":-6.172387},"8220DB001008":{"name":"Kilbarrack Road","lat":53.391127,"lng":-6.166934},"8220DB001009":{"name":"St. Donagh's Road","lat":53.391089,"lng":-6.164485},"8220DB001012":{"name":"Naomh Barr\u00f3g GAA","lat":53.39025,"lng":-6.152627},"8220DB001013":{"name":"Earlsfort Terrace","lat":53.334181,"lng":-6.258346},"8220DB001025":{"name":"Trinity Hall","lat":53.3116,"lng":-6.262477},"8220DB001026":{"name":"Dartry Road","lat":53.309106,"lng":-6.260327},"8220DB001027":{"name":"South Hill","lat":53.308738,"lng":-6.257911},"8220DB001028":{"name":"Chuchtown Road Lower","lat":53.308499,"lng":-6.255715},"8220DB001062":{"name":"Chuchtown Road Lower","lat":53.30826,"lng":-6.255319},"8220DB001063":{"name":"South Hill","lat":53.308572,"lng":-6.258863},"8220DB001064":{"name":"Dartry Road","lat":53.309429,"lng":-6.260929},"8220DB001065":{"name":"Trinity Hall","lat":53.311829,"lng":-6.262783},"8220DB001074":{"name":"Harcourt Street","lat":53.334001,"lng":-6.261742},"8220DB001082":{"name":"Rathgar West","lat":53.311676,"lng":-6.275771},"8220DB001083":{"name":"Brighton Road","lat":53.311146,"lng":-6.278253},"8220DB001085":{"name":"Terenure Road East","lat":53.3101,"lng":-6.282377},"8220DB001086":{"name":"Terenure Road West","lat":53.30967,"lng":-6.285606},"8220DB001087":{"name":"Greenlea Road","lat":53.310335,"lng":-6.289391},"8220DB001088":{"name":"Parkmore Drive","lat":53.310974,"lng":-6.293178},"8220DB001089":{"name":"Lavarna Grove","lat":53.311656,"lng":-6.297503},"8220DB001090":{"name":"Kimmage Road West","lat":53.312104,"lng":-6.300576},"8220DB001117":{"name":"Terenure Road West","lat":53.311891,"lng":-6.298229},"8220DB001118":{"name":"Hazelbrook Road","lat":53.311367,"lng":-6.294918},"8220DB001119":{"name":"Parkmore Drive","lat":53.310936,"lng":-6.292414},"8220DB001120":{"name":"Terenure Garda Station","lat":53.310198,"lng":-6.287986},"8220DB001164":{"name":"Terenure Road East","lat":53.310412,"lng":-6.281584},"8220DB001165":{"name":"Rathgar West","lat":53.311712,"lng":-6.276429},"8220DB001171":{"name":"Gardiner Street Lower","lat":53.350318,"lng":-6.254263},"8220DB001172":{"name":"Deverell Place","lat":53.351743,"lng":-6.255256},"8220DB001173":{"name":"Parnell Street East","lat":53.353706,"lng":-6.256678},"8220DB001196":{"name":"Elm Mount Road","lat":53.377787,"lng":-6.214915},"8220DB001197":{"name":"Artane Cottages","lat":53.379232,"lng":-6.211758},"8220DB001220":{"name":"Artane Cottages","lat":53.378763,"lng":-6.212199},"8220DB001221":{"name":"Elm Mount Road","lat":53.376816,"lng":-6.216098},"8220DB001228":{"name":"Cromcastle Avenue","lat":53.392429,"lng":-6.218513},"8220DB001229":{"name":"Castletimon Green","lat":53.394312,"lng":-6.225426},"8220DB001235":{"name":"Castletimon Green","lat":53.394737,"lng":-6.225604},"8220DB001237":{"name":"Cromcastle Avenue","lat":53.392679,"lng":-6.218984},"8220DB001244":{"name":"Cromcastle Green","lat":53.392907,"lng":-6.220447},"8220DB001246":{"name":"Kilbarron Park","lat":53.393493,"lng":-6.222979},"8220DB001251":{"name":"Kilbarron Park","lat":53.393457,"lng":-6.222379},"8220DB001252":{"name":"Kilmore Road","lat":53.393638,"lng":-6.214613},"8220DB001253":{"name":"Tranquility Grove","lat":53.393864,"lng":-6.214694},"8220DB001280":{"name":"McKelvey Avenue","lat":53.400196,"lng":-6.303143},"8220DB001286":{"name":"Harrington Street","lat":53.3325,"lng":-6.265727},"8220DB001350":{"name":"Harrington Street","lat":53.332561,"lng":-6.267481},"8220DB001369":{"name":"Mayfield Road","lat":53.338867,"lng":-6.302245},"8220DB001370":{"name":"Hybreasal House","lat":53.339124,"lng":-6.305317},"8220DB001371":{"name":"Suir Road North","lat":53.338832,"lng":-6.30787},"8220DB001377":{"name":"Hybreasal House","lat":53.339163,"lng":-6.304742},"8220DB001378":{"name":"Mayfield Road","lat":53.338828,"lng":-6.301376},"8220DB001382":{"name":"Dolphin's Barn","lat":53.333173,"lng":-6.290595},"8220DB001413":{"name":"Mourne Road East","lat":53.333441,"lng":-6.308783},"8220DB001414":{"name":"Benbulbin Road","lat":53.333348,"lng":-6.312315},"8220DB001415":{"name":"Sperrin Road","lat":53.332443,"lng":-6.316375},"8220DB001417":{"name":"Drimnagh School","lat":53.331032,"lng":-6.319568},"8220DB001418":{"name":"Mourne Road West","lat":53.33003,"lng":-6.323061},"8220DB001419":{"name":"Brandon Road","lat":53.327718,"lng":-6.322911},"8220DB001421":{"name":"Crumlin Hospital","lat":53.324951,"lng":-6.320453},"8220DB001423":{"name":"Drimnagh Road","lat":53.324999,"lng":-6.319445},"8220DB001424":{"name":"Crumlin Hospital","lat":53.325663,"lng":-6.316747},"8220DB001425":{"name":"Cooley Road","lat":53.32706,"lng":-6.31804},"8220DB001426":{"name":"Curlew Road","lat":53.329275,"lng":-6.32243},"8220DB001427":{"name":"Mourne Road West","lat":53.330271,"lng":-6.322331},"8220DB001428":{"name":"Drimnagh School","lat":53.331359,"lng":-6.31915},"8220DB001429":{"name":"Sperrin Road","lat":53.332593,"lng":-6.316173},"8220DB001430":{"name":"Benbulbin Road","lat":53.333574,"lng":-6.31115},"8220DB001432":{"name":"Mourne Road East","lat":53.333499,"lng":-6.30839},"8220DB001443":{"name":"Wood Quay","lat":53.345129,"lng":-6.26954},"8220DB001455":{"name":"Slievenamon Road","lat":53.335385,"lng":-6.305777},"8220DB001467":{"name":"Slievenamon Road","lat":53.335657,"lng":-6.305962},"8220DB001468":{"name":"Suir Road","lat":53.33755,"lng":-6.307569},"8220DB001476":{"name":"Sarsfield Quay","lat":53.347074,"lng":-6.284676},"8220DB001480":{"name":"Ormond Quay Upper","lat":53.345766,"lng":-6.27067},"8220DB001481":{"name":"Melrose Avenue","lat":53.365054,"lng":-6.239896},"8220DB001482":{"name":"Marino Institute","lat":53.371664,"lng":-6.236528},"8220DB001484":{"name":"Philipsburgh Avenue","lat":53.363698,"lng":-6.239967},"8220DB001485":{"name":"Philipsburgh Avenue","lat":53.364046,"lng":-6.239802},"8220DB001486":{"name":"Morroch Terrace","lat":53.370975,"lng":-6.238525},"8220DB001487":{"name":"Marino Institute","lat":53.371819,"lng":-6.236671},"8220DB001488":{"name":"Torlogh Parade","lat":53.371089,"lng":-6.234688},"8220DB001489":{"name":"Marino Church","lat":53.370159,"lng":-6.231961},"8220DB001490":{"name":"Griffith Avenue East","lat":53.368877,"lng":-6.228558},"8220DB001491":{"name":"Griffith Avenue East","lat":53.368468,"lng":-6.227643},"8220DB001492":{"name":"Marino Church","lat":53.370257,"lng":-6.232558},"8220DB001494":{"name":"Croydon Gardens","lat":53.370673,"lng":-6.235742},"8220DB001495":{"name":"Croydon Park Avenue","lat":53.368756,"lng":-6.235566},"8220DB001496":{"name":"Marino Green","lat":53.367148,"lng":-6.233814},"8220DB001499":{"name":"Brian Road","lat":53.36578,"lng":-6.237297},"8220DB001502":{"name":"Tara Street","lat":53.347421,"lng":-6.254096},"8220DB001510":{"name":"Ballyboggan Road East","lat":53.376907,"lng":-6.28731},"8220DB001512":{"name":"Prospect Hill North","lat":53.382174,"lng":-6.291729},"8220DB001513":{"name":"Saint Martin's","lat":53.386767,"lng":-6.296777},"8220DB001514":{"name":"Finglas","lat":53.389465,"lng":-6.300022},"8220DB001515":{"name":"Marino Park","lat":53.366114,"lng":-6.233195},"8220DB001528":{"name":"St David's Terrace","lat":53.356195,"lng":-6.294},"8220DB001529":{"name":"Finglas Village","lat":53.388459,"lng":-6.298153},"8220DB001530":{"name":"Finglas Road","lat":53.386919,"lng":-6.296726},"8220DB001531":{"name":"Clearwater Shopping Centre","lat":53.383744,"lng":-6.293365},"8220DB001532":{"name":"Prospect Hill North","lat":53.381744,"lng":-6.290559},"8220DB001538":{"name":"Clearwater Shopping Centre","lat":53.384474,"lng":-6.294794},"8220DB001547":{"name":"McKee Avenue","lat":53.395241,"lng":-6.301686},"8220DB001548":{"name":"McKee Avenue North","lat":53.39611,"lng":-6.30275},"8220DB001558":{"name":"McKelvey Avenue","lat":53.399817,"lng":-6.303053},"8220DB001573":{"name":"Wellmount Drive","lat":53.384024,"lng":-6.312461},"8220DB001574":{"name":"Cardiffsbridge Shopping Centre","lat":53.385594,"lng":-6.31288},"8220DB001575":{"name":"Col\u00e1iste \u00cdde","lat":53.387066,"lng":-6.312746},"8220DB001576":{"name":"Cappagh Road","lat":53.389317,"lng":-6.313048},"8220DB001577":{"name":"Abbottstown Road","lat":53.389886,"lng":-6.315747},"8220DB001578":{"name":"Ratoath Drive","lat":53.390385,"lng":-6.318013},"8220DB001584":{"name":"Abbottstown Road","lat":53.389885,"lng":-6.315086},"8220DB001585":{"name":"Finglas West","lat":53.388768,"lng":-6.312333},"8220DB001586":{"name":"Col\u00e1iste \u00cdde","lat":53.386525,"lng":-6.312617},"8220DB001587":{"name":"Wellmount Drive","lat":53.383466,"lng":-6.311791},"8220DB001592":{"name":"Prospect Hill South","lat":53.379721,"lng":-6.289242},"8220DB001593":{"name":"Tolka Valley Green","lat":53.378915,"lng":-6.29446},"8220DB001595":{"name":"Cloonlara Road","lat":53.380739,"lng":-6.297619},"8220DB001596":{"name":"Farnham Drive","lat":53.383041,"lng":-6.300819},"8220DB001597":{"name":"Valeview Gardens","lat":53.380455,"lng":-6.309235},"8220DB001598":{"name":"Valeview Drive","lat":53.380242,"lng":-6.30562},"8220DB001599":{"name":"Glenties Park","lat":53.3809,"lng":-6.310795},"8220DB001600":{"name":"Deanstown Avenue","lat":53.383597,"lng":-6.312763},"8220DB001601":{"name":"Deanstown Drive","lat":53.383894,"lng":-6.314721},"8220DB001602":{"name":"Patrician College","lat":53.384418,"lng":-6.318714},"8220DB001603":{"name":"Ratoath Road","lat":53.383519,"lng":-6.318689},"8220DB001604":{"name":"Rathvilly Road","lat":53.383746,"lng":-6.316275},"8220DB001605":{"name":"Albert College Park","lat":53.388253,"lng":-6.2608},"8220DB001606":{"name":"Valeview Drive","lat":53.380371,"lng":-6.306442},"8220DB001607":{"name":"Berryfield Road","lat":53.382161,"lng":-6.303425},"8220DB001608":{"name":"Farnham Drive","lat":53.38305,"lng":-6.299541},"8220DB001609":{"name":"Cloonlara Road","lat":53.380384,"lng":-6.297287},"8220DB001610":{"name":"Tolka Valley Park","lat":53.378808,"lng":-6.296403},"8220DB001644":{"name":"DCU Collins Avenue","lat":53.38687,"lng":-6.256571},"8220DB001646":{"name":"DCU Collins Avenue","lat":53.387155,"lng":-6.256981},"8220DB001647":{"name":"Blackhall Place","lat":53.34828,"lng":-6.28221},"8220DB001648":{"name":"Stoneybatter","lat":53.351091,"lng":-6.282802},"8220DB001649":{"name":"Manor Street","lat":53.35256,"lng":-6.28428},"8220DB001650":{"name":"Castle Avenue","lat":53.361174,"lng":-6.209314},"8220DB001651":{"name":"Vernon Avenue","lat":53.36794,"lng":-6.194859},"8220DB001652":{"name":"Clontarf Castle","lat":53.363356,"lng":-6.206127},"8220DB001654":{"name":"St David's Terrace","lat":53.35611,"lng":-6.29427},"8220DB001655":{"name":"Blackhorse Avenue","lat":53.356732,"lng":-6.296968},"8220DB001656":{"name":"McKee Park","lat":53.3573,"lng":-6.29883},"8220DB001657":{"name":"Dunard Walk","lat":53.358392,"lng":-6.303077},"8220DB001706":{"name":"Blackhorse Avenue","lat":53.36007,"lng":-6.307292},"8220DB001707":{"name":"Dunard Walk","lat":53.358428,"lng":-6.30246},"8220DB001708":{"name":"Mc Kee Park","lat":53.35735,"lng":-6.29863},"8220DB001709":{"name":"Glenbeigh Avenue","lat":53.356868,"lng":-6.297053},"8220DB001710":{"name":"Aughrim Street","lat":53.35557,"lng":-6.291741},"8220DB001711":{"name":"Holy Family Church","lat":53.354578,"lng":-6.289633},"8220DB001712":{"name":"Aughrim Court","lat":53.353334,"lng":-6.286243},"8220DB001713":{"name":"Manor Street","lat":53.351908,"lng":-6.283326},"8220DB001714":{"name":"Stoneybatter","lat":53.350638,"lng":-6.281889},"8220DB001715":{"name":"Blackhall Place","lat":53.3477,"lng":-6.28212},"8220DB001734":{"name":"Castle Avenue","lat":53.360391,"lng":-6.211015},"8220DB001735":{"name":"Seaview Avenue","lat":53.361143,"lng":-6.214439},"8220DB001736":{"name":"Saint Lawrence Road","lat":53.362142,"lng":-6.216922},"8220DB001737":{"name":"Strandville Avenue","lat":53.362858,"lng":-6.219717},"8220DB001738":{"name":"Clontarf Road Station","lat":53.363451,"lng":-6.223914},"8220DB001741":{"name":"Strandville Avenue","lat":53.363117,"lng":-6.220803},"8220DB001742":{"name":"Saint Lawrence Road","lat":53.362126,"lng":-6.216427},"8220DB001743":{"name":"Seaview Avenue","lat":53.361136,"lng":-6.213929},"8220DB001764":{"name":"Blackheath Court","lat":53.365893,"lng":-6.195577},"8220DB001765":{"name":"Blackheath Park","lat":53.366551,"lng":-6.202281},"8220DB001766":{"name":"Clontarf Cemetery","lat":53.365116,"lng":-6.204851},"8220DB001767":{"name":"Clontarf Castle","lat":53.363827,"lng":-6.205221},"8220DB001773":{"name":"Blackheath Park","lat":53.366811,"lng":-6.203398},"8220DB001774":{"name":"Blackheath Court","lat":53.366136,"lng":-6.1974},"8220DB001911":{"name":"Prussia Street","lat":53.356538,"lng":-6.2883},"8220DB001937":{"name":"High Street","lat":53.343088,"lng":-6.273152},"8220DB001938":{"name":"Cornmarket","lat":53.342978,"lng":-6.276761},"8220DB001939":{"name":"Thomas Street","lat":53.342998,"lng":-6.280665},"8220DB001940":{"name":"Watling Street","lat":53.343539,"lng":-6.285734},"8220DB001941":{"name":"James's Street","lat":53.343345,"lng":-6.289181},"8220DB001945":{"name":"Inchicore Library","lat":53.340555,"lng":-6.309687},"8220DB001948":{"name":"Tyrconnell Road North","lat":53.338662,"lng":-6.322046},"8220DB001956":{"name":"Kylemore","lat":53.326365,"lng":-6.343847},"8220DB001988":{"name":"Tyrconnell Road North","lat":53.33826,"lng":-6.322888},"8220DB001995":{"name":"James's Luas","lat":53.342675,"lng":-6.293218},"8220DB001996":{"name":"James's Street","lat":53.34356,"lng":-6.288482},"8220DB001997":{"name":"Watling Street","lat":53.34364,"lng":-6.28542},"8220DB001998":{"name":"Thomas Street","lat":53.34314,"lng":-6.280494},"8220DB001999":{"name":"Cornmarket","lat":53.343119,"lng":-6.27659},"8220DB002001":{"name":"High Street","lat":53.343311,"lng":-6.273653},"8220DB002101":{"name":"Drimnagh Road","lat":53.324955,"lng":-6.318171},"8220DB002102":{"name":"Balfe Road","lat":53.324195,"lng":-6.326142},"8220DB002103":{"name":"Walkinstown Shopping Centre","lat":53.322083,"lng":-6.329992},"8220DB002105":{"name":"Long Mile Road","lat":53.323653,"lng":-6.337497},"8220DB002181":{"name":"Long Mile Road","lat":53.323838,"lng":-6.339171},"8220DB002182":{"name":"Walkinstown Parade","lat":53.323962,"lng":-6.335188},"8220DB002183":{"name":"Walkinstown Shopping Centre","lat":53.321704,"lng":-6.330548},"8220DB002184":{"name":"Walkinstown Road North","lat":53.322997,"lng":-6.329146},"8220DB002185":{"name":"Balfe Road","lat":53.324259,"lng":-6.32749},"8220DB002199":{"name":"Glenaulin","lat":53.351968,"lng":-6.355909},"8220DB002200":{"name":"Kylemore Road North","lat":53.350283,"lng":-6.352954},"8220DB002243":{"name":"Glenaulin","lat":53.351974,"lng":-6.355698},"8220DB002317":{"name":"Saint Mary's Road","lat":53.323419,"lng":-6.318877},"8220DB002318":{"name":"Somerville Avenue","lat":53.32198,"lng":-6.318843},"8220DB002319":{"name":"Saint Agnes Church","lat":53.319565,"lng":-6.3152},"8220DB002327":{"name":"Ashleaf","lat":53.316854,"lng":-6.316763},"8220DB002328":{"name":"Saint Agnes Church","lat":53.31959,"lng":-6.31552},"8220DB002329":{"name":"Crumlin Village","lat":53.320901,"lng":-6.316934},"8220DB002330":{"name":"Somerville Avenue","lat":53.322148,"lng":-6.319287},"8220DB002331":{"name":"Saint Mary's Road","lat":53.324572,"lng":-6.317795},"8220DB002413":{"name":"Whitehall Road East","lat":53.312866,"lng":-6.305484},"8220DB002414":{"name":"Westbrook","lat":53.314074,"lng":-6.310854},"8220DB002415":{"name":"Royston Village","lat":53.315057,"lng":-6.313577},"8220DB002434":{"name":"Ashleaf","lat":53.316027,"lng":-6.31606},"8220DB002435":{"name":"Westbrook","lat":53.314314,"lng":-6.311295},"8220DB002436":{"name":"Lorcan O'Toole Park","lat":53.313706,"lng":-6.308948},"8220DB002437":{"name":"Kimmage Road West","lat":53.312689,"lng":-6.302519},"8220DB002499":{"name":"Sean O'Casey Bridge","lat":53.348128,"lng":-6.247128},"8220DB002652":{"name":"Kylemore Avenue","lat":53.338846,"lng":-6.348109},"8220DB002653":{"name":"Ballyfermot Crescent","lat":53.340235,"lng":-6.348446},"8220DB002654":{"name":"Ballyfermot Road","lat":53.341299,"lng":-6.34869},"8220DB002655":{"name":"Ballyfermot Parade","lat":53.342138,"lng":-6.352848},"8220DB002656":{"name":"Ballyfermot","lat":53.342624,"lng":-6.358716},"8220DB002668":{"name":"Ballyfermot Community Centre","lat":53.342983,"lng":-6.363283},"8220DB002672":{"name":"Cleggan Park","lat":53.343359,"lng":-6.367774},"8220DB002688":{"name":"Cleggan Park","lat":53.343463,"lng":-6.368191},"8220DB002689":{"name":"Blackditch Drive","lat":53.343106,"lng":-6.363744},"8220DB002696":{"name":"Ballyfermot","lat":53.342688,"lng":-6.358804},"8220DB002697":{"name":"Ballyfermot Parade","lat":53.342278,"lng":-6.353173},"8220DB002700":{"name":"Kylemore Road","lat":53.341297,"lng":-6.34854},"8220DB002701":{"name":"Ballyfermot Crescent","lat":53.34017,"lng":-6.348298},"8220DB002702":{"name":"Kylemore Avenue","lat":53.338103,"lng":-6.347702},"8220DB002726":{"name":"Slievebloom Park","lat":53.323814,"lng":-6.33042},"8220DB002727":{"name":"Drimnagh Castle","lat":53.323759,"lng":-6.332884},"8220DB002778":{"name":"Drimnagh Castle","lat":53.324024,"lng":-6.331943},"8220DB002780":{"name":"Walkinstown Avenue","lat":53.325685,"lng":-6.342087},"8220DB002781":{"name":"Kylemore Road","lat":53.327963,"lng":-6.343695},"8220DB002782":{"name":"Bluebell Avenue","lat":53.330677,"lng":-6.345617},"8220DB002783":{"name":"Kylemore Way","lat":53.335359,"lng":-6.346862},"8220DB002784":{"name":"Kylemore Way","lat":53.335239,"lng":-6.346612},"8220DB002785":{"name":"Bluebell Avenue","lat":53.330084,"lng":-6.344964},"8220DB002786":{"name":"Kylemore Luas","lat":53.327842,"lng":-6.343369},"8220DB002787":{"name":"Walkinstown Avenue","lat":53.325101,"lng":-6.341449},"8220DB002810":{"name":"Clare Street","lat":53.340795,"lng":-6.250897},"8220DB002957":{"name":"McKee Avenue North","lat":53.396234,"lng":-6.302594},"8220DB002958":{"name":"McKee Avenue","lat":53.394406,"lng":-6.301088},"8220DB004319":{"name":"Heuston Train Stn","lat":53.346766,"lng":-6.292033},"8220DB004363":{"name":"Berryfield Road","lat":53.381712,"lng":-6.303443},"8220DB004364":{"name":"Cappagh Hospital","lat":53.392911,"lng":-6.322529},"8220DB004365":{"name":"Poppintree Park","lat":53.402145,"lng":-6.283514},"8220DB004366":{"name":"Clune Road","lat":53.391215,"lng":-6.29481},"8220DB004367":{"name":"Jamestown Road","lat":53.398733,"lng":-6.289396},"8220DB004368":{"name":"Poppintree Park","lat":53.398824,"lng":-6.288866},"8220DB004369":{"name":"Oakwood Road","lat":53.397265,"lng":-6.292357},"8220DB004375":{"name":"Jamestown Road","lat":53.391673,"lng":-6.296656},"8220DB004376":{"name":"McKee Road","lat":53.392408,"lng":-6.292732},"8220DB004377":{"name":"McKee Road North","lat":53.394489,"lng":-6.289942},"8220DB004378":{"name":"Cremore Crescent","lat":53.378836,"lng":-6.2765},"8220DB004389":{"name":"Clanawley Road","lat":53.373464,"lng":-6.210692},"8220DB004390":{"name":"Killester Avenue","lat":53.37189,"lng":-6.207662},"8220DB004406":{"name":"Concorde Business Park","lat":53.328089,"lng":-6.338511},"8220DB004407":{"name":"Victoria Quay","lat":53.346488,"lng":-6.285165},"8220DB004413":{"name":"Heuston Station","lat":53.34623,"lng":-6.29242},"8220DB004414":{"name":"Convent Lawns","lat":53.344337,"lng":-6.350014},"8220DB004458":{"name":"Military Cemetery","lat":53.36045,"lng":-6.308119},"8220DB004473":{"name":"Artane Castle SC","lat":53.383914,"lng":-6.214704},"8220DB004474":{"name":"Artane Castle SC","lat":53.384137,"lng":-6.215191},"8220DB004479":{"name":"Clune Road","lat":53.391304,"lng":-6.29413},"8220DB004498":{"name":"John Paul Park","lat":53.366804,"lng":-6.30426},"8220DB004509":{"name":"Summerhill","lat":53.355972,"lng":-6.252454},"8220DB004514":{"name":"Saint James's Hospital","lat":53.34006,"lng":-6.29674},"8220DB004516":{"name":"Saint James's Hospital","lat":53.33995,"lng":-6.296871},"8220DB004518":{"name":"Fairview Strand","lat":53.362583,"lng":-6.24114},"8220DB004539":{"name":"Glenties Park","lat":53.381673,"lng":-6.31084},"8220DB004583":{"name":"Finglas West","lat":53.388529,"lng":-6.312598},"8220DB004592":{"name":"Finglas Village","lat":53.389686,"lng":-6.298495},"8220DB004597":{"name":"Beaumont Hospital","lat":53.390251,"lng":-6.224317},"8220DB004720":{"name":"Aston Quay","lat":53.346595,"lng":-6.260273},"8220DB004781":{"name":"IDA Poppintree","lat":53.401748,"lng":-6.284057},"8220DB004784":{"name":"Remedial Clinic","lat":53.370084,"lng":-6.201111},"8220DB004785":{"name":"Remedial Clinic","lat":53.370246,"lng":-6.20172},"8220DB004788":{"name":"Oakwood Road","lat":53.396935,"lng":-6.292506},"8220DB004790":{"name":"Pinebrook Drive","lat":53.38139,"lng":-6.211788},"8220DB004791":{"name":"Killester Avenue","lat":53.371612,"lng":-6.207659},"8220DB004792":{"name":"Clanawley Road","lat":53.372799,"lng":-6.209503},"8220DB004793":{"name":"Avila Park","lat":53.392267,"lng":-6.320825},"8220DB004794":{"name":"Clontarf Road Station","lat":53.363005,"lng":-6.226562},"8220DB004890":{"name":"Sycamore Road","lat":53.395168,"lng":-6.290863},"8220DB004937":{"name":"Clearstream Court","lat":53.392672,"lng":-6.300511},"8220DB004938":{"name":"Gofton Hall","lat":53.390862,"lng":-6.298357},"8220DB005006":{"name":"Le Fanu Road","lat":53.346203,"lng":-6.3517},"8220DB005007":{"name":"Convent Lawns","lat":53.344188,"lng":-6.34966},"8220DB005009":{"name":"Le Fanu Road","lat":53.346215,"lng":-6.351894},"8220DB005060":{"name":"Cromcastle Road","lat":53.397167,"lng":-6.224029},"8220DB005061":{"name":"Dundaniel Road","lat":53.395697,"lng":-6.224872},"8220DB005140":{"name":"Mayor Street Lower","lat":53.351124,"lng":-6.245532},"8220DB005141":{"name":"Clontarf Cemetery","lat":53.364744,"lng":-6.205213},"8220DB005149":{"name":"Errigal Road","lat":53.329087,"lng":-6.323743},"8220DB005174":{"name":"Dundaniel Road","lat":53.395709,"lng":-6.225098},"8220DB006056":{"name":"Kilnamanagh Road","lat":53.321686,"lng":-6.331854},"8220DB006057":{"name":"Kilnamanagh Road","lat":53.321461,"lng":-6.331173},"8220DB006068":{"name":"Ratoath Drive","lat":53.390282,"lng":-6.3171},"8220DB006074":{"name":"Earlsfort Terrace","lat":53.335886,"lng":-6.25754},"8220DB006078":{"name":"Cromcastle Road","lat":53.397242,"lng":-6.224222},"8220DB006094":{"name":"Errigal Gardens","lat":53.32583,"lng":-6.321634},"8220DB006125":{"name":"Poppintree Parade","lat":53.399882,"lng":-6.276838},"8220DB006239":{"name":"Dolmen Court","lat":53.398042,"lng":-6.271393},"8220DB006241":{"name":"Crannogue Road","lat":53.401816,"lng":-6.279407},"8220DB006273":{"name":"Sycamore Road","lat":53.395275,"lng":-6.290858},"8220DB007044":{"name":"Aulden Grange","lat":53.397409,"lng":-6.232486},"8220DB007092":{"name":"Dolmen Court","lat":53.398187,"lng":-6.272094},"8220DB007112":{"name":"Larch Hill","lat":53.397549,"lng":-6.229171},"8220DB007129":{"name":"Saint David's Court","lat":53.362098,"lng":-6.208584},"8220DB007130":{"name":"Cromcastle Green","lat":53.393073,"lng":-6.220696},"8220DB007153":{"name":"Walkinstown Drive","lat":53.322244,"lng":-6.335075},"8220DB007154":{"name":"Walkinstown Green","lat":53.32088,"lng":-6.333972},"8220DB007320":{"name":"Griffith Court","lat":53.368501,"lng":-6.239589},"8220DB007402":{"name":"Deverell Place","lat":53.351377,"lng":-6.254791},"8220DB007471":{"name":"Tolka Valley Green","lat":53.379257,"lng":-6.293244},"8220DB007571":{"name":"DCU Helix","lat":53.386776,"lng":-6.258725},"8220DB007607":{"name":"Vernon Avenue","lat":53.369414,"lng":-6.195428},"8220DB007828":{"name":"Shangan Road","lat":53.397201,"lng":-6.265188},"8220DB007838":{"name":"Finglas Village","lat":53.389826,"lng":-6.300128},"8220DB007840":{"name":"Donnycarney","lat":53.375129,"lng":-6.218063},"8220DB007845":{"name":"Finglas Village","lat":53.390114,"lng":-6.299515},"8220DB007888":{"name":"Winetavern Street","lat":53.344561,"lng":-6.271891},"8220DB007913":{"name":"Hannaville Park","lat":53.30976,"lng":-6.285647},"8220DB007939":{"name":"Heuston Station","lat":53.346636,"lng":-6.29556},"8220DB007941":{"name":"Kylemore","lat":53.32638,"lng":-6.34233},"8220DB007942":{"name":"Crumlin Village","lat":53.320826,"lng":-6.316682},"8220DB007943":{"name":"Highfield Road","lat":53.312739,"lng":-6.270385},"8220DB007945":{"name":"Palmerston Park","lat":53.313229,"lng":-6.264467},"8220DB007946":{"name":"Milltown Luas","lat":53.308297,"lng":-6.252932},"8220DB007947":{"name":"Shangarry","lat":53.30928,"lng":-6.2498},"8220DB007948":{"name":"Bankside Cottages","lat":53.310269,"lng":-6.247103},"8220DB007952":{"name":"Shangarry","lat":53.309904,"lng":-6.248544},"8220DB007953":{"name":"Milltown Luas","lat":53.308248,"lng":-6.252664},"8220DB007954":{"name":"Highfield Road","lat":53.313136,"lng":-6.264906},"8220DB007957":{"name":"Fairfield Park","lat":53.312656,"lng":-6.270823},"8220DB007958":{"name":"Drimnagh Road","lat":53.32452,"lng":-6.32382},"8220DB008246":{"name":"Griffith Avenue","lat":53.379305,"lng":-6.265414},"8220DB008296":{"name":"Nephin Road","lat":53.36263,"lng":-6.31139},"8220DB008297":{"name":"Navan Road","lat":53.36454,"lng":-6.309},"8220DB008299":{"name":"Lagan Road","lat":53.375324,"lng":-6.299971},"8220DB008300":{"name":"Glasnevin Court","lat":53.376172,"lng":-6.292262},"8220DB008301":{"name":"Glasnevin Woods","lat":53.375628,"lng":-6.288212},"8220DB008302":{"name":"Glasnevin Downs","lat":53.37816,"lng":-6.2863},"8220DB008303":{"name":"St Clare's","lat":53.37931,"lng":-6.27133},"8220DB008304":{"name":"Drumcondra Road","lat":53.375672,"lng":-6.249473},"8220DB008305":{"name":"Grace Park Road","lat":53.373883,"lng":-6.242673},"8220DB008306":{"name":"Drumcondra Road","lat":53.375943,"lng":-6.251218},"8220DB008307":{"name":"St Mobhi Road","lat":53.378704,"lng":-6.266153},"8220DB008308":{"name":"St Clare's","lat":53.379157,"lng":-6.271342},"8220DB008309":{"name":"Glasnevin Downs","lat":53.378151,"lng":-6.284902},"8220DB008310":{"name":"Glasnevin Woods","lat":53.375599,"lng":-6.28725},"8220DB008311":{"name":"Glasnevin Court","lat":53.37606,"lng":-6.29223},"8220DB008312":{"name":"Lagan Road","lat":53.3748,"lng":-6.29975},"8220DB008314":{"name":"Croaghpatrick Road","lat":53.36447,"lng":-6.30892},"8220DB008315":{"name":"Park Crescent","lat":53.3625,"lng":-6.31075},"8220DB008411":{"name":"Parnell Street East","lat":53.353723,"lng":-6.256398},"8220GD007829":{"name":"Shangan Road","lat":53.397313,"lng":-6.265753},"8220GD007837":{"name":"Howth Junction","lat":53.390121,"lng":-6.155926},"8220GD007841":{"name":"Brookville Crescent","lat":53.389683,"lng":-6.19842},"8220GD8340":{"name":"Broombridge","lat":53.37219,"lng":-6.300028},"8220GD8341":{"name":"Broombridge","lat":53.372116,"lng":-6.299883},"8230B105121":{"name":"Saggart Cross","lat":53.291358,"lng":-6.439194},"8230B1056701":{"name":"Saggart Cross","lat":53.292024,"lng":-6.4365},"8230B1339501":{"name":"Holy Family NS","lat":53.281284,"lng":-6.477533},"8230DB000946":{"name":"Woodbrook Park","lat":53.293247,"lng":-6.310041},"8230DB001131":{"name":"Old Bridge Road","lat":53.294222,"lng":-6.307872},"8230DB001132":{"name":"Anne Devlin Road","lat":53.29435,"lng":-6.304837},"8230DB001133":{"name":"Butterfield Grove","lat":53.294705,"lng":-6.301342},"8230DB001134":{"name":"Rathfarnham SC","lat":53.295507,"lng":-6.29837},"8230DB001138":{"name":"Butterfield Grove","lat":53.294834,"lng":-6.300347},"8230DB001139":{"name":"Old Bridge Road","lat":53.294224,"lng":-6.306747},"8230DB001140":{"name":"Woodbrook Park","lat":53.293285,"lng":-6.309559},"8230DB001146":{"name":"St Colmcille's School","lat":53.279374,"lng":-6.314217},"8230DB001149":{"name":"St Colmcilles School","lat":53.279358,"lng":-6.315628},"8230DB001305":{"name":"Grange Road North","lat":53.29617,"lng":-6.283747},"8230DB001329":{"name":"Rathfarnham Wood","lat":53.294967,"lng":-6.281994},"8230DB001330":{"name":"Grange Road North","lat":53.296191,"lng":-6.283986},"8230DB001960":{"name":"Red Cow Hotel","lat":53.320063,"lng":-6.361954},"8230DB001977":{"name":"Red Cow Hotel","lat":53.320547,"lng":-6.36183},"8230DB002110":{"name":"Newlands Cross","lat":53.314647,"lng":-6.391968},"8230DB002111":{"name":"Clondalkin Church","lat":53.319159,"lng":-6.392594},"8230DB002112":{"name":"Main Street Clondalkin","lat":53.32067,"lng":-6.393378},"8230DB002114":{"name":"The Mill Shopping Centre","lat":53.324215,"lng":-6.395602},"8230DB002115":{"name":"Oakfield","lat":53.32563,"lng":-6.395248},"8230DB002116":{"name":"Michael Collins Pk","lat":53.32825,"lng":-6.396291},"8230DB002117":{"name":"Station Road","lat":53.32955,"lng":-6.397564},"8230DB002118":{"name":"Neilstown Road","lat":53.335624,"lng":-6.400564},"8230DB002119":{"name":"Saint Peter's Junior National School","lat":53.337048,"lng":-6.40018},"8230DB002120":{"name":"Collinstown College","lat":53.341163,"lng":-6.399426},"8230DB002121":{"name":"Rowlagh","lat":53.343876,"lng":-6.398603},"8230DB002123":{"name":"St Mark's Avenue","lat":53.347176,"lng":-6.398074},"8230DB002124":{"name":"Neilstown Road","lat":53.346958,"lng":-6.397932},"8230DB002125":{"name":"Harelawn Green","lat":53.345587,"lng":-6.398194},"8230DB002126":{"name":"Rowlagh","lat":53.343935,"lng":-6.398376},"8230DB002127":{"name":"Collinstown College","lat":53.341572,"lng":-6.399035},"8230DB002128":{"name":"Neilstown Avenue","lat":53.339667,"lng":-6.399752},"8230DB002129":{"name":"Moorefield Drive","lat":53.335728,"lng":-6.400305},"8230DB002130":{"name":"Station Road","lat":53.329724,"lng":-6.397572},"8230DB002158":{"name":"Oakfield","lat":53.325404,"lng":-6.395137},"8230DB002159":{"name":"Orchard Road","lat":53.323221,"lng":-6.393883},"8230DB002173":{"name":"Laurel Park","lat":53.318552,"lng":-6.392242},"8230DB002174":{"name":"Knockmeenagh Road","lat":53.316399,"lng":-6.391227},"8230DB002176":{"name":"Newlands Cross","lat":53.313706,"lng":-6.388116},"8230DB002202":{"name":"Kennelsfort Road","lat":53.354382,"lng":-6.373302},"8230DB002203":{"name":"Woodfarm","lat":53.353207,"lng":-6.376156},"8230DB002204":{"name":"Palmerstown Shopping Centre","lat":53.350019,"lng":-6.377659},"8230DB002205":{"name":"Cherry Orchard Hosp","lat":53.344591,"lng":-6.377024},"8230DB002206":{"name":"Cherry Orchard Hosp","lat":53.344187,"lng":-6.375748},"8230DB002207":{"name":"Palmers Crescent","lat":53.346757,"lng":-6.37966},"8230DB002208":{"name":"Palmerstown Shopping Centre","lat":53.349913,"lng":-6.377783},"8230DB002210":{"name":"Woodfarm","lat":53.352392,"lng":-6.37832},"8230DB002211":{"name":"Kennelsfort Road","lat":53.353959,"lng":-6.37458},"8230DB002212":{"name":"Palmerstown Village","lat":53.355967,"lng":-6.370943},"8230DB002213":{"name":"Liffey Valley SC","lat":53.355778,"lng":-6.392073},"8230DB002214":{"name":"Clayton Hotel","lat":53.35609,"lng":-6.399933},"8230DB002215":{"name":"St Loman's Hospital","lat":53.358206,"lng":-6.408973},"8230DB002216":{"name":"Ballyowen Lane","lat":53.358865,"lng":-6.41595},"8230DB002223":{"name":"Main St Lucan","lat":53.358527,"lng":-6.44906},"8230DB002224":{"name":"Lucan Village","lat":53.357278,"lng":-6.449751},"8230DB002225":{"name":"St Patricks Church","lat":53.349552,"lng":-6.450047},"8230DB002226":{"name":"Collins Bridge","lat":53.370272,"lng":-6.456523},"8230DB002227":{"name":"St Patricks Church","lat":53.349564,"lng":-6.450257},"8230DB002228":{"name":"Collins Bridge","lat":53.371307,"lng":-6.455884},"8230DB002229":{"name":"Main St Lucan","lat":53.358606,"lng":-6.448877},"8230DB002234":{"name":"Lucan Retail Park","lat":53.359336,"lng":-6.424391},"8230DB002236":{"name":"Hermitage Bridge","lat":53.358869,"lng":-6.410857},"8230DB002239":{"name":"Liffey Valley SC","lat":53.356169,"lng":-6.391727},"8230DB002345":{"name":"Belgard Retail Park","lat":53.293663,"lng":-6.369025},"8230DB002346":{"name":"Belgard Road South","lat":53.29008,"lng":-6.367901},"8230DB002349":{"name":"Alderwood","lat":53.285029,"lng":-6.378472},"8230DB002351":{"name":"Maplewood","lat":53.283206,"lng":-6.384525},"8230DB002352":{"name":"Jobstown House","lat":53.27738,"lng":-6.39785},"8230DB002357":{"name":"Jobstown House","lat":53.27804,"lng":-6.39674},"8230DB002358":{"name":"Killinarden West","lat":53.27981,"lng":-6.3914},"8230DB002359":{"name":"Maplewood","lat":53.28359,"lng":-6.384376},"8230DB002360":{"name":"Alderwood","lat":53.284695,"lng":-6.379685},"8230DB002363":{"name":"Belgard Road South","lat":53.289806,"lng":-6.368257},"8230DB002364":{"name":"Belgard Retail Park","lat":53.293631,"lng":-6.369311},"8230DB002515":{"name":"Cherryfield Way","lat":53.291344,"lng":-6.312816},"8230DB002516":{"name":"Cremorne","lat":53.290223,"lng":-6.31553},"8230DB002517":{"name":"Green Acre Court","lat":53.289215,"lng":-6.3186},"8230DB002518":{"name":"Knocklyon Avenue","lat":53.288532,"lng":-6.324387},"8230DB002520":{"name":"Ballycullen Road","lat":53.286078,"lng":-6.332657},"8230DB002521":{"name":"Woodlawn Park","lat":53.284719,"lng":-6.335784},"8230DB002522":{"name":"Firhouse Centre","lat":53.281422,"lng":-6.342346},"8230DB002523":{"name":"Firhouse College","lat":53.277107,"lng":-6.348751},"8230DB002524":{"name":"Ballycullen Drive","lat":53.278374,"lng":-6.346768},"8230DB002532":{"name":"Old Bawn Shopping Centre","lat":53.275604,"lng":-6.354432},"8230DB002533":{"name":"Parkwood Lawn","lat":53.277508,"lng":-6.357643},"8230DB002534":{"name":"Old Bawn Terrace","lat":53.278929,"lng":-6.358309},"8230DB002535":{"name":"Old Bawn Road","lat":53.281013,"lng":-6.358919},"8230DB002536":{"name":"Old Bawn Court","lat":53.282955,"lng":-6.359579},"8230DB002538":{"name":"Old Bawn Road","lat":53.281535,"lng":-6.358914},"8230DB002539":{"name":"Parkwood Lawn","lat":53.276536,"lng":-6.356181},"8230DB002540":{"name":"Old Bawn Shopping Centre","lat":53.275532,"lng":-6.353775},"8230DB002542":{"name":"Firhouse College","lat":53.276793,"lng":-6.350098},"8230DB002544":{"name":"Woodlawn","lat":53.284873,"lng":-6.335823},"8230DB002545":{"name":"Monalea Wood","lat":53.286257,"lng":-6.332635},"8230DB002547":{"name":"Knocklyon Avenue","lat":53.289105,"lng":-6.323539},"8230DB002548":{"name":"Green Acre Court","lat":53.289503,"lng":-6.317974},"8230DB002557":{"name":"Tallaght Village","lat":53.288506,"lng":-6.363281},"8230DB002573":{"name":"Kiltalown Cottages","lat":53.274275,"lng":-6.406859},"8230DB002574":{"name":"De Selby Estate","lat":53.274561,"lng":-6.410732},"8230DB002575":{"name":"Corbally Vale","lat":53.277158,"lng":-6.418823},"8230DB002590":{"name":"Belfry Downs","lat":53.275145,"lng":-6.415494},"8230DB002591":{"name":"De Selby Estate","lat":53.274611,"lng":-6.410445},"8230DB002592":{"name":"Kiltalown Cottages","lat":53.274304,"lng":-6.406273},"8230DB002604":{"name":"Village Green","lat":53.286815,"lng":-6.361846},"8230DB002605":{"name":"Saint Maelruan's Park","lat":53.284056,"lng":-6.359912},"8230DB002616":{"name":"Saint Maelruan's Park","lat":53.284641,"lng":-6.360639},"8230DB002617":{"name":"Village Green","lat":53.28671,"lng":-6.362075},"8230DB002618":{"name":"Belgard","lat":53.298755,"lng":-6.371291},"8230DB002619":{"name":"Belgard Road","lat":53.302675,"lng":-6.376694},"8230DB002620":{"name":"Belgard","lat":53.298721,"lng":-6.370842},"8230DB002621":{"name":"Kilclare Drive","lat":53.282133,"lng":-6.389605},"8230DB002622":{"name":"Tallaght Leisure Centre","lat":53.283809,"lng":-6.392601},"8230DB002623":{"name":"Whitebrook","lat":53.28553,"lng":-6.394922},"8230DB002624":{"name":"Rossfield","lat":53.288765,"lng":-6.400185},"8230DB002626":{"name":"Brookview Road","lat":53.285921,"lng":-6.407341},"8230DB002628":{"name":"Brookfield Road","lat":53.288871,"lng":-6.404111},"8230DB002629":{"name":"Fettercairn Crescent","lat":53.288204,"lng":-6.398631},"8230DB002631":{"name":"Kilclare Drive","lat":53.282196,"lng":-6.388973},"8230DB002673":{"name":"Cherry Orchard IE","lat":53.343779,"lng":-6.372895},"8230DB002674":{"name":"Coldcut Road","lat":53.347496,"lng":-6.389111},"8230DB002675":{"name":"Harelawn","lat":53.347789,"lng":-6.395528},"8230DB002685":{"name":"Coldcut Road","lat":53.347955,"lng":-6.395852},"8230DB002686":{"name":"Coldcut Road","lat":53.347652,"lng":-6.388713},"8230DB002687":{"name":"Cherry Orchard IE","lat":53.343961,"lng":-6.373038},"8230DB002762":{"name":"Tallaght Fire Station","lat":53.308926,"lng":-6.386943},"8230DB002763":{"name":"Newlands Golf Club","lat":53.308809,"lng":-6.38629},"8230DB002927":{"name":"Edmondstown Road","lat":53.277135,"lng":-6.297076},"8230DB002929":{"name":"Edmondstown Golf","lat":53.271833,"lng":-6.299026},"8230DB002930":{"name":"Kilmashogue Cemetery","lat":53.267905,"lng":-6.298372},"8230DB002933":{"name":"Rockbrook","lat":53.261871,"lng":-6.297547},"8230DB002934":{"name":"Rockbrook","lat":53.262097,"lng":-6.297673},"8230DB002935":{"name":"The Merry Ploughboy","lat":53.264131,"lng":-6.297188},"8230DB002936":{"name":"Kilmashogue Cemetery","lat":53.266099,"lng":-6.297829},"8230DB002937":{"name":"Edmondstown NS","lat":53.268648,"lng":-6.298807},"8230DB002938":{"name":"Edmondstown Golf","lat":53.271645,"lng":-6.299108},"8230DB002940":{"name":"Moyville","lat":53.280359,"lng":-6.297487},"8230DB002948":{"name":"Ballyboden Crescent","lat":53.281953,"lng":-6.295819},"8230DB002949":{"name":"Moyville Lawns","lat":53.281673,"lng":-6.293251},"8230DB002950":{"name":"Pearse Brothers Park","lat":53.281793,"lng":-6.288462},"8230DB002954":{"name":"Whitechurch Green","lat":53.278042,"lng":-6.286318},"8230DB002956":{"name":"Glenmore Park","lat":53.27812,"lng":-6.286164},"8230DB002965":{"name":"Whitechurch Road","lat":53.280304,"lng":-6.284277},"8230DB002967":{"name":"Eden Avenue","lat":53.28134,"lng":-6.276917},"8230DB002968":{"name":"Three Rock Rovers","lat":53.280329,"lng":-6.273569},"8230DB002980":{"name":"Three Rock Rovers","lat":53.280017,"lng":-6.273071},"8230DB002981":{"name":"Eden Avenue","lat":53.281272,"lng":-6.27725},"8230DB002983":{"name":"Pearse Brothers Park","lat":53.281619,"lng":-6.287554},"8230DB002984":{"name":"Moyville Lawns","lat":53.281544,"lng":-6.293616},"8230DB003368":{"name":"Finnstown Abbey","lat":53.344558,"lng":-6.449582},"8230DB003370":{"name":"Finnstown Abbey","lat":53.34447,"lng":-6.447693},"8230DB003392":{"name":"Hynestown","lat":53.308224,"lng":-6.495512},"8230DB003393":{"name":"Cornerpark","lat":53.303906,"lng":-6.499505},"8230DB003394":{"name":"Peamount Road","lat":53.300564,"lng":-6.501078},"8230DB003396":{"name":"Newcastle","lat":53.299752,"lng":-6.499381},"8230DB003397":{"name":"Graydon Road","lat":53.299636,"lng":-6.496624},"8230DB003398":{"name":"Aylmer Road","lat":53.298071,"lng":-6.493619},"8230DB003399":{"name":"Newcastle Manor","lat":53.296055,"lng":-6.49201},"8230DB003400":{"name":"Newcastle Manor","lat":53.295381,"lng":-6.490578},"8230DB003401":{"name":"Aylmer Road","lat":53.297758,"lng":-6.49378},"8230DB003402":{"name":"Graydon Road","lat":53.299607,"lng":-6.497121},"8230DB003404":{"name":"Peamount Road","lat":53.300961,"lng":-6.501169},"8230DB003405":{"name":"Cornerpark","lat":53.303605,"lng":-6.499861},"8230DB003406":{"name":"Cornerpark Farm","lat":53.305936,"lng":-6.497949},"8230DB003407":{"name":"Keeloges","lat":53.311257,"lng":-6.490888},"8230DB003408":{"name":"Loughtown Road","lat":53.312274,"lng":-6.489547},"8230DB003410":{"name":"Hynestown","lat":53.307862,"lng":-6.496065},"8230DB003425":{"name":"Newlands Cross","lat":53.313902,"lng":-6.391996},"8230DB003426":{"name":"Citywest Hotel","lat":53.283774,"lng":-6.440715},"8230DB003427":{"name":"Newlands Cross","lat":53.31255,"lng":-6.39118},"8230DB003432":{"name":"Bianconi Avenue East","lat":53.29131,"lng":-6.42818},"8230DB003434":{"name":"Saggart Village","lat":53.280293,"lng":-6.444681},"8230DB003436":{"name":"Springbank","lat":53.28304,"lng":-6.45264},"8230DB003437":{"name":"Fitzmaurice Road","lat":53.283426,"lng":-6.458875},"8230DB003438":{"name":"Bianconi Avenue East","lat":53.291444,"lng":-6.427971},"8230DB003449":{"name":"Fitzmaurice Road","lat":53.283535,"lng":-6.458961},"8230DB003453":{"name":"Springbank","lat":53.282961,"lng":-6.452818},"8230DB003454":{"name":"Millrace Court","lat":53.281654,"lng":-6.447691},"8230DB003455":{"name":"Saggart Village","lat":53.280349,"lng":-6.444814},"8230DB003456":{"name":"Citywest Hotel","lat":53.283803,"lng":-6.440879},"8230DB003457":{"name":"Garters Lane","lat":53.290025,"lng":-6.438283},"8230DB003886":{"name":"Primrose Lane","lat":53.35569,"lng":-6.454166},"8230DB003887":{"name":"Ardeevin Avenue","lat":53.355229,"lng":-6.458779},"8230DB003888":{"name":"Old Cornmill Road","lat":53.355154,"lng":-6.462718},"8230DB003890":{"name":"Dodsboro Road","lat":53.350689,"lng":-6.464306},"8230DB003891":{"name":"Woodview Heights","lat":53.351942,"lng":-6.463164},"8230DB003949":{"name":"Leixlip Road","lat":53.355517,"lng":-6.460211},"8230DB003950":{"name":"Ball Alley House","lat":53.355603,"lng":-6.45501},"8230DB004327":{"name":"Liffey Valley Golf","lat":53.351062,"lng":-6.43832},"8230DB004340":{"name":"Tallaght Square","lat":53.28571,"lng":-6.37242},"8230DB004342":{"name":"The Square","lat":53.286106,"lng":-6.373062},"8230DB004347":{"name":"Tallaght Luas","lat":53.286222,"lng":-6.375007},"8230DB004348":{"name":"Tallaght Luas","lat":53.286672,"lng":-6.37505},"8230DB004357":{"name":"Hollyville Lawn","lat":53.357941,"lng":-6.380603},"8230DB004359":{"name":"Hollyville Lawn","lat":53.357975,"lng":-6.379099},"8230DB004360":{"name":"Robin Villas","lat":53.357154,"lng":-6.373587},"8230DB004361":{"name":"Palmerstown Village","lat":53.355612,"lng":-6.371212},"8230DB004409":{"name":"Clondalkin Village","lat":53.322347,"lng":-6.39309},"8230DB004435":{"name":"Tallaght Village","lat":53.288843,"lng":-6.363568},"8230DB004436":{"name":"Old Blessington Road","lat":53.289168,"lng":-6.366976},"8230DB004438":{"name":"Lake Drive","lat":53.293315,"lng":-6.422607},"8230DB004440":{"name":"Brookview Road","lat":53.286429,"lng":-6.407037},"8230DB004441":{"name":"Brookfield Road","lat":53.288527,"lng":-6.404604},"8230DB004445":{"name":"Killinarden West","lat":53.280811,"lng":-6.38889},"8230DB004545":{"name":"Grange Castle Gate","lat":53.319283,"lng":-6.434378},"8230DB004552":{"name":"Pfizer","lat":53.325086,"lng":-6.4396},"8230DB004554":{"name":"Grange Castle","lat":53.326928,"lng":-6.439547},"8230DB004555":{"name":"Pfizer","lat":53.325029,"lng":-6.439406},"8230DB004576":{"name":"Grange Castle Gate","lat":53.319363,"lng":-6.4343},"8230DB004599":{"name":"Hermitage Road","lat":53.357759,"lng":-6.423337},"8230DB004601":{"name":"Ballyowen Park","lat":53.355756,"lng":-6.422089},"8230DB004602":{"name":"The Penny Hill","lat":53.347626,"lng":-6.424477},"8230DB004611":{"name":"St Finnian's","lat":53.348924,"lng":-6.439766},"8230DB004612":{"name":"Arthur Griffith Park","lat":53.347449,"lng":-6.442463},"8230DB004613":{"name":"Esker Cottages","lat":53.345085,"lng":-6.444502},"8230DB004616":{"name":"Lucan Comm College","lat":53.347696,"lng":-6.451105},"8230DB004617":{"name":"Grange Castle","lat":53.326666,"lng":-6.439452},"8230DB004620":{"name":"Lucan Comm College","lat":53.347236,"lng":-6.450972},"8230DB004626":{"name":"Arthur Griffith Park","lat":53.34731,"lng":-6.442813},"8230DB004627":{"name":"St Finnian's","lat":53.349199,"lng":-6.439485},"8230DB004632":{"name":"Ballyowen Road","lat":53.347586,"lng":-6.424794},"8230DB004633":{"name":"Ballyowen Park","lat":53.35498,"lng":-6.421878},"8230DB004640":{"name":"Tallaght Hospital","lat":53.28933,"lng":-6.37397},"8230DB004646":{"name":"Tallaght Hospital","lat":53.28944,"lng":-6.37427},"8230DB004647":{"name":"Belgard Square North","lat":53.290058,"lng":-6.371532},"8230DB004713":{"name":"Citywest Road North","lat":53.291289,"lng":-6.427136},"8230DB004714":{"name":"Castle Drive","lat":53.288747,"lng":-6.423855},"8230DB004715":{"name":"Liffey Valley West","lat":53.352679,"lng":-6.395599},"8230DB004798":{"name":"Whitethorn Crescent","lat":53.345614,"lng":-6.38092},"8230DB004799":{"name":"Ballyfermot Road","lat":53.345194,"lng":-6.379074},"8230DB004869":{"name":"Saint Colmcilles Way","lat":53.279114,"lng":-6.318757},"8230DB004870":{"name":"Woodstown Crescent","lat":53.27673,"lng":-6.32963},"8230DB004871":{"name":"Wood Dale View","lat":53.276111,"lng":-6.336569},"8230DB004872":{"name":"Parklands","lat":53.275562,"lng":-6.342348},"8230DB004873":{"name":"Old Court Farm","lat":53.275033,"lng":-6.346957},"8230DB004874":{"name":"Old Court Road","lat":53.274697,"lng":-6.350629},"8230DB004882":{"name":"Old Court Road","lat":53.274792,"lng":-6.35034},"8230DB004883":{"name":"Old Court Farm","lat":53.275139,"lng":-6.346833},"8230DB004884":{"name":"Parklands","lat":53.275628,"lng":-6.3426},"8230DB004885":{"name":"Wood Dale View","lat":53.276219,"lng":-6.336595},"8230DB004886":{"name":"Woodstown Crescent","lat":53.276859,"lng":-6.329687},"8230DB004887":{"name":"Saint Colmcilles Way","lat":53.279473,"lng":-6.318038},"8230DB004888":{"name":"Palmers Crescent","lat":53.34743,"lng":-6.378929},"8230DB004929":{"name":"Verschoyle Avenue","lat":53.280806,"lng":-6.421418},"8230DB004930":{"name":"Citywest Road","lat":53.28757,"lng":-6.422488},"8230DB004931":{"name":"Castle Drive","lat":53.289019,"lng":-6.42536},"8230DB004932":{"name":"Magna Drive","lat":53.278861,"lng":-6.4205},"8230DB004933":{"name":"Belfry","lat":53.27764,"lng":-6.41927},"8230DB004960":{"name":"Citywest Road","lat":53.285051,"lng":-6.421621},"8230DB005008":{"name":"Belgard Square North","lat":53.29045,"lng":-6.369357},"8230DB005011":{"name":"Belgard Road","lat":53.302471,"lng":-6.376881},"8230DB005022":{"name":"Lake Drive","lat":53.29338,"lng":-6.422829},"8230DB005056":{"name":"Hermitage Clinic","lat":53.357521,"lng":-6.402794},"8230DB005058":{"name":"Ballyowen Road","lat":53.350899,"lng":-6.422494},"8230DB005119":{"name":"Brownsbarn Orchard","lat":53.297902,"lng":-6.420127},"8230DB005120":{"name":"Kingswood Hotel","lat":53.300758,"lng":-6.418627},"8230DB005125":{"name":"Brownsbarn Orchard","lat":53.298504,"lng":-6.41943},"8230DB005129":{"name":"Butterfield Avenue","lat":53.297709,"lng":-6.28577},"8230DB005130":{"name":"Charleville Square","lat":53.296694,"lng":-6.293327},"8230DB005131":{"name":"Charleville Square","lat":53.296974,"lng":-6.291606},"8230DB005132":{"name":"Owendore Avenue","lat":53.297946,"lng":-6.286661},"8230DB005138":{"name":"Esker Lodge","lat":53.351676,"lng":-6.434393},"8230DB005164":{"name":"Fforster Green","lat":53.350377,"lng":-6.423114},"8230DB006001":{"name":"Kingswood Avenue","lat":53.294477,"lng":-6.419399},"8230DB006022":{"name":"Kingswood Avenue","lat":53.295165,"lng":-6.418443},"8230DB006075":{"name":"Whitebrook","lat":53.283229,"lng":-6.390943},"8230DB006095":{"name":"Glenshane","lat":53.286762,"lng":-6.39633},"8230DB006119":{"name":"Keeloges","lat":53.311299,"lng":-6.490632},"8230DB006128":{"name":"Ballycullen Avenue","lat":53.283102,"lng":-6.340976},"8230DB006133":{"name":"Laraghcon","lat":53.360769,"lng":-6.452149},"8230DB006134":{"name":"Laraghcon","lat":53.360826,"lng":-6.451666},"8230DB006187":{"name":"Ballynakelly","lat":53.295089,"lng":-6.488833},"8230DB006188":{"name":"Tay Lane","lat":53.293683,"lng":-6.478652},"8230DB006216":{"name":"Tay Lane","lat":53.294,"lng":-6.48194},"8230DB006289":{"name":"Adamstown Station","lat":53.33628,"lng":-6.46891},"8230DB006290":{"name":"Adamstown Station","lat":53.33641,"lng":-6.46999},"8230DB007015":{"name":"Lynche's Lane","lat":53.330687,"lng":-6.431483},"8230DB007016":{"name":"Lynche's Lane","lat":53.330753,"lng":-6.431766},"8230DB007062":{"name":"Tallaght Leisure Centre","lat":53.28481,"lng":-6.393494},"8230DB007067":{"name":"Whitechurch Way","lat":53.277834,"lng":-6.288755},"8230DB007142":{"name":"Foxborough Rise","lat":53.339873,"lng":-6.428803},"8230DB007165":{"name":"Robin Villas","lat":53.357217,"lng":-6.374291},"8230DB007168":{"name":"Newcastle Road","lat":53.345215,"lng":-6.451721},"8230DB007186":{"name":"Lucan Spa Hotel","lat":53.356795,"lng":-6.465258},"8230DB007193":{"name":"Tandy's Lane","lat":53.353999,"lng":-6.458914},"8230DB007432":{"name":"Millrace Walk","lat":53.281876,"lng":-6.450248},"8230DB007440":{"name":"An Post Edmonstown","lat":53.27613,"lng":-6.297205},"8230DB007441":{"name":"The Merry Ploughboy","lat":53.264373,"lng":-6.297163},"8230DB007443":{"name":"Templeroan Estate","lat":53.281464,"lng":-6.306952},"8230DB007444":{"name":"The Glen","lat":53.282387,"lng":-6.299131},"8230DB007446":{"name":"Templeroan Estate","lat":53.281178,"lng":-6.307068},"8230DB007447":{"name":"Grange Golf Club","lat":53.281589,"lng":-6.281122},"8230DB007448":{"name":"Grange Golf Club","lat":53.281737,"lng":-6.281415},"8230DB007449":{"name":"Ballyboden Crescent","lat":53.281817,"lng":-6.29578},"8230DB007459":{"name":"Citywest Road North","lat":53.290842,"lng":-6.427288},"8230DB007460":{"name":"Citywest SC","lat":53.282632,"lng":-6.421531},"8230DB007510":{"name":"Coldcut Crescent","lat":53.347196,"lng":-6.384513},"8230DB007563":{"name":"Weston Hockey Club","lat":53.34557,"lng":-6.451393},"8230DB007749":{"name":"Dodsborough Road","lat":53.350599,"lng":-6.464249},"8230DB007751":{"name":"Esker Glebe","lat":53.350698,"lng":-6.438679},"8230DB007752":{"name":"Esker Park","lat":53.352401,"lng":-6.430806},"8230DB007754":{"name":"Clayton Hotel","lat":53.353797,"lng":-6.401191},"8230DB007760":{"name":"Glen Vale","lat":53.344727,"lng":-6.426101},"8230DB007761":{"name":"Glen Vale","lat":53.344258,"lng":-6.426704},"8230DB007768":{"name":"Larkfield","lat":53.354451,"lng":-6.417916},"8230DB007769":{"name":"Larkfield","lat":53.354439,"lng":-6.418367},"8230DB007772":{"name":"Liffey Avenue","lat":53.35376,"lng":-6.413225},"8230DB007773":{"name":"Liffey Avenue","lat":53.353687,"lng":-6.413122},"8230DB007774":{"name":"Lucan Garda Station","lat":53.356306,"lng":-6.451034},"8230DB007775":{"name":"Lucan Main Street","lat":53.355986,"lng":-6.449888},"8230DB007792":{"name":"Saint Lomans Road","lat":53.354003,"lng":-6.407898},"8230DB007793":{"name":"Saint Lomans Road","lat":53.353856,"lng":-6.407618},"8230DB007800":{"name":"The Paddocks Drive","lat":53.347621,"lng":-6.465467},"8230DB007801":{"name":"The Paddocks Drive","lat":53.349024,"lng":-6.464816},"8230DB007806":{"name":"St Andrews Drive","lat":53.354556,"lng":-6.423125},"8230DB007807":{"name":"St Andrews Drive","lat":53.354468,"lng":-6.422603},"8230DB007808":{"name":"Willsbrook Park","lat":53.352967,"lng":-6.427375},"8230DB007809":{"name":"Willsbrook Park","lat":53.352742,"lng":-6.427308},"8230DB007810":{"name":"Woodview Heights","lat":53.351743,"lng":-6.463081},"8230DB007875":{"name":"Michael Collins Park","lat":53.327183,"lng":-6.3951},"8230DB007878":{"name":"Cappaghmore","lat":53.331074,"lng":-6.399068},"8230DB007879":{"name":"Cappaghmore","lat":53.331195,"lng":-6.399408},"8230DB007880":{"name":"Main Street","lat":53.320686,"lng":-6.393182},"8230DB007881":{"name":"Liffey Valley South","lat":53.349318,"lng":-6.390964},"8230DB007884":{"name":"Liffey Valley Shopping Centre","lat":53.354078,"lng":-6.392001},"8230DB007892":{"name":"Adamstown Boulevard","lat":53.338678,"lng":-6.469648},"8230DB007898":{"name":"Adamstown Avenue","lat":53.338209,"lng":-6.468824},"8230DB007909":{"name":"The Glen","lat":53.282276,"lng":-6.298926},"8230DB007940":{"name":"Liffey Valley South","lat":53.349653,"lng":-6.391146},"8230DB007960":{"name":"Old Bawn Terrace","lat":53.27963,"lng":-6.358297},"8230DB007961":{"name":"Firhouse Road","lat":53.280508,"lng":-6.345096},"8230DB007966":{"name":"Rathfarnham SC","lat":53.295417,"lng":-6.298359},"8230DB007967":{"name":"Citywest SC","lat":53.282747,"lng":-6.421421},"8230DB007968":{"name":"Ballyboden St Endas","lat":53.282668,"lng":-6.301835},"8230DB007974":{"name":"Ballyboden St Endas","lat":53.28257,"lng":-6.30184},"8230DB007976":{"name":"Liffey Valley West","lat":53.352713,"lng":-6.396079},"8230DB007979":{"name":"Newlands Golf Club","lat":53.31108,"lng":-6.38941},"8230DB007986":{"name":"St. Helen's","lat":53.342316,"lng":-6.468737},"8230DB007987":{"name":"St. Helen's","lat":53.342169,"lng":-6.468547},"8230DB007988":{"name":"Shackleton Point","lat":53.344375,"lng":-6.466725},"8230DB007989":{"name":"Shackleton Point","lat":53.344255,"lng":-6.466489},"8230DB007990":{"name":"Tandy's Lane","lat":53.34651,"lng":-6.465702},"8230DB008029":{"name":"Liffey Valley Shopping Centre","lat":53.354429,"lng":-6.392694},"8230DB008030":{"name":"The Square","lat":53.285613,"lng":-6.372555},"8230DB008031":{"name":"The Square","lat":53.285748,"lng":-6.372595},"8230DB008059":{"name":"Liffey Valley SC","lat":53.354272,"lng":-6.392415},"8230DB008062":{"name":"Liffey Valley SC","lat":53.354538,"lng":-6.392795},"8230DB008063":{"name":"The Square","lat":53.285821,"lng":-6.372608},"8230DB008064":{"name":"Cheeverstown Luas","lat":53.291036,"lng":-6.40736},"8230DB008065":{"name":"Kingswood Road","lat":53.294334,"lng":-6.416074},"8230DB008066":{"name":"Green Isle Road","lat":53.304007,"lng":-6.421687},"8230DB008067":{"name":"Kingswood BP","lat":53.306897,"lng":-6.424747},"8230DB008068":{"name":"Nangor","lat":53.318877,"lng":-6.430865},"8230DB008070":{"name":"Kishoge Station","lat":53.33451,"lng":-6.4309},"8230DB008071":{"name":"Griffeen Avenue","lat":53.341081,"lng":-6.428413},"8230DB008072":{"name":"Kishoge Station","lat":53.33439,"lng":-6.43065},"8230DB008074":{"name":"Nangor","lat":53.318912,"lng":-6.431434},"8230DB008075":{"name":"Kingswood BP","lat":53.307136,"lng":-6.424453},"8230DB008076":{"name":"Green Isle Road","lat":53.304156,"lng":-6.421397},"8230DB008077":{"name":"Kingswood Road","lat":53.29403,"lng":-6.41559},"8230DB008086":{"name":"Greenogue IE","lat":53.290503,"lng":-6.468205},"8230DB008087":{"name":"Greenogue Rdbt","lat":53.291954,"lng":-6.472053},"8230DB008088":{"name":"Main Street","lat":53.299629,"lng":-6.499565},"8230DB008090":{"name":"Greenogue Rdbt","lat":53.291885,"lng":-6.471606},"8230DB008091":{"name":"Greenogue IE","lat":53.289635,"lng":-6.466406},"8230DB008512":{"name":"Castle Riada Drive","lat":53.346246,"lng":-6.425524},"8230DB07755":{"name":"Clayton Hotel","lat":53.353546,"lng":-6.40123},"8230GD10105":{"name":"Scholarstown Park","lat":53.279251,"lng":-6.309963},"8230GD10109":{"name":"Brookview","lat":53.285699,"lng":-6.410199},"8230GD10110":{"name":"Stone Masons Court","lat":53.284429,"lng":-6.420189},"8230GD10150":{"name":"Mac Uilliam","lat":53.285323,"lng":-6.417757},"8230GD10151":{"name":"Brookview","lat":53.285801,"lng":-6.409805},"8230GD10154":{"name":"Scholarstown Park","lat":53.279378,"lng":-6.310033},"8230GD10335":{"name":"Rokeby Park","lat":53.36375,"lng":-6.455361},"8230GD10385":{"name":"Rathcoole","lat":53.28417,"lng":-6.46342},"8240DB000124":{"name":"Virgin Mary Church","lat":53.394892,"lng":-6.260589},"8240DB000219":{"name":"Shantalla Avenue","lat":53.387828,"lng":-6.238536},"8240DB000221":{"name":"Shanowen Road","lat":53.389721,"lng":-6.246892},"8240DB000222":{"name":"Shanliss Road","lat":53.389945,"lng":-6.249304},"8240DB000223":{"name":"Shanliss Drive","lat":53.391062,"lng":-6.251919},"8240DB000224":{"name":"Shanard Road","lat":53.390835,"lng":-6.254184},"8240DB000225":{"name":"Shanowen Avenue","lat":53.390667,"lng":-6.257439},"8240DB000226":{"name":"Shanard Avenue","lat":53.391141,"lng":-6.2622},"8240DB000227":{"name":"Shanliss Drive","lat":53.391144,"lng":-6.251345},"8240DB000229":{"name":"Oldtown Road","lat":53.391399,"lng":-6.256536},"8240DB000230":{"name":"Shanowen Road","lat":53.389888,"lng":-6.249066},"8240DB000231":{"name":"Santry Village","lat":53.38924,"lng":-6.24595},"8240DB000232":{"name":"Shantalla Avenue","lat":53.387984,"lng":-6.236981},"8240DB000661":{"name":"Westend Office Park","lat":53.392422,"lng":-6.383489},"8240DB000679":{"name":"Santa Sabina","lat":53.38646,"lng":-6.102983},"8240DB000685":{"name":"Sutton Park School","lat":53.37541,"lng":-6.094846},"8240DB000693":{"name":"St Fintan's Church","lat":53.386893,"lng":-6.104166},"8240DB000733":{"name":"Forest View","lat":53.449433,"lng":-6.240474},"8240DB000788":{"name":"Ridgewood","lat":53.445854,"lng":-6.240968},"8240DB000815":{"name":"Forrest Little","lat":53.439938,"lng":-6.250019},"8240DB000905":{"name":"Yellow Walls Road","lat":53.451562,"lng":-6.17037},"8240DB000913":{"name":"Baldoyle Village","lat":53.396855,"lng":-6.126566},"8240DB000914":{"name":"Baldoyle Church","lat":53.398757,"lng":-6.127505},"8240DB000928":{"name":"Baldoyle Village","lat":53.397802,"lng":-6.12678},"8240DB000935":{"name":"Burrowfield Road","lat":53.393269,"lng":-6.120348},"8240DB000936":{"name":"Strand Road","lat":53.394218,"lng":-6.122381},"8240DB000938":{"name":"Baldoyle Estuary","lat":53.401543,"lng":-6.130361},"8240DB000940":{"name":"Coast Road","lat":53.406555,"lng":-6.134728},"8240DB000941":{"name":"Mayne Bridge","lat":53.410076,"lng":-6.136891},"8240DB000942":{"name":"Saint Rita's House","lat":53.415038,"lng":-6.138645},"8240DB000943":{"name":"Portmarnock Bridge","lat":53.418248,"lng":-6.142176},"8240DB000944":{"name":"Portmarnock Bridge","lat":53.417242,"lng":-6.142235},"8240DB000945":{"name":"Saint Rita's House","lat":53.41531,"lng":-6.138768},"8240DB000947":{"name":"Mayne Bridge","lat":53.409186,"lng":-6.136328},"8240DB000948":{"name":"Coast Road","lat":53.406143,"lng":-6.13428},"8240DB000949":{"name":"Baldoyle Estuary","lat":53.403172,"lng":-6.131613},"8240DB000950":{"name":"Baldoyle Church","lat":53.399646,"lng":-6.128038},"8240DB000951":{"name":"Baldoyle Slipway","lat":53.395843,"lng":-6.12452},"8240DB000952":{"name":"Strand Road","lat":53.394066,"lng":-6.121817},"8240DB000953":{"name":"Burrowfield Road","lat":53.393218,"lng":-6.119959},"8240DB000957":{"name":"Howth Junction","lat":53.390321,"lng":-6.157812},"8240DB000973":{"name":"Coolock Lane","lat":53.398226,"lng":-6.242723},"8240DB000974":{"name":"Santry Avenue","lat":53.397859,"lng":-6.247159},"8240DB000975":{"name":"Shanliss Way","lat":53.39928,"lng":-6.25268},"8240DB000976":{"name":"Geraldstown Wood","lat":53.400957,"lng":-6.262898},"8240DB000989":{"name":"Santry Avenue","lat":53.401042,"lng":-6.262594},"8240DB000990":{"name":"Shanliss Way","lat":53.398891,"lng":-6.250711},"8240DB000992":{"name":"Coolock Lane","lat":53.398158,"lng":-6.241207},"8240DB001010":{"name":"Saint Donagh's Park","lat":53.39059,"lng":-6.158341},"8240DB001039":{"name":"Seamount View","lat":53.453539,"lng":-6.20531},"8240DB001040":{"name":"Ashley Drive","lat":53.454036,"lng":-6.212065},"8240DB001041":{"name":"Ashley Drive","lat":53.454058,"lng":-6.211763},"8240DB001050":{"name":"Seamount View","lat":53.453669,"lng":-6.206208},"8240DB001073":{"name":"Chamley Park","lat":53.450693,"lng":-6.187045},"8240DB001206":{"name":"Balgriffin Cottages","lat":53.408106,"lng":-6.178102},"8240DB001207":{"name":"Fingal Cemetery","lat":53.410726,"lng":-6.179013},"8240DB001208":{"name":"Saint Doulagh's Church","lat":53.414298,"lng":-6.17868},"8240DB001209":{"name":"Bohammer","lat":53.416957,"lng":-6.177979},"8240DB001210":{"name":"Posie Row","lat":53.419033,"lng":-6.177364},"8240DB001211":{"name":"Kinsealy School","lat":53.421295,"lng":-6.176605},"8240DB001212":{"name":"Kinsealy School","lat":53.42055,"lng":-6.17665},"8240DB001213":{"name":"Bohammer","lat":53.41753,"lng":-6.1776},"8240DB001214":{"name":"Saint Doulagh's Church","lat":53.415313,"lng":-6.17805},"8240DB001215":{"name":"Lime Hill House","lat":53.413394,"lng":-6.178944},"8240DB001216":{"name":"Fingal Cemetery","lat":53.41033,"lng":-6.17859},"8240DB001217":{"name":"Balgriffin Cottages","lat":53.408202,"lng":-6.177947},"8240DB001545":{"name":"Westend Office Park","lat":53.392757,"lng":-6.384289},"8240DB001546":{"name":"Tyrrelstown","lat":53.419345,"lng":-6.382498},"8240DB001580":{"name":"Cappagh Cross","lat":53.397903,"lng":-6.334333},"8240DB001581":{"name":"Cappagh Cross","lat":53.398068,"lng":-6.333906},"8240DB001645":{"name":"Collins Avenue Ext","lat":53.389091,"lng":-6.264013},"8240DB001813":{"name":"Blanchardstown Vlge","lat":53.38568,"lng":-6.374108},"8240DB001814":{"name":"Ramor Park","lat":53.387562,"lng":-6.378998},"8240DB001816":{"name":"Waterville Row","lat":53.39309,"lng":-6.378382},"8240DB001817":{"name":"Corduff Crescent","lat":53.396053,"lng":-6.374856},"8240DB001818":{"name":"Aquatic Centre","lat":53.397563,"lng":-6.372257},"8240DB001819":{"name":"Corduff","lat":53.399633,"lng":-6.374403},"8240DB001820":{"name":"Corduff Grove","lat":53.401081,"lng":-6.375115},"8240DB001824":{"name":"Saddlers Avenue","lat":53.400796,"lng":-6.39391},"8240DB001825":{"name":"Church Road","lat":53.401765,"lng":-6.395813},"8240DB001826":{"name":"Lady's Well Road","lat":53.405908,"lng":-6.395086},"8240DB001827":{"name":"Parslickstown Ave","lat":53.407042,"lng":-6.398563},"8240DB001828":{"name":"Lady's Well Road","lat":53.407026,"lng":-6.398007},"8240DB001829":{"name":"Parslickstown Ave","lat":53.406199,"lng":-6.395346},"8240DB001830":{"name":"Church Road","lat":53.402206,"lng":-6.396489},"8240DB001831":{"name":"Coolmine Cottages","lat":53.400701,"lng":-6.393582},"8240DB001835":{"name":"Corduff","lat":53.400012,"lng":-6.375201},"8240DB001836":{"name":"Aquatic Centre","lat":53.398012,"lng":-6.371533},"8240DB001837":{"name":"Corduff Crescent","lat":53.395841,"lng":-6.375134},"8240DB001838":{"name":"Waterville Road","lat":53.396011,"lng":-6.37376},"8240DB001840":{"name":"Blanchardstown Vlge","lat":53.387961,"lng":-6.379283},"8240DB001841":{"name":"Church Road","lat":53.386121,"lng":-6.37552},"8240DB001842":{"name":"Old Navan Road","lat":53.384968,"lng":-6.371339},"8240DB001844":{"name":"Coolmine Fire Stn","lat":53.385411,"lng":-6.396113},"8240DB001850":{"name":"Whitestown Park","lat":53.397748,"lng":-6.399167},"8240DB001852":{"name":"Clonsilla Road","lat":53.387406,"lng":-6.383439},"8240DB001853":{"name":"Coolmine Woods","lat":53.384628,"lng":-6.38864},"8240DB001854":{"name":"Orchard Court","lat":53.383584,"lng":-6.391942},"8240DB001856":{"name":"Mountview Road","lat":53.390348,"lng":-6.402332},"8240DB001857":{"name":"Mountview Church","lat":53.391122,"lng":-6.407791},"8240DB001858":{"name":"Hartstown Road","lat":53.390882,"lng":-6.410657},"8240DB001859":{"name":"Willow Wood","lat":53.391036,"lng":-6.415492},"8240DB001860":{"name":"St Ciaran's Church","lat":53.393299,"lng":-6.418761},"8240DB001861":{"name":"Hartstown Comm Sch","lat":53.39675,"lng":-6.416663},"8240DB001862":{"name":"Pinebrook Vale","lat":53.398616,"lng":-6.415075},"8240DB001863":{"name":"Huntstown Green","lat":53.400615,"lng":-6.413347},"8240DB001864":{"name":"Sacred Heart Church","lat":53.401816,"lng":-6.410369},"8240DB001865":{"name":"Ashfield Gardens","lat":53.401045,"lng":-6.406443},"8240DB001866":{"name":"Ashfield Park","lat":53.3999,"lng":-6.402816},"8240DB001867":{"name":"Whitestown","lat":53.395808,"lng":-6.399962},"8240DB001869":{"name":"Sheepmoor Avenue","lat":53.396248,"lng":-6.399976},"8240DB001870":{"name":"Scoil Mhuire NS","lat":53.398057,"lng":-6.399412},"8240DB001871":{"name":"Huntstown Way","lat":53.39965,"lng":-6.402284},"8240DB001872":{"name":"Huntstown Road","lat":53.400779,"lng":-6.406107},"8240DB001873":{"name":"Sacred Heart Church","lat":53.401706,"lng":-6.410223},"8240DB001874":{"name":"Huntstown Court","lat":53.400232,"lng":-6.413571},"8240DB001875":{"name":"Pinebrook Vale","lat":53.398267,"lng":-6.415163},"8240DB001876":{"name":"Hartstown Comm Sch","lat":53.396436,"lng":-6.416735},"8240DB001877":{"name":"St Ciaran's Church","lat":53.393422,"lng":-6.418531},"8240DB001878":{"name":"Oakview","lat":53.39118,"lng":-6.415562},"8240DB001879":{"name":"Blakestown Cross","lat":53.391173,"lng":-6.409578},"8240DB001880":{"name":"Mount View Road","lat":53.391225,"lng":-6.407456},"8240DB001881":{"name":"Fortlawn Drive","lat":53.390524,"lng":-6.402716},"8240DB001882":{"name":"Millennium Park","lat":53.392773,"lng":-6.398813},"8240DB001883":{"name":"Scoil Oilibheir","lat":53.385745,"lng":-6.398205},"8240DB001884":{"name":"Porters Road","lat":53.385535,"lng":-6.395957},"8240DB001887":{"name":"Castlefield Woods","lat":53.382997,"lng":-6.410454},"8240DB001888":{"name":"Lambourn","lat":53.383173,"lng":-6.412252},"8240DB001889":{"name":"Castlefield Court","lat":53.383417,"lng":-6.417038},"8240DB001890":{"name":"Clonsilla Station","lat":53.383537,"lng":-6.422024},"8240DB001895":{"name":"Clonsilla Road","lat":53.383526,"lng":-6.417154},"8240DB001896":{"name":"Lambourn","lat":53.383356,"lng":-6.413793},"8240DB001897":{"name":"Castlefield Woods","lat":53.383112,"lng":-6.410345},"8240DB001902":{"name":"Orchard Court","lat":53.383537,"lng":-6.39244},"8240DB001903":{"name":"Broadway Road","lat":53.38525,"lng":-6.387474},"8240DB001904":{"name":"Springlawn","lat":53.387842,"lng":-6.383062},"8240DB001912":{"name":"Clonsilla Station","lat":53.38367,"lng":-6.420546},"8240DB002289":{"name":"Blackcourt Road","lat":53.401123,"lng":-6.374918},"8240DB002290":{"name":"Waterville Terrace","lat":53.391874,"lng":-6.372218},"8240DB002294":{"name":"Mill Road","lat":53.390087,"lng":-6.370347},"8240DB002338":{"name":"Waterville Row","lat":53.393085,"lng":-6.377991},"8240DB002468":{"name":"Blanchardstown Rd N","lat":53.40436,"lng":-6.373065},"8240DB002510":{"name":"Rosemount Park","lat":53.402188,"lng":-6.355582},"8240DB002960":{"name":"Retail Park","lat":53.394323,"lng":-6.388485},"8240DB003078":{"name":"Forrest Little","lat":53.440265,"lng":-6.249644},"8240DB003087":{"name":"Ridgewood","lat":53.446198,"lng":-6.240472},"8240DB003088":{"name":"River Valley Heights","lat":53.452727,"lng":-6.2371},"8240DB003089":{"name":"Cherry Avenue","lat":53.448965,"lng":-6.239786},"8240DB003090":{"name":"Forest View","lat":53.449584,"lng":-6.241537},"8240DB003340":{"name":"Littlepace","lat":53.408668,"lng":-6.428946},"8240DB003565":{"name":"Rush Road","lat":53.566759,"lng":-6.102183},"8240DB003566":{"name":"Selskar Court","lat":53.578068,"lng":-6.12507},"8240DB003567":{"name":"Skerries Station","lat":53.576279,"lng":-6.11994},"8240DB003569":{"name":"Selskar Road","lat":53.576527,"lng":-6.121439},"8240DB003571":{"name":"Selskar Court","lat":53.578145,"lng":-6.125399},"8240DB003572":{"name":"Highfield Green","lat":53.454327,"lng":-6.224385},"8240DB003573":{"name":"Kinsealy","lat":53.426077,"lng":-6.176581},"8240DB003575":{"name":"Kinsealy","lat":53.424322,"lng":-6.176461},"8240DB003576":{"name":"Abbeyville","lat":53.429315,"lng":-6.177947},"8240DB003577":{"name":"Myra Manor","lat":53.43216,"lng":-6.177043},"8240DB003578":{"name":"Streamstown Lane","lat":53.437814,"lng":-6.177087},"8240DB003579":{"name":"Auburn House","lat":53.44067,"lng":-6.176378},"8240DB003580":{"name":"Mabestown","lat":53.443256,"lng":-6.173858},"8240DB003583":{"name":"Saint Sylvester's School","lat":53.449348,"lng":-6.163163},"8240DB003584":{"name":"Hanlon's Lane","lat":53.449855,"lng":-6.159873},"8240DB003585":{"name":"Malahide Station","lat":53.450633,"lng":-6.154991},"8240DB003586":{"name":"Malahide Village","lat":53.451006,"lng":-6.150392},"8240DB003587":{"name":"The Old Golf Links","lat":53.451127,"lng":-6.145107},"8240DB003588":{"name":"Seapark","lat":53.449909,"lng":-6.140749},"8240DB003589":{"name":"Biscayne Estate","lat":53.446084,"lng":-6.132349},"8240DB003590":{"name":"Malahide Beach","lat":53.448759,"lng":-6.137351},"8240DB003591":{"name":"Robswall Crescent","lat":53.444634,"lng":-6.127565},"8240DB003592":{"name":"Monks Meadow","lat":53.437879,"lng":-6.122714},"8240DB003593":{"name":"The Velvet Strand","lat":53.432687,"lng":-6.124584},"8240DB003594":{"name":"Burrow Court","lat":53.429698,"lng":-6.127184},"8240DB003595":{"name":"Blackberry Lane","lat":53.427408,"lng":-6.129602},"8240DB003596":{"name":"Blackberry Rise","lat":53.425833,"lng":-6.131206},"8240DB003597":{"name":"The Dunes","lat":53.423985,"lng":-6.133153},"8240DB003598":{"name":"Portmarnock Village","lat":53.421739,"lng":-6.136095},"8240DB003599":{"name":"Portmarnock Village","lat":53.421646,"lng":-6.136475},"8240DB003600":{"name":"The Dunes","lat":53.423519,"lng":-6.133805},"8240DB003601":{"name":"Blackberry Rise","lat":53.426102,"lng":-6.131119},"8240DB003602":{"name":"Blackberry Lane","lat":53.428383,"lng":-6.128716},"8240DB003604":{"name":"The Velvet Strand","lat":53.432429,"lng":-6.124806},"8240DB003605":{"name":"Heather Walk","lat":53.433968,"lng":-6.124919},"8240DB003606":{"name":"Wendell Avenue","lat":53.434929,"lng":-6.130039},"8240DB003607":{"name":"Redfern Avenue","lat":53.434901,"lng":-6.136287},"8240DB003608":{"name":"Hillcourt","lat":53.431086,"lng":-6.134286},"8240DB003609":{"name":"Carrickhill Rd Lower","lat":53.426085,"lng":-6.134084},"8240DB003610":{"name":"Carrickhill Rd Lower","lat":53.425748,"lng":-6.134355},"8240DB003611":{"name":"Ardilaun","lat":53.428846,"lng":-6.133632},"8240DB003612":{"name":"Community School","lat":53.433369,"lng":-6.136595},"8240DB003613":{"name":"Redfern Avenue","lat":53.4351,"lng":-6.134622},"8240DB003615":{"name":"Wendell Avenue","lat":53.435313,"lng":-6.131603},"8240DB003616":{"name":"White Sands Hotel","lat":53.434276,"lng":-6.123927},"8240DB003618":{"name":"Monks Meadow","lat":53.438694,"lng":-6.123085},"8240DB003619":{"name":"Robswall","lat":53.444704,"lng":-6.128059},"8240DB003620":{"name":"Biscayne Estate","lat":53.446472,"lng":-6.134214},"8240DB003621":{"name":"Malahide Beach","lat":53.448266,"lng":-6.136338},"8240DB003622":{"name":"Seapark","lat":53.449464,"lng":-6.13991},"8240DB003623":{"name":"The Old Golf Links","lat":53.450657,"lng":-6.143743},"8240DB003634":{"name":"Malahide Station","lat":53.450455,"lng":-6.155119},"8240DB003635":{"name":"Hanlon's Lane","lat":53.44964,"lng":-6.16053},"8240DB003636":{"name":"Saint Sylvester's School","lat":53.449422,"lng":-6.162166},"8240DB003639":{"name":"Malahide Demesne","lat":53.445411,"lng":-6.173103},"8240DB003641":{"name":"Estuary Road","lat":53.452725,"lng":-6.183586},"8240DB003642":{"name":"Seabury","lat":53.455126,"lng":-6.1813},"8240DB003643":{"name":"Yellow Walls Road","lat":53.451238,"lng":-6.169179},"8240DB003644":{"name":"Mabestown","lat":53.443012,"lng":-6.173763},"8240DB003645":{"name":"Auburn House","lat":53.440534,"lng":-6.176308},"8240DB003646":{"name":"Streamstown Lane","lat":53.439116,"lng":-6.177001},"8240DB003647":{"name":"Myra Manor","lat":53.432713,"lng":-6.176763},"8240DB003653":{"name":"Feltrim Business Park","lat":53.448718,"lng":-6.204474},"8240DB003656":{"name":"Feltrim Business Park","lat":53.448528,"lng":-6.204422},"8240DB003661":{"name":"Abbeyville","lat":53.429134,"lng":-6.17785},"8240DB003662":{"name":"Baskin Lane","lat":53.42324,"lng":-6.17619},"8240DB003663":{"name":"Corballis Park","lat":53.424598,"lng":-6.234894},"8240DB003664":{"name":"Hampton Cove","lat":53.603399,"lng":-6.168225},"8240DB003669":{"name":"Aircraft Hangars","lat":53.428466,"lng":-6.23508},"8240DB003671":{"name":"Airport Roundabout","lat":53.4294,"lng":-6.230165},"8240DB003672":{"name":"Stockhole Lane","lat":53.432176,"lng":-6.23008},"8240DB003674":{"name":"Equestrian Centre","lat":53.44105,"lng":-6.227889},"8240DB003675":{"name":"N1 Business Park","lat":53.44334,"lng":-6.228336},"8240DB003676":{"name":"Airside","lat":53.446782,"lng":-6.228358},"8240DB003677":{"name":"Colaiste Choilm","lat":53.452349,"lng":-6.22492},"8240DB003678":{"name":"Swords Village","lat":53.455323,"lng":-6.222431},"8240DB003679":{"name":"Swords Castle","lat":53.459082,"lng":-6.220136},"8240DB003682":{"name":"Glasmore Park","lat":53.462024,"lng":-6.231248},"8240DB003686":{"name":"Rathbeale Crescent","lat":53.461918,"lng":-6.230183},"8240DB003689":{"name":"Swords Castle","lat":53.458936,"lng":-6.220006},"8240DB003690":{"name":"Swords Village","lat":53.456956,"lng":-6.221068},"8240DB003691":{"name":"Swords Village","lat":53.455977,"lng":-6.221696},"8240DB003692":{"name":"Carlton Court","lat":53.453447,"lng":-6.22382},"8240DB003694":{"name":"Pinnock Hill","lat":53.448996,"lng":-6.226731},"8240DB003695":{"name":"Airside","lat":53.447056,"lng":-6.228016},"8240DB003696":{"name":"N1 Business Park","lat":53.443182,"lng":-6.227996},"8240DB003697":{"name":"Equestrian Centre","lat":53.440686,"lng":-6.227558},"8240DB003698":{"name":"Kettles Lane","lat":53.436818,"lng":-6.227373},"8240DB003699":{"name":"Stockhole Lane","lat":53.435055,"lng":-6.227883},"8240DB003701":{"name":"Ballintrane Wood","lat":53.452617,"lng":-6.227227},"8240DB003702":{"name":"River Valley Drive","lat":53.451972,"lng":-6.232253},"8240DB003704":{"name":"River Valley Road","lat":53.453257,"lng":-6.239533},"8240DB003705":{"name":"Brookdale","lat":53.452813,"lng":-6.244159},"8240DB003706":{"name":"Forest Crescent","lat":53.451297,"lng":-6.244944},"8240DB003707":{"name":"Brookdale","lat":53.452351,"lng":-6.244554},"8240DB003708":{"name":"River Valley Road","lat":53.453264,"lng":-6.238765},"8240DB003709":{"name":"River Valley Heights","lat":53.452632,"lng":-6.23611},"8240DB003710":{"name":"River Valley Drive","lat":53.452056,"lng":-6.231226},"8240DB003711":{"name":"North Street","lat":53.46119,"lng":-6.218692},"8240DB003712":{"name":"Seatown West","lat":53.463649,"lng":-6.217219},"8240DB003713":{"name":"Balheary Park","lat":53.468689,"lng":-6.213452},"8240DB003714":{"name":"Broad Meadow Bridge","lat":53.472219,"lng":-6.210924},"8240DB003715":{"name":"Lissenhall Green","lat":53.480003,"lng":-6.203726},"8240DB003718":{"name":"Newbridge Demesne","lat":53.480457,"lng":-6.16209},"8240DB003719":{"name":"Newbridge House","lat":53.481912,"lng":-6.177261},"8240DB003721":{"name":"Donabate","lat":53.487168,"lng":-6.148478},"8240DB003722":{"name":"Leisure Centre","lat":53.489793,"lng":-6.142154},"8240DB003723":{"name":"Donabate NS","lat":53.492564,"lng":-6.135417},"8240DB003724":{"name":"Rahillion","lat":53.49271,"lng":-6.13085},"8240DB003725":{"name":"Middlefield Lane","lat":53.493494,"lng":-6.123047},"8240DB003726":{"name":"Portrane Avenue","lat":53.493198,"lng":-6.114529},"8240DB003728":{"name":"Healy's Lane","lat":53.496021,"lng":-6.113997},"8240DB003729":{"name":"Burrow Road","lat":53.497437,"lng":-6.114853},"8240DB003730":{"name":"Beach Lane","lat":53.499296,"lng":-6.116474},"8240DB003732":{"name":"Marsh Lane","lat":53.5001,"lng":-6.118474},"8240DB003733":{"name":"Beach Lane","lat":53.499488,"lng":-6.116677},"8240DB003734":{"name":"Burrow Road","lat":53.497174,"lng":-6.114699},"8240DB003735":{"name":"Healy's Lane","lat":53.496001,"lng":-6.113862},"8240DB003736":{"name":"Portrane","lat":53.49337,"lng":-6.111733},"8240DB003738":{"name":"Portane Avenue","lat":53.493167,"lng":-6.114817},"8240DB003739":{"name":"St Ita's Hospital","lat":53.489036,"lng":-6.114057},"8240DB003740":{"name":"Rahillion","lat":53.49251,"lng":-6.13189},"8240DB003741":{"name":"Donabate NS","lat":53.492488,"lng":-6.136279},"8240DB003745":{"name":"Newbridge Demesne","lat":53.480218,"lng":-6.163471},"8240DB003746":{"name":"Newbridge House","lat":53.482024,"lng":-6.178115},"8240DB003748":{"name":"Batter Lane","lat":53.488485,"lng":-6.197023},"8240DB003749":{"name":"Broad Meadow Bridge","lat":53.471634,"lng":-6.210828},"8240DB003750":{"name":"Balheary Park","lat":53.468495,"lng":-6.213099},"8240DB003751":{"name":"North Street","lat":53.460893,"lng":-6.218644},"8240DB003752":{"name":"Seatown West","lat":53.462413,"lng":-6.218144},"8240DB003755":{"name":"Turvey Avenue","lat":53.494283,"lng":-6.195254},"8240DB003756":{"name":"Blake's Cross","lat":53.502483,"lng":-6.191891},"8240DB003757":{"name":"Newhaggard","lat":53.504415,"lng":-6.188266},"8240DB003758":{"name":"Hannas Avenue","lat":53.50728,"lng":-6.185173},"8240DB003759":{"name":"Balleally West","lat":53.509908,"lng":-6.1801},"8240DB003760":{"name":"Bridetree","lat":53.511152,"lng":-6.177981},"8240DB003761":{"name":"Lusk Road","lat":53.515307,"lng":-6.172857},"8240DB003762":{"name":"Racecourse Commons","lat":53.518704,"lng":-6.16989},"8240DB003763":{"name":"Barrack Lane","lat":53.523668,"lng":-6.16767},"8240DB003764":{"name":"Station Road","lat":53.525325,"lng":-6.164416},"8240DB003765":{"name":"Orlynn Park","lat":53.524136,"lng":-6.160139},"8240DB003766":{"name":"Lusk House","lat":53.522365,"lng":-6.153127},"8240DB003767":{"name":"Rosewood","lat":53.522035,"lng":-6.148662},"8240DB003768":{"name":"Rogerstown Lane","lat":53.521649,"lng":-6.145783},"8240DB003769":{"name":"Beau Hill","lat":53.520502,"lng":-6.138488},"8240DB003770":{"name":"Rush & Lusk Stn","lat":53.521397,"lng":-6.144587},"8240DB003771":{"name":"Whitestown Road","lat":53.518693,"lng":-6.131389},"8240DB003772":{"name":"Spout Road","lat":53.518147,"lng":-6.126391},"8240DB003773":{"name":"Carthy's Lane","lat":53.517907,"lng":-6.123687},"8240DB003774":{"name":"Healy's Lane","lat":53.518904,"lng":-6.116223},"8240DB003775":{"name":"Millbank Court","lat":53.521514,"lng":-6.106213},"8240DB003777":{"name":"St Maur's Church","lat":53.522618,"lng":-6.101593},"8240DB003778":{"name":"Rush Main Street","lat":53.522725,"lng":-6.096989},"8240DB003780":{"name":"Chapel View","lat":53.485868,"lng":-6.148899},"8240DB003781":{"name":"Skerries Road","lat":53.523471,"lng":-6.091329},"8240DB003782":{"name":"Golden Ridge Cresc","lat":53.526085,"lng":-6.091287},"8240DB003783":{"name":"Rush Cricket Club","lat":53.529729,"lng":-6.09153},"8240DB003784":{"name":"Clifflands","lat":53.53384,"lng":-6.090621},"8240DB003785":{"name":"Rush Athletic FC","lat":53.539104,"lng":-6.092663},"8240DB003786":{"name":"Carnhill","lat":53.542242,"lng":-6.096083},"8240DB003787":{"name":"Loughshinny Cross","lat":53.546836,"lng":-6.101264},"8240DB003788":{"name":"Mine Road","lat":53.550308,"lng":-6.101984},"8240DB003789":{"name":"Thomastown Resevoir","lat":53.554136,"lng":-6.101918},"8240DB003790":{"name":"Pierstown Lane","lat":53.558631,"lng":-6.102593},"8240DB003791":{"name":"Hacketstown Cottages","lat":53.56251,"lng":-6.103476},"8240DB003792":{"name":"Hacketstown Park","lat":53.566009,"lng":-6.102489},"8240DB003793":{"name":"Shenick Road","lat":53.569908,"lng":-6.101242},"8240DB003794":{"name":"Skerries RFC","lat":53.573012,"lng":-6.101994},"8240DB003795":{"name":"Brookville Lane","lat":53.575046,"lng":-6.104425},"8240DB003797":{"name":"Strand Street","lat":53.57869,"lng":-6.106376},"8240DB003798":{"name":"Skerries","lat":53.580345,"lng":-6.107027},"8240DB003799":{"name":"Church Street","lat":53.579056,"lng":-6.110755},"8240DB003801":{"name":"North Cliff Heights","lat":53.58064,"lng":-6.127479},"8240DB003802":{"name":"Mourne View","lat":53.581822,"lng":-6.125493},"8240DB003805":{"name":"Barnageeragh Road","lat":53.585322,"lng":-6.148237},"8240DB003806":{"name":"Hampton Cove","lat":53.602977,"lng":-6.167684},"8240DB003807":{"name":"Fancourt Heights","lat":53.605021,"lng":-6.170814},"8240DB003808":{"name":"Craoibhin Park","lat":53.60591,"lng":-6.177244},"8240DB003809":{"name":"Old Market Green","lat":53.606124,"lng":-6.179486},"8240DB003811":{"name":"Hampton Street","lat":53.605881,"lng":-6.174797},"8240DB003812":{"name":"Fancourt Heights","lat":53.605101,"lng":-6.170796},"8240DB003813":{"name":"Ardgillan Demesne","lat":53.591386,"lng":-6.156191},"8240DB003814":{"name":"Barnageeragh Road","lat":53.585599,"lng":-6.148709},"8240DB003815":{"name":"Northcliffe Heights","lat":53.581944,"lng":-6.125216},"8240DB003816":{"name":"Mourne Drive","lat":53.580472,"lng":-6.127637},"8240DB003818":{"name":"Church Street","lat":53.579802,"lng":-6.110238},"8240DB003819":{"name":"Skerries","lat":53.579997,"lng":-6.106635},"8240DB003820":{"name":"Strand Street","lat":53.577873,"lng":-6.105869},"8240DB003822":{"name":"Brookville Lane","lat":53.57537,"lng":-6.10444},"8240DB003823":{"name":"Skerries RFC","lat":53.572772,"lng":-6.101582},"8240DB003824":{"name":"Shenick Road","lat":53.56971,"lng":-6.101206},"8240DB003825":{"name":"Hacketstown Cottages","lat":53.562294,"lng":-6.10341},"8240DB003826":{"name":"Pierstown Lane","lat":53.558485,"lng":-6.102418},"8240DB003827":{"name":"Thomastown Resevoir","lat":53.553982,"lng":-6.10185},"8240DB003828":{"name":"Mine Road","lat":53.549909,"lng":-6.101776},"8240DB003829":{"name":"Loughshinny Cross","lat":53.547284,"lng":-6.101199},"8240DB003831":{"name":"Carnhill","lat":53.542414,"lng":-6.096196},"8240DB003832":{"name":"Rush Athletic FC","lat":53.539148,"lng":-6.092616},"8240DB003833":{"name":"Clifflands","lat":53.53366,"lng":-6.090569},"8240DB003834":{"name":"Palmer Road","lat":53.530942,"lng":-6.091491},"8240DB003835":{"name":"Rush Cricket Club","lat":53.528835,"lng":-6.091269},"8240DB003836":{"name":"Kilbrush Lane","lat":53.523414,"lng":-6.091181},"8240DB003837":{"name":"Rush Main Street","lat":53.522017,"lng":-6.092616},"8240DB003838":{"name":"Community Centre","lat":53.522526,"lng":-6.096364},"8240DB003840":{"name":"Rush Garda Station","lat":53.522811,"lng":-6.100122},"8240DB003842":{"name":"Millbank Court","lat":53.521374,"lng":-6.10646},"8240DB003843":{"name":"Old Road","lat":53.520801,"lng":-6.109457},"8240DB003844":{"name":"Healy's Lane","lat":53.518699,"lng":-6.116352},"8240DB003845":{"name":"Whitestown Cemetery","lat":53.517654,"lng":-6.120169},"8240DB003846":{"name":"Spout Road","lat":53.51819,"lng":-6.127429},"8240DB003848":{"name":"Beau Hill","lat":53.520348,"lng":-6.138374},"8240DB003849":{"name":"Rush & Lusk Stn","lat":53.520986,"lng":-6.14189},"8240DB003850":{"name":"Rogerstown Lane","lat":53.521594,"lng":-6.146268},"8240DB003851":{"name":"Rosewood","lat":53.521929,"lng":-6.148184},"8240DB003852":{"name":"Lusk House","lat":53.522469,"lng":-6.154027},"8240DB003853":{"name":"Orlynn Park","lat":53.524235,"lng":-6.160723},"8240DB003854":{"name":"Station Road","lat":53.52535,"lng":-6.164838},"8240DB003855":{"name":"Barrack Lane","lat":53.523066,"lng":-6.167726},"8240DB003856":{"name":"Racecourse Commons","lat":53.518613,"lng":-6.169834},"8240DB003857":{"name":"Dublin Road","lat":53.514737,"lng":-6.173183},"8240DB003858":{"name":"Bridetree","lat":53.510972,"lng":-6.177944},"8240DB003859":{"name":"Balleally West","lat":53.509802,"lng":-6.180225},"8240DB003860":{"name":"Hannas Avenue","lat":53.507076,"lng":-6.185378},"8240DB003861":{"name":"Newhaggard","lat":53.504832,"lng":-6.187343},"8240DB003862":{"name":"Blake's Cross","lat":53.502291,"lng":-6.192231},"8240DB003863":{"name":"Turvey Avenue","lat":53.494535,"lng":-6.194671},"8240DB003864":{"name":"Abbylea Close","lat":53.463999,"lng":-6.234133},"8240DB003865":{"name":"Daleview Road","lat":53.466091,"lng":-6.237631},"8240DB003867":{"name":"New Dairy Lane","lat":53.473185,"lng":-6.256786},"8240DB003881":{"name":"New Dairy Lane","lat":53.473331,"lng":-6.25693},"8240DB003884":{"name":"Pine Grove Park","lat":53.464602,"lng":-6.234756},"8240DB004321":{"name":"Cold Stores","lat":53.411545,"lng":-6.370008},"8240DB004323":{"name":"Whitestown Grove","lat":53.396329,"lng":-6.393912},"8240DB004324":{"name":"Littlepace Gallops","lat":53.404018,"lng":-6.426636},"8240DB004325":{"name":"Littlepace","lat":53.408588,"lng":-6.428979},"8240DB004330":{"name":"Swords Pavilions","lat":53.454786,"lng":-6.218358},"8240DB004331":{"name":"Seabury","lat":53.4554,"lng":-6.17921},"8240DB004339":{"name":"Estuary Road","lat":53.452687,"lng":-6.183452},"8240DB004362":{"name":"Millennium Park","lat":53.393113,"lng":-6.39877},"8240DB004381":{"name":"Sutton Station","lat":53.3919,"lng":-6.11624},"8240DB004387":{"name":"Malahide Village","lat":53.450865,"lng":-6.152572},"8240DB004464":{"name":"Sheepmoor Grove","lat":53.394171,"lng":-6.399241},"8240DB004465":{"name":"Hazel Court","lat":53.419472,"lng":-6.139956},"8240DB004489":{"name":"Sheepmoor Grove","lat":53.394416,"lng":-6.399368},"8240DB004492":{"name":"Cherryfield Park","lat":53.394998,"lng":-6.418127},"8240DB004493":{"name":"Mountview Road","lat":53.390582,"lng":-6.400323},"8240DB004503":{"name":"Hazel Court","lat":53.419071,"lng":-6.140771},"8240DB004686":{"name":"Shangan Road","lat":53.394426,"lng":-6.258849},"8240DB004687":{"name":"Virgin Mary Church","lat":53.394774,"lng":-6.260534},"8240DB004742":{"name":"Damastown Green","lat":53.410979,"lng":-6.420151},"8240DB004743":{"name":"Damastown Drive","lat":53.411647,"lng":-6.42315},"8240DB004744":{"name":"IBM Campus","lat":53.419607,"lng":-6.418116},"8240DB004745":{"name":"Damastown IBM","lat":53.420469,"lng":-6.419423},"8240DB004747":{"name":"Blanchardstown SC","lat":53.394333,"lng":-6.391852},"8240DB004765":{"name":"Huntstown Wood","lat":53.403532,"lng":-6.414381},"8240DB004766":{"name":"Deerhaven","lat":53.403873,"lng":-6.418399},"8240DB004767":{"name":"The Grove","lat":53.403473,"lng":-6.423497},"8240DB004768":{"name":"Littlepace Park","lat":53.403797,"lng":-6.426253},"8240DB004769":{"name":"The Grove","lat":53.403571,"lng":-6.423464},"8240DB004770":{"name":"Deerhaven","lat":53.403969,"lng":-6.418215},"8240DB004820":{"name":"Westmanstown Sports","lat":53.379583,"lng":-6.439171},"8240DB004826":{"name":"Westmanstown Sports","lat":53.37954,"lng":-6.439368},"8240DB004893":{"name":"Diswellstown Road","lat":53.370159,"lng":-6.392763},"8240DB004898":{"name":"Castleknock College","lat":53.370276,"lng":-6.392789},"8240DB004903":{"name":"Lohunda Road","lat":53.386664,"lng":-6.401733},"8240DB004925":{"name":"Ballintrane Wood","lat":53.452161,"lng":-6.228601},"8240DB004926":{"name":"Highfield Green","lat":53.454439,"lng":-6.224607},"8240DB004974":{"name":"Aquatic Centre","lat":53.398999,"lng":-6.36942},"8240DB004976":{"name":"Indoor Arena","lat":53.401984,"lng":-6.362267},"8240DB004978":{"name":"Corporate Park","lat":53.409258,"lng":-6.370998},"8240DB004979":{"name":"Alexion","lat":53.411337,"lng":-6.377823},"8240DB004980":{"name":"Blanchardstown Rd N","lat":53.404216,"lng":-6.372996},"8240DB004989":{"name":"IBM Campus","lat":53.41911,"lng":-6.417894},"8240DB004990":{"name":"Damastown Road","lat":53.411726,"lng":-6.422982},"8240DB004991":{"name":"Damastown Green","lat":53.411085,"lng":-6.420072},"8240DB004992":{"name":"Damastown Ind Park","lat":53.410676,"lng":-6.41762},"8240DB005055":{"name":"Hazelwood","lat":53.400386,"lng":-6.259523},"8240DB005064":{"name":"Balbriggan","lat":53.605939,"lng":-6.183937},"8240DB005069":{"name":"Somerton","lat":53.491501,"lng":-6.139261},"8240DB005071":{"name":"Alexion","lat":53.410962,"lng":-6.376017},"8240DB005072":{"name":"Corporate Park","lat":53.409309,"lng":-6.370846},"8240DB005073":{"name":"Pinnockhill","lat":53.450639,"lng":-6.223545},"8240DB005074":{"name":"Swords Pavilions","lat":53.45315,"lng":-6.215972},"8240DB005075":{"name":"Rathbeale Road","lat":53.459663,"lng":-6.22359},"8240DB005076":{"name":"Brackenstown Ave","lat":53.461253,"lng":-6.228373},"8240DB005077":{"name":"Brackenstown Ave","lat":53.461075,"lng":-6.227266},"8240DB005078":{"name":"Watery Lane","lat":53.459853,"lng":-6.223673},"8240DB005079":{"name":"Swords Pavilions","lat":53.453019,"lng":-6.215601},"8240DB005096":{"name":"Rathbeale Road","lat":53.472634,"lng":-6.253554},"8240DB005165":{"name":"Willowbrook","lat":53.491377,"lng":-6.139387},"8240DB005175":{"name":"Batter Lane","lat":53.489719,"lng":-6.196593},"8240DB005176":{"name":"Whitestown Cemetery","lat":53.517855,"lng":-6.119225},"8240DB006005":{"name":"Plaza Apartments","lat":53.419943,"lng":-6.383454},"8240DB006009":{"name":"Hazelwood","lat":53.40011,"lng":-6.257218},"8240DB006010":{"name":"Waterside","lat":53.452877,"lng":-6.198366},"8240DB006015":{"name":"Cherry Park","lat":53.448336,"lng":-6.238577},"8240DB006033":{"name":"Cherry Park","lat":53.447825,"lng":-6.238071},"8240DB006039":{"name":"Waterville Terrace","lat":53.391562,"lng":-6.375733},"8240DB006048":{"name":"Peter & Paul Church","lat":53.604501,"lng":-6.184468},"8240DB006054":{"name":"Malahide Road Roundabout","lat":53.454237,"lng":-6.215896},"8240DB006055":{"name":"Waterside","lat":53.452915,"lng":-6.197867},"8240DB006076":{"name":"Skerries GAA Club","lat":53.57746,"lng":-6.112185},"8240DB006077":{"name":"Skerries Station","lat":53.575902,"lng":-6.118839},"8240DB006117":{"name":"Swords Pavilions","lat":53.45438,"lng":-6.215875},"8240DB006126":{"name":"Marymount Care Ctr","lat":53.374065,"lng":-6.439929},"8240DB006127":{"name":"Marymount Care Ctr","lat":53.374139,"lng":-6.440046},"8240DB006135":{"name":"Hillcourt","lat":53.431246,"lng":-6.134731},"8240DB006171":{"name":"Waterville Road","lat":53.396015,"lng":-6.37406},"8240DB006172":{"name":"Lohunda Close","lat":53.386694,"lng":-6.401973},"8240DB006179":{"name":"Mill Road","lat":53.389553,"lng":-6.370773},"8240DB006219":{"name":"Melville Road","lat":53.399836,"lng":-6.293037},"8240DB006228":{"name":"Melville Road","lat":53.399831,"lng":-6.292631},"8240DB006229":{"name":"Meakstown Centre","lat":53.402046,"lng":-6.298618},"8240DB006230":{"name":"Meakstown Centre","lat":53.401409,"lng":-6.296809},"8240DB006274":{"name":"Aquatic Centre","lat":53.397678,"lng":-6.371455},"8240DB006364":{"name":"Century Business Park","lat":53.402583,"lng":-6.301574},"8240DB006366":{"name":"Century Business Park","lat":53.402651,"lng":-6.301346},"8240DB007002":{"name":"Airside","lat":53.445985,"lng":-6.224282},"8240DB007025":{"name":"Blanchardstown SC","lat":53.394169,"lng":-6.391609},"8240DB007026":{"name":"Blanchardstown SC","lat":53.393895,"lng":-6.392065},"8240DB007039":{"name":"Portrane","lat":53.493522,"lng":-6.110008},"8240DB007040":{"name":"Lanestown","lat":53.480551,"lng":-6.191769},"8240DB007041":{"name":"Lanestown","lat":53.481077,"lng":-6.190948},"8240DB007072":{"name":"Carlton Hotel","lat":53.419269,"lng":-6.378168},"8240DB007073":{"name":"Carlton Hotel","lat":53.419081,"lng":-6.378266},"8240DB007097":{"name":"Belgree Boulevard","lat":53.420141,"lng":-6.38483},"8240DB007098":{"name":"Mount Eustace","lat":53.421337,"lng":-6.38817},"8240DB007099":{"name":"Mount Garrett","lat":53.421782,"lng":-6.391223},"8240DB007100":{"name":"Rathmore Crescent","lat":53.419759,"lng":-6.391811},"8240DB007101":{"name":"Bealing Walk","lat":53.418259,"lng":-6.387188},"8240DB007102":{"name":"Bealing Walk","lat":53.418151,"lng":-6.387178},"8240DB007103":{"name":"Cruise Park","lat":53.41983,"lng":-6.393117},"8240DB007104":{"name":"Mount Garrett","lat":53.421917,"lng":-6.391188},"8240DB007105":{"name":"Mount Eustace","lat":53.421351,"lng":-6.387884},"8240DB007106":{"name":"Bellgree Avenue","lat":53.420989,"lng":-6.385701},"8240DB007107":{"name":"Ballentree Avenue","lat":53.417047,"lng":-6.386031},"8240DB007115":{"name":"Nevinstown Lane","lat":53.444976,"lng":-6.227139},"8240DB007124":{"name":"Ballycoolin Bus Pk","lat":53.408434,"lng":-6.358154},"8240DB007125":{"name":"Ballycoolin Bus Pk","lat":53.408242,"lng":-6.35789},"8240DB007126":{"name":"IDA Ireland","lat":53.405877,"lng":-6.356477},"8240DB007133":{"name":"Bunbury Gate Avenue","lat":53.467989,"lng":-6.240158},"8240DB007134":{"name":"Rathbeale Cottages","lat":53.472152,"lng":-6.251872},"8240DB007135":{"name":"Lispopple","lat":53.482815,"lng":-6.288124},"8240DB007136":{"name":"Oakhill","lat":53.487439,"lng":-6.296},"8240DB007145":{"name":"Rathbeale Cottages","lat":53.472173,"lng":-6.25151},"8240DB007169":{"name":"Leisure Centre","lat":53.489831,"lng":-6.141731},"8240DB007170":{"name":"Harneys Lane","lat":53.493378,"lng":-6.12364},"8240DB007172":{"name":"Old Road","lat":53.520986,"lng":-6.109192},"8240DB007173":{"name":"Old Market Green","lat":53.606196,"lng":-6.179544},"8240DB007174":{"name":"Peter & Paul Church","lat":53.603952,"lng":-6.184446},"8240DB007175":{"name":"Ardgillan Demesne","lat":53.589543,"lng":-6.154413},"8240DB007204":{"name":"Seaview","lat":53.492867,"lng":-6.106646},"8240DB007210":{"name":"Airside","lat":53.446143,"lng":-6.222815},"8240DB007219":{"name":"Limelawn","lat":53.384251,"lng":-6.402741},"8240DB007224":{"name":"Stadium Business Pk","lat":53.397817,"lng":-6.338442},"8240DB007227":{"name":"Limelawn","lat":53.383788,"lng":-6.403104},"8240DB007237":{"name":"Stadium Business Pk","lat":53.397141,"lng":-6.341581},"8240DB007238":{"name":"Barnlodge","lat":53.397183,"lng":-6.344617},"8240DB007241":{"name":"Barnlodge","lat":53.397745,"lng":-6.346866},"8240DB007242":{"name":"Ballycoolin Road","lat":53.398409,"lng":-6.350013},"8240DB007243":{"name":"Rosemount Bus. Park","lat":53.403353,"lng":-6.357883},"8240DB007247":{"name":"Ballycoolin Road","lat":53.398792,"lng":-6.351773},"8240DB007292":{"name":"Skerries GAA Club","lat":53.577534,"lng":-6.112318},"8240DB007297":{"name":"Connolly Hospital","lat":53.388016,"lng":-6.370787},"8240DB007298":{"name":"Connolly Hospital","lat":53.387569,"lng":-6.370293},"8240DB007318":{"name":"Corporate Park","lat":53.409915,"lng":-6.368446},"8240DB007319":{"name":"Corporate Park","lat":53.409577,"lng":-6.36876},"8240DB007334":{"name":"Indoor Arena","lat":53.401377,"lng":-6.363238},"8240DB007342":{"name":"Corporate Park 2","lat":53.412767,"lng":-6.360785},"8240DB007343":{"name":"Corporate Park 2","lat":53.412845,"lng":-6.361218},"8240DB007344":{"name":"IDA Ireland","lat":53.404689,"lng":-6.357696},"8240DB007348":{"name":"Dublin Airport Zone 15","lat":53.42786,"lng":-6.24162},"8240DB007379":{"name":"Mountview Road","lat":53.389748,"lng":-6.400505},"8240DB007381":{"name":"Damastown Ind Park","lat":53.410348,"lng":-6.415978},"8240DB007389":{"name":"Junction 6","lat":53.386018,"lng":-6.370608},"8240DB007505":{"name":"Ballentree Avenue","lat":53.417579,"lng":-6.386131},"8240DB007570":{"name":"Texaco Garage","lat":53.413845,"lng":-6.366009},"8240DB007575":{"name":"Texaco Garage","lat":53.413781,"lng":-6.365891},"8240DB007690":{"name":"Rush Main Street","lat":53.522037,"lng":-6.092208},"8240DB007691":{"name":"Main Street","lat":53.485715,"lng":-6.14928},"8240DB007692":{"name":"Chamley Park","lat":53.45081,"lng":-6.187672},"8240DB007721":{"name":"Turvey Avenue","lat":53.48645,"lng":-6.156089},"8240DB007722":{"name":"Turvey Avenue","lat":53.486654,"lng":-6.156548},