{"8220B111761":{"name":"Westland Row Church","lat":53.342626,"lng":-6.250132,"code":"111761"},"8220B1351001":{"name":"Wellington Quay","lat":53.345864,"lng":-6.263817,"code":"135101"},"8220B1351201":{"name":"Connolly Station","lat":53.350218,"lng":-6.250527,"code":"135121"},"8220B1351401":{"name":"George's Quay","lat":53.34737,"lng":-6.25346,"code":"135141"},"8220B1353301":{"name":"Dawson Street","lat":53.340134,"lng":-6.258584,"code":"135331"},"8220B1354001":{"name":"Heuston Station","lat":53.346033,"lng":-6.292647,"code":"135401"},"8220DB000016":{"name":"John Paul Park","lat":53.36644,"lng":-6.30565,"code":"16"},"8220DB000087":{"name":"Clare Road","lat":53.376752,"lng":-6.25488,"code":"87"},"8220DB000088":{"name":"Walnut Rise","lat":53.377287,"lng":-6.257699,"code":"88"},"8220DB000092":{"name":"Ballymun Library","lat":53.389837,"lng":-6.264674,"code":"92"},"8220DB000093":{"name":"Gateway Avenue","lat":53.392302,"lng":-6.264153,"code":"93"},"8220DB000094":{"name":"Civic Centre","lat":53.396035,"lng":-6.264377,"code":"94"},"8220DB000102":{"name":"Balbutcher Lane","lat":53.397773,"lng":-6.26772,"code":"102"},"8220DB000104":{"name":"Poppintree Parade","lat":53.399771,"lng":-6.276819,"code":"104"},"8220DB000105":{"name":"Belclare Park","lat":53.402936,"lng":-6.281693,"code":"105"},"8220DB000107":{"name":"Crannogue Road","lat":53.40238,"lng":-6.280497,"code":"107"},"8220DB000110":{"name":"Ard na Meala","lat":53.397939,"lng":-6.2686,"code":"110"},"8220DB000112":{"name":"Civic Centre","lat":53.396154,"lng":-6.263951,"code":"112"},"8220DB000113":{"name":"Trinity Comp School","lat":53.392268,"lng":-6.263703,"code":"113"},"8220DB000114":{"name":"Ballymun Road","lat":53.391333,"lng":-6.263711,"code":"114"},"8220DB000116":{"name":"Griffith Lawns","lat":53.377693,"lng":-6.259667,"code":"116"},"8220DB000117":{"name":"Walnut Rise","lat":53.377366,"lng":-6.257546,"code":"117"},"8220DB000118":{"name":"Clare Road","lat":53.376643,"lng":-6.253592,"code":"118"},"8220DB000126":{"name":"Nursing Home","lat":53.399096,"lng":-6.264087,"code":"126"},"8220DB000127":{"name":"Nursing Home","lat":53.399108,"lng":-6.26368,"code":"127"},"8220DB000136":{"name":"McKee Rd N","lat":53.39438,"lng":-6.289857,"code":"136"},"8220DB000137":{"name":"McKee Road","lat":53.392317,"lng":-6.292631,"code":"137"},"8220DB000155":{"name":"Ol Finglas Rd","lat":53.37792,"lng":-6.27951,"code":"155"},"8220DB000176":{"name":"Ol Finglas Rd","lat":53.378032,"lng":-6.279299,"code":"176"},"8220DB000180":{"name":"Cremore Crescent","lat":53.37844,"lng":-6.276396,"code":"180"},"8220DB000193":{"name":"Clune Road","lat":53.391196,"lng":-6.294104,"code":"193"},"8220DB000206":{"name":"Larkhill Rd","lat":53.383546,"lng":-6.247477,"code":"206"},"8220DB000211":{"name":"Falcarragh Rd","lat":53.384281,"lng":-6.24916,"code":"211"},"8220DB000212":{"name":"Larkhill Rd","lat":53.383196,"lng":-6.246258,"code":"212"},"8220DB000218":{"name":"Shantalla Road","lat":53.385924,"lng":-6.233788,"code":"218"},"8220DB000220":{"name":"Shantalla Br","lat":53.38794,"lng":-6.244981,"code":"220"},"8220DB000228":{"name":"Shanliss Road","lat":53.391877,"lng":-6.25972,"code":"228"},"8220DB000233":{"name":"Shantalla Road","lat":53.385821,"lng":-6.233537,"code":"233"},"8220DB000242":{"name":"Coolgreena Rd","lat":53.385655,"lng":-6.23201,"code":"242"},"8220DB000243":{"name":"Beaumont Crescent","lat":53.38578,"lng":-6.22954,"code":"243"},"8220DB000244":{"name":"Skelly's Lane","lat":53.384998,"lng":-6.223498,"code":"244"},"8220DB000245":{"name":"Whitethorn Rise","lat":53.384472,"lng":-6.219567,"code":"245"},"8220DB000250":{"name":"Whitethorn Rise","lat":53.384419,"lng":-6.220245,"code":"250"},"8220DB000251":{"name":"Skelly's Lane","lat":53.384832,"lng":-6.22322,"code":"251"},"8220DB000253":{"name":"Beaumont Hospital","lat":53.389963,"lng":-6.224299,"code":"253"},"8220DB000255":{"name":"Coolgreena Rd","lat":53.385594,"lng":-6.231532,"code":"255"},"8220DB000259":{"name":"Grace Park Rd","lat":53.374011,"lng":-6.243885,"code":"259"},"8220DB000297":{"name":"Eden Quay","lat":53.348143,"lng":-6.25677,"code":"297"},"8220DB000316":{"name":"Bachelors Walk","lat":53.346893,"lng":-6.262228,"code":"316"},"8220DB000341":{"name":"South Townsend St","lat":53.345945,"lng":-6.256424,"code":"341"},"8220DB000499":{"name":"Summerhill Pd","lat":53.35745,"lng":-6.249089,"code":"499"},"8220DB000500":{"name":"Ballybough Road","lat":53.359036,"lng":-6.246289,"code":"500"},"8220DB000501":{"name":"Clonliffe Ave","lat":53.360706,"lng":-6.243696,"code":"501"},"8220DB000509":{"name":"Clonliffe Ave","lat":53.360601,"lng":-6.243325,"code":"509"},"8220DB000510":{"name":"Ballybough Road","lat":53.359189,"lng":-6.245712,"code":"510"},"8220DB000511":{"name":"Summerhill Pd","lat":53.357516,"lng":-6.248635,"code":"511"},"8220DB000513":{"name":"Summerhill","lat":53.355212,"lng":-6.253973,"code":"513"},"8220DB000530":{"name":"Killester Village","lat":53.371224,"lng":-6.204023,"code":"530"},"8220DB000608":{"name":"Killester Village","lat":53.371078,"lng":-6.204465,"code":"608"},"8220DB000662":{"name":"Clanmoyle Rd","lat":53.37387,"lng":-6.212629,"code":"662"},"8220DB000667":{"name":"Copeland Avenue","lat":53.367982,"lng":-6.226987,"code":"667"},"8220DB000669":{"name":"Crescent Place","lat":53.366317,"lng":-6.228679,"code":"669"},"8220DB000674":{"name":"Parnell Park","lat":53.374686,"lng":-6.216082,"code":"674"},"8220DB000746":{"name":"Kildare Street","lat":53.340154,"lng":-6.255594,"code":"746"},"8220DB000760":{"name":"Donnybrook Dpot","lat":53.31833,"lng":-6.230562,"code":"760"},"8220DB000802":{"name":"Drumalee","lat":53.356498,"lng":-6.291299,"code":"802"},"8220DB000846":{"name":"Adelaide Road","lat":53.333454,"lng":-6.254111,"code":"846"},"8220DB00089":{"name":"Lambay Road","lat":53.377939,"lng":-6.261644,"code":"89"},"8220DB000956":{"name":"Naomh Barr\u00f3g GAA","lat":53.389832,"lng":-6.152901,"code":"956"},"8220DB000958":{"name":"St. Donagh's","lat":53.390917,"lng":-6.163785,"code":"958"},"8220DB000959":{"name":"Grange Road","lat":53.391019,"lng":-6.166908,"code":"959"},"8220DB000960":{"name":"Tonlegee Road","lat":53.391158,"lng":-6.171879,"code":"960"},"8220DB000961":{"name":"Millwood Villas","lat":53.391057,"lng":-6.176455,"code":"961"},"8220DB000962":{"name":"Limewood Pk","lat":53.390795,"lng":-6.182856,"code":"962"},"8220DB000963":{"name":"Rathvale","lat":53.39051,"lng":-6.186597,"code":"963"},"8220DB000964":{"name":"St John's Church","lat":53.390073,"lng":-6.192164,"code":"964"},"8220DB000965":{"name":"Malahide Road","lat":53.38889,"lng":-6.196529,"code":"965"},"8220DB000966":{"name":"Oscar Traynor Road","lat":53.391215,"lng":-6.202911,"code":"966"},"8220DB000967":{"name":"Coolock Drive","lat":53.392292,"lng":-6.206369,"code":"967"},"8220DB000968":{"name":"Armstrong Walk","lat":53.393759,"lng":-6.210683,"code":"968"},"8220DB000972":{"name":"Aulden Grange","lat":53.396996,"lng":-6.234924,"code":"972"},"8220DB000979":{"name":"St Canice's GNS","lat":53.389954,"lng":-6.297101,"code":"979"},"8220DB000980":{"name":"Mellowes Cres","lat":53.389805,"lng":-6.303031,"code":"980"},"8220DB000981":{"name":"Cardiff Cstl Rd","lat":53.389781,"lng":-6.307061,"code":"981"},"8220DB000984":{"name":"Cardiff Cstl Rd","lat":53.389911,"lng":-6.306755,"code":"984"},"8220DB000985":{"name":"Mellowes Cres","lat":53.389925,"lng":-6.303898,"code":"985"},"8220DB000987":{"name":"Finglas Village","lat":53.39022,"lng":-6.299375,"code":"987"},"8220DB000993":{"name":"Larch Hill","lat":53.397703,"lng":-6.229225,"code":"993"},"8220DB000997":{"name":"Northside SC","lat":53.394167,"lng":-6.211493,"code":"997"},"8220DB000998":{"name":"Armstrong Walk","lat":53.393575,"lng":-6.209789,"code":"998"},"8220DB000999":{"name":"Coolock Drive","lat":53.392241,"lng":-6.205965,"code":"999"},"8220DB001000":{"name":"Beechpark Avenue","lat":53.390983,"lng":-6.201808,"code":"1000"},"8220DB001001":{"name":"Brookville Crescent","lat":53.390081,"lng":-6.199215,"code":"1001"},"8220DB001002":{"name":"Tonlegee Road","lat":53.389176,"lng":-6.195194,"code":"1002"},"8220DB001003":{"name":"St John's Church","lat":53.390299,"lng":-6.191071,"code":"1003"},"8220DB001004":{"name":"Rathvale","lat":53.390638,"lng":-6.18614,"code":"1004"},"8220DB001005":{"name":"Limewood Pk","lat":53.390951,"lng":-6.181917,"code":"1005"},"8220DB001006":{"name":"Millwood Villas","lat":53.39117,"lng":-6.176826,"code":"1006"},"8220DB001007":{"name":"Millbrook Drive","lat":53.391246,"lng":-6.172387,"code":"1007"},"8220DB001008":{"name":"Kilbarrack Road","lat":53.391127,"lng":-6.166934,"code":"1008"},"8220DB001009":{"name":"St. Donagh's Road","lat":53.391089,"lng":-6.164485,"code":"1009"},"8220DB001012":{"name":"Naomh Barr\u00f3g GAA","lat":53.39025,"lng":-6.152627,"code":"1012"},"8220DB001013":{"name":"Earlsfort Trce","lat":53.334181,"lng":-6.258346,"code":"1013"},"8220DB001025":{"name":"Trinity Hall","lat":53.3116,"lng":-6.262477,"code":"1025"},"8220DB001026":{"name":"Dartry Road","lat":53.309106,"lng":-6.260327,"code":"1026"},"8220DB001027":{"name":"South Hill","lat":53.308738,"lng":-6.257911,"code":"1027"},"8220DB001028":{"name":"Chuchtown Rd Lwr","lat":53.308499,"lng":-6.255715,"code":"1028"},"8220DB001062":{"name":"Chuchtown Rd Lwr","lat":53.30826,"lng":-6.255319,"code":"1062"},"8220DB001063":{"name":"South Hill","lat":53.308572,"lng":-6.258863,"code":"1063"},"8220DB001064":{"name":"Dartry Road","lat":53.309429,"lng":-6.260929,"code":"1064"},"8220DB001065":{"name":"Trinity Hall","lat":53.311829,"lng":-6.262783,"code":"1065"},"8220DB001074":{"name":"Harcourt Street","lat":53.334001,"lng":-6.261742,"code":"1074"},"8220DB001082":{"name":"Rathgar West","lat":53.311676,"lng":-6.275771,"code":"1082"},"8220DB001083":{"name":"Brighton Road","lat":53.311146,"lng":-6.278253,"code":"1083"},"8220DB001085":{"name":"Terenure Rd E","lat":53.3101,"lng":-6.282377,"code":"1085"},"8220DB001086":{"name":"Terenure Road West","lat":53.30967,"lng":-6.285606,"code":"1086"},"8220DB001087":{"name":"Greenlea Rd","lat":53.310335,"lng":-6.289391,"code":"1087"},"8220DB001088":{"name":"Parkmore Drive","lat":53.310974,"lng":-6.293178,"code":"1088"},"8220DB001089":{"name":"Lavarna Grove","lat":53.311656,"lng":-6.297503,"code":"1089"},"8220DB001090":{"name":"Kimmage Road West","lat":53.312104,"lng":-6.300576,"code":"1090"},"8220DB001117":{"name":"Terenure Road West","lat":53.311891,"lng":-6.298229,"code":"1117"},"8220DB001118":{"name":"Hazelbrook Road","lat":53.311367,"lng":-6.294918,"code":"1118"},"8220DB001119":{"name":"Parkmore Drive","lat":53.310936,"lng":-6.292414,"code":"1119"},"8220DB001120":{"name":"Terenure Garda Stn","lat":53.310198,"lng":-6.287986,"code":"1120"},"8220DB001164":{"name":"Terenure Rd E","lat":53.310412,"lng":-6.281584,"code":"1164"},"8220DB001165":{"name":"Rathgar West","lat":53.311712,"lng":-6.276429,"code":"1165"},"8220DB001171":{"name":"Gardiner St Lwr","lat":53.350318,"lng":-6.254263,"code":"1171"},"8220DB001172":{"name":"Deverell Place","lat":53.351743,"lng":-6.255256,"code":"1172"},"8220DB001173":{"name":"Parnell Street East","lat":53.353706,"lng":-6.256678,"code":"1173"},"8220DB001196":{"name":"Elm Mt Rd","lat":53.377787,"lng":-6.214915,"code":"1196"},"8220DB001197":{"name":"Artane Cottages","lat":53.379232,"lng":-6.211758,"code":"1197"},"8220DB001220":{"name":"Artane Cottages","lat":53.378763,"lng":-6.212199,"code":"1220"},"8220DB001221":{"name":"Elm Mt Rd","lat":53.376816,"lng":-6.216098,"code":"1221"},"8220DB001228":{"name":"Cromcastle Ave","lat":53.392429,"lng":-6.218513,"code":"1228"},"8220DB001229":{"name":"Castletimon Grn","lat":53.394312,"lng":-6.225426,"code":"1229"},"8220DB001235":{"name":"Castletimon Grn","lat":53.394737,"lng":-6.225604,"code":"1235"},"8220DB001237":{"name":"Cromcastle Ave","lat":53.392679,"lng":-6.218984,"code":"1237"},"8220DB001244":{"name":"Cromcastle Grn","lat":53.392907,"lng":-6.220447,"code":"1244"},"8220DB001246":{"name":"Kilbarron Pk","lat":53.393493,"lng":-6.222979,"code":"1246"},"8220DB001251":{"name":"Kilbarron Pk","lat":53.393457,"lng":-6.222379,"code":"1251"},"8220DB001252":{"name":"Kilmore Road","lat":53.393638,"lng":-6.214613,"code":"1252"},"8220DB001253":{"name":"Tranquility Grove","lat":53.393864,"lng":-6.214694,"code":"1253"},"8220DB001280":{"name":"McKelvey Ave","lat":53.400196,"lng":-6.303143,"code":"1280"},"8220DB001286":{"name":"Harrington Street","lat":53.3325,"lng":-6.265727,"code":"1286"},"8220DB001350":{"name":"Harrington Street","lat":53.332561,"lng":-6.267481,"code":"1350"},"8220DB001369":{"name":"Mayfield Rd","lat":53.338867,"lng":-6.302245,"code":"1369"},"8220DB001370":{"name":"Hybreasal House","lat":53.339124,"lng":-6.305317,"code":"1370"},"8220DB001371":{"name":"Suir Rd N","lat":53.338832,"lng":-6.30787,"code":"1371"},"8220DB001377":{"name":"Hybreasal House","lat":53.339163,"lng":-6.304742,"code":"1377"},"8220DB001378":{"name":"Mayfield Rd","lat":53.338828,"lng":-6.301376,"code":"1378"},"8220DB001382":{"name":"Dolphin's Barn","lat":53.333173,"lng":-6.290595,"code":"1382"},"8220DB001413":{"name":"Mourne Rd E","lat":53.333441,"lng":-6.308783,"code":"1413"},"8220DB001414":{"name":"Benbulbin Rd","lat":53.333348,"lng":-6.312315,"code":"1414"},"8220DB001415":{"name":"Sperrin Rd","lat":53.332443,"lng":-6.316375,"code":"1415"},"8220DB001417":{"name":"Drimnagh School","lat":53.331032,"lng":-6.319568,"code":"1417"},"8220DB001418":{"name":"Mourne Rd W","lat":53.33003,"lng":-6.323061,"code":"1418"},"8220DB001419":{"name":"Brandon Road","lat":53.327718,"lng":-6.322911,"code":"1419"},"8220DB001421":{"name":"Crumlin Hospital","lat":53.324951,"lng":-6.320453,"code":"1421"},"8220DB001423":{"name":"Drimnagh Rd","lat":53.324999,"lng":-6.319445,"code":"1423"},"8220DB001424":{"name":"Crumlin Hospl","lat":53.325663,"lng":-6.316747,"code":"1424"},"8220DB001425":{"name":"Cooley Road","lat":53.32706,"lng":-6.31804,"code":"1425"},"8220DB001426":{"name":"Curlew Rd","lat":53.329275,"lng":-6.32243,"code":"1426"},"8220DB001427":{"name":"Mourne Rd W","lat":53.330271,"lng":-6.322331,"code":"1427"},"8220DB001428":{"name":"Drimnagh School","lat":53.331359,"lng":-6.31915,"code":"1428"},"8220DB001429":{"name":"Sperrin Rd","lat":53.332593,"lng":-6.316173,"code":"1429"},"8220DB001430":{"name":"Benbulbin Rd","lat":53.333574,"lng":-6.31115,"code":"1430"},"8220DB001432":{"name":"Mourne Rd E","lat":53.333499,"lng":-6.30839,"code":"1432"},"8220DB001443":{"name":"Wood Quay","lat":53.345129,"lng":-6.26954,"code":"1443"},"8220DB001455":{"name":"Slievenamon Rd","lat":53.335385,"lng":-6.305777,"code":"1455"},"8220DB001467":{"name":"Slievenamon Rd","lat":53.335657,"lng":-6.305962,"code":"1467"},"8220DB001468":{"name":"Suir Road","lat":53.33755,"lng":-6.307569,"code":"1468"},"8220DB001476":{"name":"Sarsfield Quay","lat":53.347074,"lng":-6.284676,"code":"1476"},"8220DB001480":{"name":"Ormond Quay Upr","lat":53.345766,"lng":-6.27067,"code":"1480"},"8220DB001481":{"name":"Melrose Avenue","lat":53.365054,"lng":-6.239896,"code":"1481"},"8220DB001482":{"name":"Marino Institute","lat":53.371664,"lng":-6.236528,"code":"1482"},"8220DB001484":{"name":"Philipsburgh Ave","lat":53.363698,"lng":-6.239967,"code":"1484"},"8220DB001485":{"name":"Philipsburgh Ave","lat":53.364046,"lng":-6.239802,"code":"1485"},"8220DB001486":{"name":"Morroch Terrace","lat":53.370975,"lng":-6.238525,"code":"1486"},"8220DB001487":{"name":"Marino Institute","lat":53.371819,"lng":-6.236671,"code":"1487"},"8220DB001488":{"name":"Torlogh Parade","lat":53.371089,"lng":-6.234688,"code":"1488"},"8220DB001489":{"name":"Marino Church","lat":53.370159,"lng":-6.231961,"code":"1489"},"8220DB001490":{"name":"Griffith Ave E","lat":53.368877,"lng":-6.228558,"code":"1490"},"8220DB001491":{"name":"Griffith Ave E","lat":53.368468,"lng":-6.227643,"code":"1491"},"8220DB001492":{"name":"Marino Church","lat":53.370257,"lng":-6.232558,"code":"1492"},"8220DB001494":{"name":"Croydon Gardens","lat":53.370673,"lng":-6.235742,"code":"1494"},"8220DB001495":{"name":"Croydon Park Ave","lat":53.368756,"lng":-6.235566,"code":"1495"},"8220DB001496":{"name":"Marino Green","lat":53.367148,"lng":-6.233814,"code":"1496"},"8220DB001499":{"name":"Brian Road","lat":53.36578,"lng":-6.237297,"code":"1499"},"8220DB001502":{"name":"Tara Street","lat":53.347421,"lng":-6.254096,"code":"1502"},"8220DB001510":{"name":"Ballyboggan Rd E","lat":53.376907,"lng":-6.28731,"code":"1510"},"8220DB001512":{"name":"Prospect Hill N","lat":53.382174,"lng":-6.291729,"code":"1512"},"8220DB001513":{"name":"Saint Martin's","lat":53.386767,"lng":-6.296777,"code":"1513"},"8220DB001514":{"name":"Finglas","lat":53.389465,"lng":-6.300022,"code":"1514"},"8220DB001515":{"name":"Marino Park","lat":53.366114,"lng":-6.233195,"code":"1515"},"8220DB001528":{"name":"St David's Terrace","lat":53.356195,"lng":-6.294,"code":"1528"},"8220DB001529":{"name":"Finglas Village","lat":53.388459,"lng":-6.298153,"code":"1529"},"8220DB001530":{"name":"Finglas Road","lat":53.386919,"lng":-6.296726,"code":"1530"},"8220DB001531":{"name":"Clearwater SC","lat":53.383744,"lng":-6.293365,"code":"1531"},"8220DB001532":{"name":"Prospect Hill N","lat":53.381744,"lng":-6.290559,"code":"1532"},"8220DB001538":{"name":"Clearwater SC","lat":53.384474,"lng":-6.294794,"code":"1538"},"8220DB001547":{"name":"McKee Avenue","lat":53.395241,"lng":-6.301686,"code":"1547"},"8220DB001548":{"name":"McKee Ave N","lat":53.39611,"lng":-6.30275,"code":"1548"},"8220DB001558":{"name":"McKelvey Ave","lat":53.399817,"lng":-6.303053,"code":"1558"},"8220DB001573":{"name":"Wellmount Dr","lat":53.384024,"lng":-6.312461,"code":"1573"},"8220DB001574":{"name":"Cardiffsbridge SC","lat":53.385594,"lng":-6.31288,"code":"1574"},"8220DB001575":{"name":"Col\u00e1iste \u00cdde","lat":53.387066,"lng":-6.312746,"code":"1575"},"8220DB001576":{"name":"Cappagh Road","lat":53.389317,"lng":-6.313048,"code":"1576"},"8220DB001577":{"name":"Abbottstown Road","lat":53.389886,"lng":-6.315747,"code":"1577"},"8220DB001578":{"name":"Ratoath Drive","lat":53.390385,"lng":-6.318013,"code":"1578"},"8220DB001584":{"name":"Abbottstown Road","lat":53.389885,"lng":-6.315086,"code":"1584"},"8220DB001585":{"name":"Finglas West","lat":53.388768,"lng":-6.312333,"code":"1585"},"8220DB001586":{"name":"Col\u00e1iste \u00cdde","lat":53.386525,"lng":-6.312617,"code":"1586"},"8220DB001587":{"name":"Wellmount Dr","lat":53.383466,"lng":-6.311791,"code":"1587"},"8220DB001592":{"name":"Prospect Hill South","lat":53.379721,"lng":-6.289242,"code":"1592"},"8220DB001593":{"name":"Tolka Vly Grn","lat":53.378915,"lng":-6.29446,"code":"1593"},"8220DB001595":{"name":"Cloonlara Road","lat":53.380739,"lng":-6.297619,"code":"1595"},"8220DB001596":{"name":"Farnham Drive","lat":53.383041,"lng":-6.300819,"code":"1596"},"8220DB001597":{"name":"Valeview Gdns","lat":53.380455,"lng":-6.309235,"code":"1597"},"8220DB001598":{"name":"Valeview Dr","lat":53.380242,"lng":-6.30562,"code":"1598"},"8220DB001599":{"name":"Glenties Pk","lat":53.3809,"lng":-6.310795,"code":"1599"},"8220DB001600":{"name":"Deanstown Avenue","lat":53.383597,"lng":-6.312763,"code":"1600"},"8220DB001601":{"name":"Deanstown Drive","lat":53.383894,"lng":-6.314721,"code":"1601"},"8220DB001602":{"name":"Patrician College","lat":53.384418,"lng":-6.318714,"code":"1602"},"8220DB001603":{"name":"Ratoath Road","lat":53.383519,"lng":-6.318689,"code":"1603"},"8220DB001604":{"name":"Rathvilly Road","lat":53.383746,"lng":-6.316275,"code":"1604"},"8220DB001605":{"name":"Albert College Pk","lat":53.388253,"lng":-6.2608,"code":"1605"},"8220DB001606":{"name":"Valeview Dr","lat":53.380371,"lng":-6.306442,"code":"1606"},"8220DB001607":{"name":"Berryfield Rd","lat":53.382161,"lng":-6.303425,"code":"1607"},"8220DB001608":{"name":"Farnham Drive","lat":53.38305,"lng":-6.299541,"code":"1608"},"8220DB001609":{"name":"Cloonlara Road","lat":53.380384,"lng":-6.297287,"code":"1609"},"8220DB001610":{"name":"Tolka Vly Pk","lat":53.378808,"lng":-6.296403,"code":"1610"},"8220DB001644":{"name":"DCU Collins Avenue","lat":53.38687,"lng":-6.256571,"code":"1644"},"8220DB001646":{"name":"DCU Collins Avenue","lat":53.387155,"lng":-6.256981,"code":"1646"},"8220DB001647":{"name":"Blackhall Place","lat":53.34828,"lng":-6.28221,"code":"1647"},"8220DB001648":{"name":"Stoneybatter","lat":53.351091,"lng":-6.282802,"code":"1648"},"8220DB001649":{"name":"Manor Street","lat":53.35256,"lng":-6.28428,"code":"1649"},"8220DB001650":{"name":"Castle Ave","lat":53.361174,"lng":-6.209314,"code":"1650"},"8220DB001651":{"name":"Vernon Avenue","lat":53.36794,"lng":-6.194859,"code":"1651"},"8220DB001652":{"name":"Clontarf Cstl","lat":53.363356,"lng":-6.206127,"code":"1652"},"8220DB001654":{"name":"St David's Terrace","lat":53.35611,"lng":-6.29427,"code":"1654"},"8220DB001655":{"name":"Blackhorse Avenue","lat":53.356732,"lng":-6.296968,"code":"1655"},"8220DB001656":{"name":"McKee Park","lat":53.3573,"lng":-6.29883,"code":"1656"},"8220DB001657":{"name":"Dunard Walk","lat":53.358392,"lng":-6.303077,"code":"1657"},"8220DB001706":{"name":"Blackhorse Avenue","lat":53.36007,"lng":-6.307292,"code":"1706"},"8220DB001707":{"name":"Dunard Walk","lat":53.358428,"lng":-6.30246,"code":"1707"},"8220DB001708":{"name":"Mc Kee Park","lat":53.35735,"lng":-6.29863,"code":"1708"},"8220DB001709":{"name":"Glenbeigh Avenue","lat":53.356868,"lng":-6.297053,"code":"1709"},"8220DB001710":{"name":"Aughrim Street","lat":53.35557,"lng":-6.291741,"code":"1710"},"8220DB001711":{"name":"Holy Family Church","lat":53.354578,"lng":-6.289633,"code":"1711"},"8220DB001712":{"name":"Aughrim Court","lat":53.353334,"lng":-6.286243,"code":"1712"},"8220DB001713":{"name":"Manor Street","lat":53.351908,"lng":-6.283326,"code":"1713"},"8220DB001714":{"name":"Stoneybatter","lat":53.350638,"lng":-6.281889,"code":"1714"},"8220DB001715":{"name":"Blackhall Place","lat":53.3477,"lng":-6.28212,"code":"1715"},"8220DB001734":{"name":"Castle Ave","lat":53.360391,"lng":-6.211015,"code":"1734"},"8220DB001735":{"name":"Seaview Ave","lat":53.361143,"lng":-6.214439,"code":"1735"},"8220DB001736":{"name":"Saint Lawrence Road","lat":53.362142,"lng":-6.216922,"code":"1736"},"8220DB001737":{"name":"Strandville Ave","lat":53.362858,"lng":-6.219717,"code":"1737"},"8220DB001738":{"name":"Clontarf Rd Stn","lat":53.363451,"lng":-6.223914,"code":"1738"},"8220DB001741":{"name":"Strandville Ave","lat":53.363117,"lng":-6.220803,"code":"1741"},"8220DB001742":{"name":"Saint Lawrence Road","lat":53.362126,"lng":-6.216427,"code":"1742"},"8220DB001743":{"name":"Seaview Ave","lat":53.361136,"lng":-6.213929,"code":"1743"},"8220DB001764":{"name":"Blackheath Ct","lat":53.365893,"lng":-6.195577,"code":"1764"},"8220DB001765":{"name":"Blackheath Pk","lat":53.366551,"lng":-6.202281,"code":"1765"},"8220DB001766":{"name":"Clontarf Cmtry","lat":53.365116,"lng":-6.204851,"code":"1766"},"8220DB001767":{"name":"Clontarf Cstl","lat":53.363827,"lng":-6.205221,"code":"1767"},"8220DB001773":{"name":"Blackheath Pk","lat":53.366811,"lng":-6.203398,"code":"1773"},"8220DB001774":{"name":"Blackheath Ct","lat":53.366136,"lng":-6.1974,"code":"1774"},"8220DB001911":{"name":"Prussia Street","lat":53.356538,"lng":-6.2883,"code":"1911"},"8220DB001937":{"name":"High Street","lat":53.343088,"lng":-6.273152,"code":"1937"},"8220DB001938":{"name":"Cornmarket","lat":53.342978,"lng":-6.276761,"code":"1938"},"8220DB001939":{"name":"Thomas Street","lat":53.342998,"lng":-6.280665,"code":"1939"},"8220DB001940":{"name":"Watling Street","lat":53.343539,"lng":-6.285734,"code":"1940"},"8220DB001941":{"name":"James's Street","lat":53.343345,"lng":-6.289181,"code":"1941"},"8220DB001945":{"name":"Inchicore Library","lat":53.340555,"lng":-6.309687,"code":"1945"},"8220DB001948":{"name":"Tyrconnell Rd N","lat":53.338662,"lng":-6.322046,"code":"1948"},"8220DB001956":{"name":"Kylemore","lat":53.326365,"lng":-6.343847,"code":"1956"},"8220DB001988":{"name":"Tyrconnell Rd N","lat":53.33826,"lng":-6.322888,"code":"1988"},"8220DB001995":{"name":"James's Luas","lat":53.342675,"lng":-6.293218,"code":"1995"},"8220DB001996":{"name":"James's Street","lat":53.34356,"lng":-6.288482,"code":"1996"},"8220DB001997":{"name":"Watling Street","lat":53.34364,"lng":-6.28542,"code":"1997"},"8220DB001998":{"name":"Thomas Street","lat":53.34314,"lng":-6.280494,"code":"1998"},"8220DB001999":{"name":"Cornmarket","lat":53.343119,"lng":-6.27659,"code":"1999"},"8220DB002001":{"name":"High Street","lat":53.343311,"lng":-6.273653,"code":"2001"},"8220DB002101":{"name":"Drimnagh Rd","lat":53.324955,"lng":-6.318171,"code":"2101"},"8220DB002102":{"name":"Balfe Road","lat":53.324195,"lng":-6.326142,"code":"2102"},"8220DB002103":{"name":"Walkinstown SC","lat":53.322083,"lng":-6.329992,"code":"2103"},"8220DB002105":{"name":"Long Mile Rd","lat":53.323653,"lng":-6.337497,"code":"2105"},"8220DB002181":{"name":"Long Mile Rd","lat":53.323838,"lng":-6.339171,"code":"2181"},"8220DB002182":{"name":"Walkinstown Prd","lat":53.323962,"lng":-6.335188,"code":"2182"},"8220DB002183":{"name":"Walkinstown SC","lat":53.321704,"lng":-6.330548,"code":"2183"},"8220DB002184":{"name":"Walkinstown Rd N","lat":53.322997,"lng":-6.329146,"code":"2184"},"8220DB002185":{"name":"Balfe Road","lat":53.324259,"lng":-6.32749,"code":"2185"},"8220DB002199":{"name":"Glenaulin","lat":53.351968,"lng":-6.355909,"code":"2199"},"8220DB002200":{"name":"Kylemore Rd N","lat":53.350283,"lng":-6.352954,"code":"2200"},"8220DB002243":{"name":"Glenaulin","lat":53.351974,"lng":-6.355698,"code":"2243"},"8220DB002317":{"name":"Saint Mary's Road","lat":53.323419,"lng":-6.318877,"code":"2317"},"8220DB002318":{"name":"Somerville Avenue","lat":53.32198,"lng":-6.318843,"code":"2318"},"8220DB002319":{"name":"Saint Agnes Church","lat":53.319565,"lng":-6.3152,"code":"2319"},"8220DB002327":{"name":"Ashleaf","lat":53.316854,"lng":-6.316763,"code":"2327"},"8220DB002328":{"name":"Saint Agnes Church","lat":53.31959,"lng":-6.31552,"code":"2328"},"8220DB002329":{"name":"Crumlin Village","lat":53.320901,"lng":-6.316934,"code":"2329"},"8220DB002330":{"name":"Somerville Avenue","lat":53.322148,"lng":-6.319287,"code":"2330"},"8220DB002331":{"name":"Saint Mary's Road","lat":53.324572,"lng":-6.317795,"code":"2331"},"8220DB002413":{"name":"Whitehall Rd E","lat":53.312866,"lng":-6.305484,"code":"2413"},"8220DB002414":{"name":"Westbrook","lat":53.314074,"lng":-6.310854,"code":"2414"},"8220DB002415":{"name":"Royston Village","lat":53.315057,"lng":-6.313577,"code":"2415"},"8220DB002434":{"name":"Ashleaf","lat":53.316027,"lng":-6.31606,"code":"2434"},"8220DB002435":{"name":"Westbrook","lat":53.314314,"lng":-6.311295,"code":"2435"},"8220DB002436":{"name":"L O'Toole Pk","lat":53.313706,"lng":-6.308948,"code":"2436"},"8220DB002437":{"name":"Kimmage Road West","lat":53.312689,"lng":-6.302519,"code":"2437"},"8220DB002499":{"name":"S O'Casey Br","lat":53.348128,"lng":-6.247128,"code":"2499"},"8220DB002652":{"name":"Kylemore Avenue","lat":53.338846,"lng":-6.348109,"code":"2652"},"8220DB002653":{"name":"Ballyfermot Cr","lat":53.340235,"lng":-6.348446,"code":"2653"},"8220DB002654":{"name":"Ballyfermot Road","lat":53.341299,"lng":-6.34869,"code":"2654"},"8220DB002655":{"name":"Ballyfermot Parade","lat":53.342138,"lng":-6.352848,"code":"2655"},"8220DB002656":{"name":"Ballyfermot","lat":53.342624,"lng":-6.358716,"code":"2656"},"8220DB002668":{"name":"Community Centre","lat":53.342983,"lng":-6.363283,"code":"2668"},"8220DB002672":{"name":"Cleggan Park","lat":53.343359,"lng":-6.367774,"code":"2672"},"8220DB002688":{"name":"Cleggan Park","lat":53.343463,"lng":-6.368191,"code":"2688"},"8220DB002689":{"name":"Blackditch Drive","lat":53.343106,"lng":-6.363744,"code":"2689"},"8220DB002696":{"name":"Ballyfermot","lat":53.342688,"lng":-6.358804,"code":"2696"},"8220DB002697":{"name":"Ballyfermot Parade","lat":53.342278,"lng":-6.353173,"code":"2697"},"8220DB002700":{"name":"Kylemore Road","lat":53.341297,"lng":-6.34854,"code":"2700"},"8220DB002701":{"name":"Ballyfermot Cr","lat":53.34017,"lng":-6.348298,"code":"2701"},"8220DB002702":{"name":"Kylemore Avenue","lat":53.338103,"lng":-6.347702,"code":"2702"},"8220DB002726":{"name":"Slievebloom Pk","lat":53.323814,"lng":-6.33042,"code":"2726"},"8220DB002727":{"name":"Drimnagh Cstl","lat":53.323759,"lng":-6.332884,"code":"2727"},"8220DB002778":{"name":"Drimnagh Cstl","lat":53.324024,"lng":-6.331943,"code":"2778"},"8220DB002780":{"name":"Walkinstown Ave","lat":53.325685,"lng":-6.342087,"code":"2780"},"8220DB002781":{"name":"Kylemore Road","lat":53.327963,"lng":-6.343695,"code":"2781"},"8220DB002782":{"name":"Bluebell Avenue","lat":53.330677,"lng":-6.345617,"code":"2782"},"8220DB002783":{"name":"Kylemore Way","lat":53.335359,"lng":-6.346862,"code":"2783"},"8220DB002784":{"name":"Kylemore Way","lat":53.335239,"lng":-6.346612,"code":"2784"},"8220DB002785":{"name":"Bluebell Avenue","lat":53.330084,"lng":-6.344964,"code":"2785"},"8220DB002786":{"name":"Kylemore Luas","lat":53.327842,"lng":-6.343369,"code":"2786"},"8220DB002787":{"name":"Walkinstown Ave","lat":53.325101,"lng":-6.341449,"code":"2787"},"8220DB002810":{"name":"Clare Street","lat":53.340795,"lng":-6.250897,"code":"2810"},"8220DB002957":{"name":"McKee Ave N","lat":53.396234,"lng":-6.302594,"code":"2957"},"8220DB002958":{"name":"McKee Avenue","lat":53.394406,"lng":-6.301088,"code":"2958"},"8220DB004319":{"name":"Heuston Train Stn","lat":53.346766,"lng":-6.292033,"code":"4319"},"8220DB004363":{"name":"Berryfield Rd","lat":53.381712,"lng":-6.303443,"code":"4363"},"8220DB004364":{"name":"Cappagh Hospital","lat":53.392911,"lng":-6.322529,"code":"4364"},"8220DB004365":{"name":"Poppintree Park","lat":53.402145,"lng":-6.283514,"code":"4365"},"8220DB004366":{"name":"Clune Road","lat":53.391215,"lng":-6.29481,"code":"4366"},"8220DB004367":{"name":"Jamestown Road","lat":53.398733,"lng":-6.289396,"code":"4367"},"8220DB004368":{"name":"Poppintree Park","lat":53.398824,"lng":-6.288866,"code":"4368"},"8220DB004369":{"name":"Oakwood Rd","lat":53.397265,"lng":-6.292357,"code":"4369"},"8220DB004375":{"name":"Jamestown Road","lat":53.391673,"lng":-6.296656,"code":"4375"},"8220DB004376":{"name":"McKee Road","lat":53.392408,"lng":-6.292732,"code":"4376"},"8220DB004377":{"name":"McKee Rd N","lat":53.394489,"lng":-6.289942,"code":"4377"},"8220DB004378":{"name":"Cremore Crescent","lat":53.378836,"lng":-6.2765,"code":"4378"},"8220DB004389":{"name":"Clanawley Rd","lat":53.373464,"lng":-6.210692,"code":"4389"},"8220DB004390":{"name":"Killester Avenue","lat":53.37189,"lng":-6.207662,"code":"4390"},"8220DB004406":{"name":"Concorde B Park","lat":53.328089,"lng":-6.338511,"code":"4406"},"8220DB004407":{"name":"Victoria Quay","lat":53.346488,"lng":-6.285165,"code":"4407"},"8220DB004413":{"name":"Heuston Station","lat":53.34623,"lng":-6.29242,"code":"4413"},"8220DB004414":{"name":"Convent Lawns","lat":53.344337,"lng":-6.350014,"code":"4414"},"8220DB004458":{"name":"Military Cemetery","lat":53.36045,"lng":-6.308119,"code":"4458"},"8220DB004473":{"name":"Artane Castle SC","lat":53.383914,"lng":-6.214704,"code":"4473"},"8220DB004474":{"name":"Artane Castle SC","lat":53.384137,"lng":-6.215191,"code":"4474"},"8220DB004479":{"name":"Clune Road","lat":53.391304,"lng":-6.29413,"code":"4479"},"8220DB004498":{"name":"John Paul Park","lat":53.366804,"lng":-6.30426,"code":"4498"},"8220DB004509":{"name":"Summerhill","lat":53.355972,"lng":-6.252454,"code":"4509"},"8220DB004514":{"name":"St James's Hospital","lat":53.34006,"lng":-6.29674,"code":"4514"},"8220DB004516":{"name":"St James's Hospital","lat":53.33995,"lng":-6.296871,"code":"4516"},"8220DB004518":{"name":"Fairview Strand","lat":53.362583,"lng":-6.24114,"code":"4518"},"8220DB004539":{"name":"Glenties Pk","lat":53.381673,"lng":-6.31084,"code":"4539"},"8220DB004583":{"name":"Finglas West","lat":53.388529,"lng":-6.312598,"code":"4583"},"8220DB004592":{"name":"Finglas Village","lat":53.389686,"lng":-6.298495,"code":"4592"},"8220DB004597":{"name":"Beaumont Hospital","lat":53.390251,"lng":-6.224317,"code":"4597"},"8220DB004720":{"name":"Aston Quay","lat":53.346595,"lng":-6.260273,"code":"4720"},"8220DB004781":{"name":"IDA Poppintree","lat":53.401748,"lng":-6.284057,"code":"4781"},"8220DB004784":{"name":"Remedial Clinic","lat":53.370084,"lng":-6.201111,"code":"4784"},"8220DB004785":{"name":"Remedial Clinic","lat":53.370246,"lng":-6.20172,"code":"4785"},"8220DB004788":{"name":"Oakwood Rd","lat":53.396935,"lng":-6.292506,"code":"4788"},"8220DB004790":{"name":"Pinebrook Drive","lat":53.38139,"lng":-6.211788,"code":"4790"},"8220DB004791":{"name":"Killester Avenue","lat":53.371612,"lng":-6.207659,"code":"4791"},"8220DB004792":{"name":"Clanawley Rd","lat":53.372799,"lng":-6.209503,"code":"4792"},"8220DB004793":{"name":"Avila Park","lat":53.392267,"lng":-6.320825,"code":"4793"},"8220DB004794":{"name":"Clontarf Rd Stn","lat":53.363005,"lng":-6.226562,"code":"4794"},"8220DB004890":{"name":"Sycamore Rd","lat":53.395168,"lng":-6.290863,"code":"4890"},"8220DB004937":{"name":"Clearstream Court","lat":53.392672,"lng":-6.300511,"code":"4937"},"8220DB004938":{"name":"Gofton Hall","lat":53.390862,"lng":-6.298357,"code":"4938"},"8220DB005006":{"name":"Le Fanu Road","lat":53.346203,"lng":-6.3517,"code":"5006"},"8220DB005007":{"name":"Convent Lawns","lat":53.344188,"lng":-6.34966,"code":"5007"},"8220DB005009":{"name":"Le Fanu Road","lat":53.346215,"lng":-6.351894,"code":"5009"},"8220DB005060":{"name":"Cromcastle Rd","lat":53.397167,"lng":-6.224029,"code":"5060"},"8220DB005061":{"name":"Dundaniel Road","lat":53.395697,"lng":-6.224872,"code":"5061"},"8220DB005140":{"name":"Mayor Street Lower","lat":53.351124,"lng":-6.245532,"code":"5140"},"8220DB005141":{"name":"Clontarf Cmtry","lat":53.364744,"lng":-6.205213,"code":"5141"},"8220DB005149":{"name":"Errigal Rd","lat":53.329087,"lng":-6.323743,"code":"5149"},"8220DB005174":{"name":"Dundaniel Road","lat":53.395709,"lng":-6.225098,"code":"5174"},"8220DB006056":{"name":"Kilnamanagh Rd","lat":53.321686,"lng":-6.331854,"code":"6056"},"8220DB006057":{"name":"Kilnamanagh Rd","lat":53.321461,"lng":-6.331173,"code":"6057"},"8220DB006068":{"name":"Ratoath Drive","lat":53.390282,"lng":-6.3171,"code":"6068"},"8220DB006074":{"name":"Earlsfort Trce","lat":53.335886,"lng":-6.25754,"code":"6074"},"8220DB006078":{"name":"Cromcastle Rd","lat":53.397242,"lng":-6.224222,"code":"6078"},"8220DB006094":{"name":"Errigal Gdns","lat":53.32583,"lng":-6.321634,"code":"6094"},"8220DB006125":{"name":"Poppintree Parade","lat":53.399882,"lng":-6.276838,"code":"6125"},"8220DB006239":{"name":"Dolmen Court","lat":53.398042,"lng":-6.271393,"code":"6239"},"8220DB006241":{"name":"Crannogue Road","lat":53.401816,"lng":-6.279407,"code":"6241"},"8220DB006273":{"name":"Sycamore Rd","lat":53.395275,"lng":-6.290858,"code":"6273"},"8220DB007044":{"name":"Aulden Grange","lat":53.397409,"lng":-6.232486,"code":"7044"},"8220DB007092":{"name":"Dolmen Court","lat":53.398187,"lng":-6.272094,"code":"7092"},"8220DB007112":{"name":"Larch Hill","lat":53.397549,"lng":-6.229171,"code":"7112"},"8220DB007129":{"name":"Saint David's Court","lat":53.362098,"lng":-6.208584,"code":"7129"},"8220DB007130":{"name":"Cromcastle Grn","lat":53.393073,"lng":-6.220696,"code":"7130"},"8220DB007153":{"name":"Walkinstown Dr","lat":53.322244,"lng":-6.335075,"code":"7153"},"8220DB007154":{"name":"Walkinstown Grn","lat":53.32088,"lng":-6.333972,"code":"7154"},"8220DB007320":{"name":"Griffith Court","lat":53.368501,"lng":-6.239589,"code":"7320"},"8220DB007402":{"name":"Deverell Place","lat":53.351377,"lng":-6.254791,"code":"7402"},"8220DB007471":{"name":"Tolka Vly Grn","lat":53.379257,"lng":-6.293244,"code":"7471"},"8220DB007571":{"name":"DCU Helix","lat":53.386776,"lng":-6.258725,"code":"7571"},"8220DB007607":{"name":"Vernon Avenue","lat":53.369414,"lng":-6.195428,"code":"7607"},"8220DB007828":{"name":"Shangan Road","lat":53.397201,"lng":-6.265188,"code":"7828"},"8220DB007838":{"name":"Finglas Village","lat":53.389826,"lng":-6.300128,"code":"7838"},"8220DB007840":{"name":"Donnycarney","lat":53.375129,"lng":-6.218063,"code":"7840"},"8220DB007845":{"name":"Finglas Village","lat":53.390114,"lng":-6.299515,"code":"7845"},"8220DB007888":{"name":"Winetavern Street","lat":53.344561,"lng":-6.271891,"code":"7888"},"8220DB007913":{"name":"Hannaville Park","lat":53.30976,"lng":-6.285647,"code":"7913"},"8220DB007939":{"name":"Heuston Station","lat":53.346636,"lng":-6.29556,"code":"7939"},"8220DB007941":{"name":"Kylemore","lat":53.32638,"lng":-6.34233,"code":"7941"},"8220DB007942":{"name":"Crumlin Village","lat":53.320826,"lng":-6.316682,"code":"7942"},"8220DB007943":{"name":"Highfield Road","lat":53.312739,"lng":-6.270385,"code":"7943"},"8220DB007945":{"name":"Palmerston Pk","lat":53.313229,"lng":-6.264467,"code":"7945"},"8220DB007946":{"name":"Milltown Luas","lat":53.308297,"lng":-6.252932,"code":"7946"},"8220DB007947":{"name":"Shangarry","lat":53.30928,"lng":-6.2498,"code":"7947"},"8220DB007948":{"name":"Bankside Cottages","lat":53.310269,"lng":-6.247103,"code":"7948"},"8220DB007952":{"name":"Shangarry","lat":53.309904,"lng":-6.248544,"code":"7952"},"8220DB007953":{"name":"Milltown Luas","lat":53.308248,"lng":-6.252664,"code":"7953"},"8220DB007954":{"name":"Highfield Road","lat":53.313136,"lng":-6.264906,"code":"7954"},"8220DB007957":{"name":"Fairfield Park","lat":53.312656,"lng":-6.270823,"code":"7957"},"8220DB007958":{"name":"Drimnagh Road","lat":53.32452,"lng":-6.32382,"code":"7958"},"8220DB008246":{"name":"Griffith Avenue","lat":53.379305,"lng":-6.265414,"code":"8246"},"8220DB008296":{"name":"Nephin Road","lat":53.36263,"lng":-6.31139,"code":"8296"},"8220DB008297":{"name":"Navan Road","lat":53.36454,"lng":-6.309,"code":"8297"},"8220DB008299":{"name":"Lagan Road","lat":53.375324,"lng":-6.299971,"code":"8299"},"8220DB008300":{"name":"Glasnevin Court","lat":53.376172,"lng":-6.292262,"code":"8300"},"8220DB008301":{"name":"Glasnevin Woods","lat":53.375628,"lng":-6.288212,"code":"8301"},"8220DB008302":{"name":"Glasnevin Downs","lat":53.37816,"lng":-6.2863,"code":"8302"},"8220DB008303":{"name":"St Clare's","lat":53.37931,"lng":-6.27133,"code":"8303"},"8220DB008304":{"name":"Drumcondra Rd","lat":53.375672,"lng":-6.249473,"code":"8304"},"8220DB008305":{"name":"Grace Park Rd","lat":53.373883,"lng":-6.242673,"code":"8305"},"8220DB008306":{"name":"Drumcondra Rd","lat":53.375943,"lng":-6.251218,"code":"8306"},"8220DB008307":{"name":"St Mobhi Road","lat":53.378704,"lng":-6.266153,"code":"8307"},"8220DB008308":{"name":"St Clare's","lat":53.379157,"lng":-6.271342,"code":"8308"},"8220DB008309":{"name":"Glasnevin Downs","lat":53.378151,"lng":-6.284902,"code":"8309"},"8220DB008310":{"name":"Glasnevin Woods","lat":53.375599,"lng":-6.28725,"code":"8310"},"8220DB008311":{"name":"Glasnevin Court","lat":53.37606,"lng":-6.29223,"code":"8311"},"8220DB008312":{"name":"Lagan Road","lat":53.3748,"lng":-6.29975,"code":"8312"},"8220DB008314":{"name":"Croaghpatrick Rd","lat":53.36447,"lng":-6.30892,"code":"8314"},"8220DB008315":{"name":"Park Crescent","lat":53.3625,"lng":-6.31075,"code":"8315"},"8220DB008411":{"name":"Parnell Street East","lat":53.353723,"lng":-6.256398,"code":"8411"},"8220GD007829":{"name":"Shangan Road","lat":53.397313,"lng":-6.265753,"code":"7829"},"8220GD007837":{"name":"Howth Junction","lat":53.390121,"lng":-6.155926,"code":"7837"},"8220GD007841":{"name":"Brookville Crescent","lat":53.389683,"lng":-6.19842,"code":"7841"},"8220GD8340":{"name":"Broombridge","lat":53.37219,"lng":-6.300028,"code":"8340"},"8220GD8341":{"name":"Broombridge","lat":53.372116,"lng":-6.299883,"code":"8341"},"8230B105121":{"name":"Saggart Cross","lat":53.291358,"lng":-6.439194,"code":"105121"},"8230B1056701":{"name":"Saggart Cross","lat":53.292024,"lng":-6.4365,"code":"105671"},"8230B1339501":{"name":"Holy Family NS","lat":53.281284,"lng":-6.477533,"code":"133951"},"8230DB000946":{"name":"Woodbrook Pk","lat":53.293247,"lng":-6.310041,"code":"946"},"8230DB001131":{"name":"Old Bridge Road","lat":53.294222,"lng":-6.307872,"code":"1131"},"8230DB001132":{"name":"Anne Devlin Road","lat":53.29435,"lng":-6.304837,"code":"1132"},"8230DB001133":{"name":"Butterfield Grove","lat":53.294705,"lng":-6.301342,"code":"1133"},"8230DB001134":{"name":"Rathfarnham SC","lat":53.295507,"lng":-6.29837,"code":"1134"},"8230DB001138":{"name":"Butterfield Grove","lat":53.294834,"lng":-6.300347,"code":"1138"},"8230DB001139":{"name":"Old Bridge Road","lat":53.294224,"lng":-6.306747,"code":"1139"},"8230DB001140":{"name":"Woodbrook Pk","lat":53.293285,"lng":-6.309559,"code":"1140"},"8230DB001146":{"name":"St Colmcille's School","lat":53.279374,"lng":-6.314217,"code":"1146"},"8230DB001149":{"name":"St Colmcille's CS","lat":53.279358,"lng":-6.315628,"code":"1149"},"8230DB001305":{"name":"Grange Rd N","lat":53.29617,"lng":-6.283747,"code":"1305"},"8230DB001329":{"name":"Rathfarnham Wood","lat":53.294967,"lng":-6.281994,"code":"1329"},"8230DB001330":{"name":"Grange Rd N","lat":53.296191,"lng":-6.283986,"code":"1330"},"8230DB001960":{"name":"Red Cow Hotel","lat":53.320063,"lng":-6.361954,"code":"1960"},"8230DB001977":{"name":"Red Cow Hotel","lat":53.320547,"lng":-6.36183,"code":"1977"},"8230DB002110":{"name":"Newlands X","lat":53.314647,"lng":-6.391968,"code":"2110"},"8230DB002111":{"name":"Clondalkin Church","lat":53.319159,"lng":-6.392594,"code":"2111"},"8230DB002112":{"name":"Main Street","lat":53.32067,"lng":-6.393378,"code":"2112"},"8230DB002114":{"name":"The Mill SC","lat":53.324215,"lng":-6.395602,"code":"2114"},"8230DB002115":{"name":"Oakfield","lat":53.32563,"lng":-6.395248,"code":"2115"},"8230DB002116":{"name":"Michael Collins Pk","lat":53.32825,"lng":-6.396291,"code":"2116"},"8230DB002117":{"name":"Station Road","lat":53.32955,"lng":-6.397564,"code":"2117"},"8230DB002118":{"name":"Neilstown Road","lat":53.335624,"lng":-6.400564,"code":"2118"},"8230DB002119":{"name":"St Peter's JNS","lat":53.337048,"lng":-6.40018,"code":"2119"},"8230DB002120":{"name":"Collinstown College","lat":53.341163,"lng":-6.399426,"code":"2120"},"8230DB002121":{"name":"Rowlagh","lat":53.343876,"lng":-6.398603,"code":"2121"},"8230DB002123":{"name":"St Mark's Avenue","lat":53.347176,"lng":-6.398074,"code":"2123"},"8230DB002124":{"name":"Neilstown Road","lat":53.346958,"lng":-6.397932,"code":"2124"},"8230DB002125":{"name":"Harelawn Green","lat":53.345587,"lng":-6.398194,"code":"2125"},"8230DB002126":{"name":"Rowlagh","lat":53.343935,"lng":-6.398376,"code":"2126"},"8230DB002127":{"name":"Collinstown College","lat":53.341572,"lng":-6.399035,"code":"2127"},"8230DB002128":{"name":"Neilstown Avenue","lat":53.339667,"lng":-6.399752,"code":"2128"},"8230DB002129":{"name":"Moorefield Drive","lat":53.335728,"lng":-6.400305,"code":"2129"},"8230DB002130":{"name":"Station Road","lat":53.329724,"lng":-6.397572,"code":"2130"},"8230DB002158":{"name":"Oakfield","lat":53.325404,"lng":-6.395137,"code":"2158"},"8230DB002159":{"name":"Orchard Road","lat":53.323221,"lng":-6.393883,"code":"2159"},"8230DB002173":{"name":"Laurel Park","lat":53.318552,"lng":-6.392242,"code":"2173"},"8230DB002174":{"name":"Knockmeenagh Road","lat":53.316399,"lng":-6.391227,"code":"2174"},"8230DB002176":{"name":"Newlands X","lat":53.313706,"lng":-6.388116,"code":"2176"},"8230DB002202":{"name":"Kennelsfort Road","lat":53.354382,"lng":-6.373302,"code":"2202"},"8230DB002203":{"name":"Woodfarm","lat":53.353207,"lng":-6.376156,"code":"2203"},"8230DB002204":{"name":"Palmerstown SC","lat":53.350019,"lng":-6.377659,"code":"2204"},"8230DB002205":{"name":"Cherry Orchard Hosp","lat":53.344591,"lng":-6.377024,"code":"2205"},"8230DB002206":{"name":"Cherry Orchard Hosp","lat":53.344187,"lng":-6.375748,"code":"2206"},"8230DB002207":{"name":"Palmers Crescent","lat":53.346757,"lng":-6.37966,"code":"2207"},"8230DB002208":{"name":"Palmerstown SC","lat":53.349913,"lng":-6.377783,"code":"2208"},"8230DB002210":{"name":"Woodfarm","lat":53.352392,"lng":-6.37832,"code":"2210"},"8230DB002211":{"name":"Kennelsfort Road","lat":53.353959,"lng":-6.37458,"code":"2211"},"8230DB002212":{"name":"Palmerstown Village","lat":53.355967,"lng":-6.370943,"code":"2212"},"8230DB002213":{"name":"Liffey Valley SC","lat":53.355778,"lng":-6.392073,"code":"2213"},"8230DB002214":{"name":"Clayton Hotel","lat":53.35609,"lng":-6.399933,"code":"2214"},"8230DB002215":{"name":"St Loman's Hospital","lat":53.358206,"lng":-6.408973,"code":"2215"},"8230DB002216":{"name":"Ballyowen Lane","lat":53.358865,"lng":-6.41595,"code":"2216"},"8230DB002223":{"name":"Main St Lucan","lat":53.358527,"lng":-6.44906,"code":"2223"},"8230DB002224":{"name":"Lucan Village","lat":53.357278,"lng":-6.449751,"code":"2224"},"8230DB002225":{"name":"St Patricks Church","lat":53.349552,"lng":-6.450047,"code":"2225"},"8230DB002226":{"name":"Collins Bridge","lat":53.370272,"lng":-6.456523,"code":"2226"},"8230DB002227":{"name":"St Patricks Church","lat":53.349564,"lng":-6.450257,"code":"2227"},"8230DB002228":{"name":"Collins Bridge","lat":53.371307,"lng":-6.455884,"code":"2228"},"8230DB002229":{"name":"Main St Lucan","lat":53.358606,"lng":-6.448877,"code":"2229"},"8230DB002234":{"name":"Lucan Retail Park","lat":53.359336,"lng":-6.424391,"code":"2234"},"8230DB002236":{"name":"Hermitage Bridge","lat":53.358869,"lng":-6.410857,"code":"2236"},"8230DB002239":{"name":"Liffey Valley SC","lat":53.356169,"lng":-6.391727,"code":"2239"},"8230DB002345":{"name":"Belgard Retail Park","lat":53.293663,"lng":-6.369025,"code":"2345"},"8230DB002346":{"name":"Belgard Rd South","lat":53.29008,"lng":-6.367901,"code":"2346"},"8230DB002349":{"name":"Alderwood","lat":53.285029,"lng":-6.378472,"code":"2349"},"8230DB002351":{"name":"Maplewood","lat":53.283206,"lng":-6.384525,"code":"2351"},"8230DB002352":{"name":"Jobstown House","lat":53.27738,"lng":-6.39785,"code":"2352"},"8230DB002357":{"name":"Jobstown House","lat":53.27804,"lng":-6.39674,"code":"2357"},"8230DB002358":{"name":"Killinarden W","lat":53.27981,"lng":-6.3914,"code":"2358"},"8230DB002359":{"name":"Maplewood","lat":53.28359,"lng":-6.384376,"code":"2359"},"8230DB002360":{"name":"Alderwood","lat":53.284695,"lng":-6.379685,"code":"2360"},"8230DB002363":{"name":"Belgard Rd South","lat":53.289806,"lng":-6.368257,"code":"2363"},"8230DB002364":{"name":"Belgard Retail Park","lat":53.293631,"lng":-6.369311,"code":"2364"},"8230DB002515":{"name":"Cherryfield Wy","lat":53.291344,"lng":-6.312816,"code":"2515"},"8230DB002516":{"name":"Cremorne","lat":53.290223,"lng":-6.31553,"code":"2516"},"8230DB002517":{"name":"Green Acre Ct","lat":53.289215,"lng":-6.3186,"code":"2517"},"8230DB002518":{"name":"Knocklyon Avenue","lat":53.288532,"lng":-6.324387,"code":"2518"},"8230DB002520":{"name":"Ballycullen Road","lat":53.286078,"lng":-6.332657,"code":"2520"},"8230DB002521":{"name":"Woodlawn Park","lat":53.284719,"lng":-6.335784,"code":"2521"},"8230DB002522":{"name":"Firhouse Centre","lat":53.281422,"lng":-6.342346,"code":"2522"},"8230DB002523":{"name":"Firhouse Coll","lat":53.277107,"lng":-6.348751,"code":"2523"},"8230DB002524":{"name":"Ballycullen Drive","lat":53.278374,"lng":-6.346768,"code":"2524"},"8230DB002532":{"name":"Old Bawn SC","lat":53.275604,"lng":-6.354432,"code":"2532"},"8230DB002533":{"name":"Parkwood Lwn","lat":53.277508,"lng":-6.357643,"code":"2533"},"8230DB002534":{"name":"Old Bawn Trce","lat":53.278929,"lng":-6.358309,"code":"2534"},"8230DB002535":{"name":"Old Bawn Rd","lat":53.281013,"lng":-6.358919,"code":"2535"},"8230DB002536":{"name":"Old Bawn Ct","lat":53.282955,"lng":-6.359579,"code":"2536"},"8230DB002538":{"name":"Old Bawn Rd","lat":53.281535,"lng":-6.358914,"code":"2538"},"8230DB002539":{"name":"Parkwood Lwn","lat":53.276536,"lng":-6.356181,"code":"2539"},"8230DB002540":{"name":"Old Bawn SC","lat":53.275532,"lng":-6.353775,"code":"2540"},"8230DB002542":{"name":"Firhouse Coll","lat":53.276793,"lng":-6.350098,"code":"2542"},"8230DB002544":{"name":"Woodlawn","lat":53.284873,"lng":-6.335823,"code":"2544"},"8230DB002545":{"name":"Monalea Wood","lat":53.286257,"lng":-6.332635,"code":"2545"},"8230DB002547":{"name":"Knocklyon Avenue","lat":53.289105,"lng":-6.323539,"code":"2547"},"8230DB002548":{"name":"Green Acre Ct","lat":53.289503,"lng":-6.317974,"code":"2548"},"8230DB002557":{"name":"Tallaght Village","lat":53.288506,"lng":-6.363281,"code":"2557"},"8230DB002573":{"name":"Kiltalown Cottages","lat":53.274275,"lng":-6.406859,"code":"2573"},"8230DB002574":{"name":"De Selby Estate","lat":53.274561,"lng":-6.410732,"code":"2574"},"8230DB002575":{"name":"Corbally Vale","lat":53.277158,"lng":-6.418823,"code":"2575"},"8230DB002590":{"name":"Belfry Downs","lat":53.275145,"lng":-6.415494,"code":"2590"},"8230DB002591":{"name":"De Selby Estate","lat":53.274611,"lng":-6.410445,"code":"2591"},"8230DB002592":{"name":"Kiltalown Cottages","lat":53.274304,"lng":-6.406273,"code":"2592"},"8230DB002604":{"name":"Village Grn","lat":53.286815,"lng":-6.361846,"code":"2604"},"8230DB002605":{"name":"St Maelruan's Park","lat":53.284056,"lng":-6.359912,"code":"2605"},"8230DB002616":{"name":"St Maelruan's Park","lat":53.284641,"lng":-6.360639,"code":"2616"},"8230DB002617":{"name":"Village Grn","lat":53.28671,"lng":-6.362075,"code":"2617"},"8230DB002618":{"name":"Belgard","lat":53.298755,"lng":-6.371291,"code":"2618"},"8230DB002619":{"name":"Belgard Road","lat":53.302675,"lng":-6.376694,"code":"2619"},"8230DB002620":{"name":"Belgard","lat":53.298721,"lng":-6.370842,"code":"2620"},"8230DB002621":{"name":"Kilclare Dr","lat":53.282133,"lng":-6.389605,"code":"2621"},"8230DB002622":{"name":"Tallaght L Centre","lat":53.283809,"lng":-6.392601,"code":"2622"},"8230DB002623":{"name":"Whitebrook","lat":53.28553,"lng":-6.394922,"code":"2623"},"8230DB002624":{"name":"Rossfield","lat":53.288765,"lng":-6.400185,"code":"2624"},"8230DB002626":{"name":"Brookview Road","lat":53.285921,"lng":-6.407341,"code":"2626"},"8230DB002628":{"name":"Brookfield Road","lat":53.288871,"lng":-6.404111,"code":"2628"},"8230DB002629":{"name":"Fettercairn Cr","lat":53.288204,"lng":-6.398631,"code":"2629"},"8230DB002631":{"name":"Kilclare Dr","lat":53.282196,"lng":-6.388973,"code":"2631"},"8230DB002673":{"name":"Cherry Orchard IE","lat":53.343779,"lng":-6.372895,"code":"2673"},"8230DB002674":{"name":"Coldcut Rd","lat":53.347496,"lng":-6.389111,"code":"2674"},"8230DB002675":{"name":"Harelawn","lat":53.347789,"lng":-6.395528,"code":"2675"},"8230DB002685":{"name":"Coldcut Road","lat":53.347955,"lng":-6.395852,"code":"2685"},"8230DB002686":{"name":"Coldcut Rd","lat":53.347652,"lng":-6.388713,"code":"2686"},"8230DB002687":{"name":"Cherry Orchard IE","lat":53.343961,"lng":-6.373038,"code":"2687"},"8230DB002762":{"name":"Tallaght Fire Stn","lat":53.308926,"lng":-6.386943,"code":"2762"},"8230DB002763":{"name":"Newlands Golf Club","lat":53.308809,"lng":-6.38629,"code":"2763"},"8230DB002927":{"name":"Edmondstown Road","lat":53.277135,"lng":-6.297076,"code":"2927"},"8230DB002929":{"name":"Edmondstown Golf","lat":53.271833,"lng":-6.299026,"code":"2929"},"8230DB002930":{"name":"Cemetery","lat":53.267905,"lng":-6.298372,"code":"2930"},"8230DB002933":{"name":"Rockbrook","lat":53.261871,"lng":-6.297547,"code":"2933"},"8230DB002934":{"name":"Rockbrook","lat":53.262097,"lng":-6.297673,"code":"2934"},"8230DB002935":{"name":"The Merry Ploughboy","lat":53.264131,"lng":-6.297188,"code":"2935"},"8230DB002936":{"name":"Cemetery","lat":53.266099,"lng":-6.297829,"code":"2936"},"8230DB002937":{"name":"Edmondstown NS","lat":53.268648,"lng":-6.298807,"code":"2937"},"8230DB002938":{"name":"Edmondstown Golf","lat":53.271645,"lng":-6.299108,"code":"2938"},"8230DB002940":{"name":"Moyville","lat":53.280359,"lng":-6.297487,"code":"2940"},"8230DB002948":{"name":"Ballyboden Crescent","lat":53.281953,"lng":-6.295819,"code":"2948"},"8230DB002949":{"name":"Moyville Lawns","lat":53.281673,"lng":-6.293251,"code":"2949"},"8230DB002950":{"name":"Pearse Brothers Pk","lat":53.281793,"lng":-6.288462,"code":"2950"},"8230DB002954":{"name":"Whitechurch Green","lat":53.278042,"lng":-6.286318,"code":"2954"},"8230DB002956":{"name":"Glenmore Park","lat":53.27812,"lng":-6.286164,"code":"2956"},"8230DB002965":{"name":"Whitechurch Road","lat":53.280304,"lng":-6.284277,"code":"2965"},"8230DB002967":{"name":"Eden Avenue","lat":53.28134,"lng":-6.276917,"code":"2967"},"8230DB002968":{"name":"Three Rock Rvrs","lat":53.280329,"lng":-6.273569,"code":"2968"},"8230DB002980":{"name":"Three Rock Rvrs","lat":53.280017,"lng":-6.273071,"code":"2980"},"8230DB002981":{"name":"Eden Avenue","lat":53.281272,"lng":-6.27725,"code":"2981"},"8230DB002983":{"name":"Pearse Brothers Pk","lat":53.281619,"lng":-6.287554,"code":"2983"},"8230DB002984":{"name":"Moyville Lawns","lat":53.281544,"lng":-6.293616,"code":"2984"},"8230DB003368":{"name":"Finnstown Abbey","lat":53.344558,"lng":-6.449582,"code":"3368"},"8230DB003370":{"name":"Finnstown Abbey","lat":53.34447,"lng":-6.447693,"code":"3370"},"8230DB003392":{"name":"Hynestown","lat":53.308224,"lng":-6.495512,"code":"3392"},"8230DB003393":{"name":"Cornerpark","lat":53.303906,"lng":-6.499505,"code":"3393"},"8230DB003394":{"name":"Peamount Rd","lat":53.300564,"lng":-6.501078,"code":"3394"},"8230DB003396":{"name":"Newcastle","lat":53.299752,"lng":-6.499381,"code":"3396"},"8230DB003397":{"name":"Graydon Road","lat":53.299636,"lng":-6.496624,"code":"3397"},"8230DB003398":{"name":"Aylmer Rd","lat":53.298071,"lng":-6.493619,"code":"3398"},"8230DB003399":{"name":"Newcastle M","lat":53.296055,"lng":-6.49201,"code":"3399"},"8230DB003400":{"name":"Newcastle M","lat":53.295381,"lng":-6.490578,"code":"3400"},"8230DB003401":{"name":"Aylmer Rd","lat":53.297758,"lng":-6.49378,"code":"3401"},"8230DB003402":{"name":"Graydon Road","lat":53.299607,"lng":-6.497121,"code":"3402"},"8230DB003404":{"name":"Peamount Rd","lat":53.300961,"lng":-6.501169,"code":"3404"},"8230DB003405":{"name":"Cornerpark","lat":53.303605,"lng":-6.499861,"code":"3405"},"8230DB003406":{"name":"Cornerpark Frm","lat":53.305936,"lng":-6.497949,"code":"3406"},"8230DB003407":{"name":"Keeloges","lat":53.311257,"lng":-6.490888,"code":"3407"},"8230DB003408":{"name":"Loughtown Rd","lat":53.312274,"lng":-6.489547,"code":"3408"},"8230DB003410":{"name":"Hynestown","lat":53.307862,"lng":-6.496065,"code":"3410"},"8230DB003425":{"name":"Newlands X","lat":53.313902,"lng":-6.391996,"code":"3425"},"8230DB003426":{"name":"Citywest Htl","lat":53.283774,"lng":-6.440715,"code":"3426"},"8230DB003427":{"name":"Newlands X","lat":53.31255,"lng":-6.39118,"code":"3427"},"8230DB003432":{"name":"Bianconi Ave East","lat":53.29131,"lng":-6.42818,"code":"3432"},"8230DB003434":{"name":"Saggart Village","lat":53.280293,"lng":-6.444681,"code":"3434"},"8230DB003436":{"name":"Springbank","lat":53.28304,"lng":-6.45264,"code":"3436"},"8230DB003437":{"name":"Fitzmaurice Road","lat":53.283426,"lng":-6.458875,"code":"3437"},"8230DB003438":{"name":"Bianconi Ave East","lat":53.291444,"lng":-6.427971,"code":"3438"},"8230DB003449":{"name":"Fitzmaurice Road","lat":53.283535,"lng":-6.458961,"code":"3449"},"8230DB003453":{"name":"Springbank","lat":53.282961,"lng":-6.452818,"code":"3453"},"8230DB003454":{"name":"Millrace Ct","lat":53.281654,"lng":-6.447691,"code":"3454"},"8230DB003455":{"name":"Saggart Village","lat":53.280349,"lng":-6.444814,"code":"3455"},"8230DB003456":{"name":"Citywest Htl","lat":53.283803,"lng":-6.440879,"code":"3456"},"8230DB003457":{"name":"Garters Lane","lat":53.290025,"lng":-6.438283,"code":"3457"},"8230DB003886":{"name":"Primrose Lane","lat":53.35569,"lng":-6.454166,"code":"3886"},"8230DB003887":{"name":"Ardeevin Avenue","lat":53.355229,"lng":-6.458779,"code":"3887"},"8230DB003888":{"name":"Old Cornmill Road","lat":53.355154,"lng":-6.462718,"code":"3888"},"8230DB003890":{"name":"Dodsboro Road","lat":53.350689,"lng":-6.464306,"code":"3890"},"8230DB003891":{"name":"Woodview Heights","lat":53.351942,"lng":-6.463164,"code":"3891"},"8230DB003949":{"name":"Leixlip Road","lat":53.355517,"lng":-6.460211,"code":"3949"},"8230DB003950":{"name":"Ball Alley House","lat":53.355603,"lng":-6.45501,"code":"3950"},"8230DB004327":{"name":"Liffey Valley Golf","lat":53.351062,"lng":-6.43832,"code":"4327"},"8230DB004340":{"name":"Tallaght Square","lat":53.28571,"lng":-6.37242,"code":"4340"},"8230DB004342":{"name":"The Square","lat":53.286106,"lng":-6.373062,"code":"4342"},"8230DB004347":{"name":"Tallaght Luas","lat":53.286222,"lng":-6.375007,"code":"4347"},"8230DB004348":{"name":"Tallaght Luas","lat":53.286672,"lng":-6.37505,"code":"4348"},"8230DB004357":{"name":"Hollyville Lawn","lat":53.357941,"lng":-6.380603,"code":"4357"},"8230DB004359":{"name":"Hollyville Lawn","lat":53.357975,"lng":-6.379099,"code":"4359"},"8230DB004360":{"name":"Robin Villas","lat":53.357154,"lng":-6.373587,"code":"4360"},"8230DB004361":{"name":"Palmerstown Village","lat":53.355612,"lng":-6.371212,"code":"4361"},"8230DB004409":{"name":"Clondalkin Village","lat":53.322347,"lng":-6.39309,"code":"4409"},"8230DB004435":{"name":"Tallaght Village","lat":53.288843,"lng":-6.363568,"code":"4435"},"8230DB004436":{"name":"Ol Blessington Rd","lat":53.289168,"lng":-6.366976,"code":"4436"},"8230DB004438":{"name":"Lake Drive","lat":53.293315,"lng":-6.422607,"code":"4438"},"8230DB004440":{"name":"Brookview Road","lat":53.286429,"lng":-6.407037,"code":"4440"},"8230DB004441":{"name":"Brookfield Road","lat":53.288527,"lng":-6.404604,"code":"4441"},"8230DB004445":{"name":"Killinarden W","lat":53.280811,"lng":-6.38889,"code":"4445"},"8230DB004545":{"name":"Grange Cstl Gt","lat":53.319283,"lng":-6.434378,"code":"4545"},"8230DB004552":{"name":"Pfizer","lat":53.325086,"lng":-6.4396,"code":"4552"},"8230DB004554":{"name":"Grange Castle","lat":53.326928,"lng":-6.439547,"code":"4554"},"8230DB004555":{"name":"Pfizer","lat":53.325029,"lng":-6.439406,"code":"4555"},"8230DB004576":{"name":"Grange Cstl Gt","lat":53.319363,"lng":-6.4343,"code":"4576"},"8230DB004599":{"name":"Hermitage Road","lat":53.357759,"lng":-6.423337,"code":"4599"},"8230DB004601":{"name":"Ballyowen Park","lat":53.355756,"lng":-6.422089,"code":"4601"},"8230DB004602":{"name":"The Penny Hill","lat":53.347626,"lng":-6.424477,"code":"4602"},"8230DB004611":{"name":"St Finnian's","lat":53.348924,"lng":-6.439766,"code":"4611"},"8230DB004612":{"name":"Arthur Griffith Pk","lat":53.347449,"lng":-6.442463,"code":"4612"},"8230DB004613":{"name":"Esker Cottages","lat":53.345085,"lng":-6.444502,"code":"4613"},"8230DB004616":{"name":"Lucan Comm College","lat":53.347696,"lng":-6.451105,"code":"4616"},"8230DB004617":{"name":"Grange Castle","lat":53.326666,"lng":-6.439452,"code":"4617"},"8230DB004620":{"name":"Lucan Comm College","lat":53.347236,"lng":-6.450972,"code":"4620"},"8230DB004626":{"name":"Arthur Griffith Pk","lat":53.34731,"lng":-6.442813,"code":"4626"},"8230DB004627":{"name":"St Finnian's","lat":53.349199,"lng":-6.439485,"code":"4627"},"8230DB004632":{"name":"Ballyowen Road","lat":53.347586,"lng":-6.424794,"code":"4632"},"8230DB004633":{"name":"Ballyowen Park","lat":53.35498,"lng":-6.421878,"code":"4633"},"8230DB004640":{"name":"Tallaght Hospl","lat":53.28933,"lng":-6.37397,"code":"4640"},"8230DB004646":{"name":"Tallaght Hospl","lat":53.28944,"lng":-6.37427,"code":"4646"},"8230DB004647":{"name":"Belgard Square N","lat":53.290058,"lng":-6.371532,"code":"4647"},"8230DB004713":{"name":"Citywest Rd N","lat":53.291289,"lng":-6.427136,"code":"4713"},"8230DB004714":{"name":"Castle Drive","lat":53.288747,"lng":-6.423855,"code":"4714"},"8230DB004715":{"name":"Liffey Valley W","lat":53.352679,"lng":-6.395599,"code":"4715"},"8230DB004798":{"name":"Whitethorn Cres","lat":53.345614,"lng":-6.38092,"code":"4798"},"8230DB004799":{"name":"Ballyfermot Road","lat":53.345194,"lng":-6.379074,"code":"4799"},"8230DB004869":{"name":"St Colmcilles Way","lat":53.279114,"lng":-6.318757,"code":"4869"},"8230DB004870":{"name":"Woodstown Crescent","lat":53.27673,"lng":-6.32963,"code":"4870"},"8230DB004871":{"name":"Wood Dale View","lat":53.276111,"lng":-6.336569,"code":"4871"},"8230DB004872":{"name":"Parklands","lat":53.275562,"lng":-6.342348,"code":"4872"},"8230DB004873":{"name":"Old Court Farm","lat":53.275033,"lng":-6.346957,"code":"4873"},"8230DB004874":{"name":"Old Court Road","lat":53.274697,"lng":-6.350629,"code":"4874"},"8230DB004882":{"name":"Old Court Road","lat":53.274792,"lng":-6.35034,"code":"4882"},"8230DB004883":{"name":"Old Court Farm","lat":53.275139,"lng":-6.346833,"code":"4883"},"8230DB004884":{"name":"Parklands","lat":53.275628,"lng":-6.3426,"code":"4884"},"8230DB004885":{"name":"Wood Dale View","lat":53.276219,"lng":-6.336595,"code":"4885"},"8230DB004886":{"name":"Woodstown Crescent","lat":53.276859,"lng":-6.329687,"code":"4886"},"8230DB004887":{"name":"St Colmcilles Way","lat":53.279473,"lng":-6.318038,"code":"4887"},"8230DB004888":{"name":"Palmers Crescent","lat":53.34743,"lng":-6.378929,"code":"4888"},"8230DB004929":{"name":"Verschoyle Avenue","lat":53.280806,"lng":-6.421418,"code":"4929"},"8230DB004930":{"name":"Citywest Rd","lat":53.28757,"lng":-6.422488,"code":"4930"},"8230DB004931":{"name":"Castle Drive","lat":53.289019,"lng":-6.42536,"code":"4931"},"8230DB004932":{"name":"Magna Drive","lat":53.278861,"lng":-6.4205,"code":"4932"},"8230DB004933":{"name":"Belfry","lat":53.27764,"lng":-6.41927,"code":"4933"},"8230DB004960":{"name":"Citywest Rd","lat":53.285051,"lng":-6.421621,"code":"4960"},"8230DB005008":{"name":"Belgard Square N","lat":53.29045,"lng":-6.369357,"code":"5008"},"8230DB005011":{"name":"Belgard Road","lat":53.302471,"lng":-6.376881,"code":"5011"},"8230DB005022":{"name":"Lake Drive","lat":53.29338,"lng":-6.422829,"code":"5022"},"8230DB005056":{"name":"Hermitage Clinic","lat":53.357521,"lng":-6.402794,"code":"5056"},"8230DB005058":{"name":"Ballyowen Road","lat":53.350899,"lng":-6.422494,"code":"5058"},"8230DB005119":{"name":"Brownsbarn Orch","lat":53.297902,"lng":-6.420127,"code":"5119"},"8230DB005120":{"name":"Kingswood Hotel","lat":53.300758,"lng":-6.418627,"code":"5120"},"8230DB005125":{"name":"Brownsbarn Orch","lat":53.298504,"lng":-6.41943,"code":"5125"},"8230DB005129":{"name":"Butterfield Avenue","lat":53.297709,"lng":-6.28577,"code":"5129"},"8230DB005130":{"name":"Charleville Square","lat":53.296694,"lng":-6.293327,"code":"5130"},"8230DB005131":{"name":"Charleville Square","lat":53.296974,"lng":-6.291606,"code":"5131"},"8230DB005132":{"name":"Owendore Avenue","lat":53.297946,"lng":-6.286661,"code":"5132"},"8230DB005138":{"name":"Esker Lodge","lat":53.351676,"lng":-6.434393,"code":"5138"},"8230DB005164":{"name":"Fforster Green","lat":53.350377,"lng":-6.423114,"code":"5164"},"8230DB006001":{"name":"Kingswood Ave","lat":53.294477,"lng":-6.419399,"code":"6001"},"8230DB006022":{"name":"Kingswood Avenue","lat":53.295165,"lng":-6.418443,"code":"6022"},"8230DB006075":{"name":"Whitebrook","lat":53.283229,"lng":-6.390943,"code":"6075"},"8230DB006095":{"name":"Glenshane","lat":53.286762,"lng":-6.39633,"code":"6095"},"8230DB006119":{"name":"Keeloges","lat":53.311299,"lng":-6.490632,"code":"6119"},"8230DB006128":{"name":"Ballycullen Avenue","lat":53.283102,"lng":-6.340976,"code":"6128"},"8230DB006133":{"name":"Laraghcon","lat":53.360769,"lng":-6.452149,"code":"6133"},"8230DB006134":{"name":"Laraghcon","lat":53.360826,"lng":-6.451666,"code":"6134"},"8230DB006187":{"name":"Ballynakelly","lat":53.295089,"lng":-6.488833,"code":"6187"},"8230DB006188":{"name":"Tay Lane","lat":53.293683,"lng":-6.478652,"code":"6188"},"8230DB006216":{"name":"Tay Lane","lat":53.294,"lng":-6.48194,"code":"6216"},"8230DB006289":{"name":"Adamstown Station","lat":53.33628,"lng":-6.46891,"code":"6289"},"8230DB006290":{"name":"Adamstown Station","lat":53.33641,"lng":-6.46999,"code":"6290"},"8230DB007015":{"name":"Lynche's Lane","lat":53.330687,"lng":-6.431483,"code":"7015"},"8230DB007016":{"name":"Lynche's Lane","lat":53.330753,"lng":-6.431766,"code":"7016"},"8230DB007062":{"name":"Tallaght L Centre","lat":53.28481,"lng":-6.393494,"code":"7062"},"8230DB007067":{"name":"Whitechurch Way","lat":53.277834,"lng":-6.288755,"code":"7067"},"8230DB007142":{"name":"Foxborough Rise","lat":53.339873,"lng":-6.428803,"code":"7142"},"8230DB007165":{"name":"Robin Villas","lat":53.357217,"lng":-6.374291,"code":"7165"},"8230DB007168":{"name":"Newcastle Road","lat":53.345215,"lng":-6.451721,"code":"7168"},"8230DB007186":{"name":"Lucan Spa Hotel","lat":53.356795,"lng":-6.465258,"code":"7186"},"8230DB007193":{"name":"Tandy's Lane","lat":53.353999,"lng":-6.458914,"code":"7193"},"8230DB007432":{"name":"Millrace Wk","lat":53.281876,"lng":-6.450248,"code":"7432"},"8230DB007440":{"name":"An Post Edmonstown","lat":53.27613,"lng":-6.297205,"code":"7440"},"8230DB007441":{"name":"The Merry Ploughboy","lat":53.264373,"lng":-6.297163,"code":"7441"},"8230DB007443":{"name":"Templeroan Estate","lat":53.281464,"lng":-6.306952,"code":"7443"},"8230DB007444":{"name":"The Glen","lat":53.282387,"lng":-6.299131,"code":"7444"},"8230DB007446":{"name":"Templeroan Estate","lat":53.281178,"lng":-6.307068,"code":"7446"},"8230DB007447":{"name":"Grange Golf Club","lat":53.281589,"lng":-6.281122,"code":"7447"},"8230DB007448":{"name":"Grange Golf Club","lat":53.281737,"lng":-6.281415,"code":"7448"},"8230DB007449":{"name":"Ballyboden Crescent","lat":53.281817,"lng":-6.29578,"code":"7449"},"8230DB007459":{"name":"Citywest Rd N","lat":53.290842,"lng":-6.427288,"code":"7459"},"8230DB007460":{"name":"Citywest SC","lat":53.282632,"lng":-6.421531,"code":"7460"},"8230DB007510":{"name":"Coldcut Cres","lat":53.347196,"lng":-6.384513,"code":"7510"},"8230DB007563":{"name":"Weston Hockey Club","lat":53.34557,"lng":-6.451393,"code":"7563"},"8230DB007749":{"name":"Dodsborough Road","lat":53.350599,"lng":-6.464249,"code":"7749"},"8230DB007751":{"name":"Esker Glebe","lat":53.350698,"lng":-6.438679,"code":"7751"},"8230DB007752":{"name":"Esker Park","lat":53.352401,"lng":-6.430806,"code":"7752"},"8230DB007754":{"name":"Clayton Hotel","lat":53.353797,"lng":-6.401191,"code":"7754"},"8230DB007760":{"name":"Glen Vale","lat":53.344727,"lng":-6.426101,"code":"7760"},"8230DB007761":{"name":"Glen Vale","lat":53.344258,"lng":-6.426704,"code":"7761"},"8230DB007768":{"name":"Larkfield","lat":53.354451,"lng":-6.417916,"code":"7768"},"8230DB007769":{"name":"Larkfield","lat":53.354439,"lng":-6.418367,"code":"7769"},"8230DB007772":{"name":"Liffey Avenue","lat":53.35376,"lng":-6.413225,"code":"7772"},"8230DB007773":{"name":"Liffey Avenue","lat":53.353687,"lng":-6.413122,"code":"7773"},"8230DB007774":{"name":"Lucan Garda Station","lat":53.356306,"lng":-6.451034,"code":"7774"},"8230DB007775":{"name":"Lucan Main Street","lat":53.355986,"lng":-6.449888,"code":"7775"},"8230DB007792":{"name":"Saint Lomans Road","lat":53.354003,"lng":-6.407898,"code":"7792"},"8230DB007793":{"name":"Saint Lomans Road","lat":53.353856,"lng":-6.407618,"code":"7793"},"8230DB007800":{"name":"The Paddocks Drive","lat":53.347621,"lng":-6.465467,"code":"7800"},"8230DB007801":{"name":"The Paddocks Drive","lat":53.349024,"lng":-6.464816,"code":"7801"},"8230DB007806":{"name":"St Andrews Drive","lat":53.354556,"lng":-6.423125,"code":"7806"},"8230DB007807":{"name":"St Andrews Drive","lat":53.354468,"lng":-6.422603,"code":"7807"},"8230DB007808":{"name":"Willsbrook Park","lat":53.352967,"lng":-6.427375,"code":"7808"},"8230DB007809":{"name":"Willsbrook Park","lat":53.352742,"lng":-6.427308,"code":"7809"},"8230DB007810":{"name":"Woodview Heights","lat":53.351743,"lng":-6.463081,"code":"7810"},"8230DB007875":{"name":"M Collins Pk","lat":53.327183,"lng":-6.3951,"code":"7875"},"8230DB007878":{"name":"Cappaghmore","lat":53.331074,"lng":-6.399068,"code":"7878"},"8230DB007879":{"name":"Cappaghmore","lat":53.331195,"lng":-6.399408,"code":"7879"},"8230DB007880":{"name":"Main Street","lat":53.320686,"lng":-6.393182,"code":"7880"},"8230DB007881":{"name":"Liffey Valley S","lat":53.349318,"lng":-6.390964,"code":"7881"},"8230DB007884":{"name":"Liffey Valley SC","lat":53.354078,"lng":-6.392001,"code":"7884"},"8230DB007892":{"name":"Adamstown Boulevard","lat":53.338678,"lng":-6.469648,"code":"7892"},"8230DB007898":{"name":"Adamstown Avenue","lat":53.338209,"lng":-6.468824,"code":"7898"},"8230DB007909":{"name":"The Glen","lat":53.282276,"lng":-6.298926,"code":"7909"},"8230DB007940":{"name":"Liffey Valley S","lat":53.349653,"lng":-6.391146,"code":"7940"},"8230DB007960":{"name":"Old Bawn Trce","lat":53.27963,"lng":-6.358297,"code":"7960"},"8230DB007961":{"name":"Firhouse Road","lat":53.280508,"lng":-6.345096,"code":"7961"},"8230DB007966":{"name":"Rathfarnham SC","lat":53.295417,"lng":-6.298359,"code":"7966"},"8230DB007967":{"name":"Citywest SC","lat":53.282747,"lng":-6.421421,"code":"7967"},"8230DB007968":{"name":"Ballyboden St Endas","lat":53.282668,"lng":-6.301835,"code":"7968"},"8230DB007974":{"name":"Ballyboden St Endas","lat":53.28257,"lng":-6.30184,"code":"7974"},"8230DB007976":{"name":"Liffey Valley W","lat":53.352713,"lng":-6.396079,"code":"7976"},"8230DB007979":{"name":"Newlands Golf Club","lat":53.31108,"lng":-6.38941,"code":"7979"},"8230DB007986":{"name":"St. Helen's","lat":53.342316,"lng":-6.468737,"code":"7986"},"8230DB007987":{"name":"St. Helen's","lat":53.342169,"lng":-6.468547,"code":"7987"},"8230DB007988":{"name":"Shackleton Point","lat":53.344375,"lng":-6.466725,"code":"7988"},"8230DB007989":{"name":"Shackleton Point","lat":53.344255,"lng":-6.466489,"code":"7989"},"8230DB007990":{"name":"Tandy's Lane","lat":53.34651,"lng":-6.465702,"code":"7990"},"8230DB008029":{"name":"Liffey Valley SC","lat":53.354429,"lng":-6.392694,"code":"8029"},"8230DB008030":{"name":"The Square","lat":53.285613,"lng":-6.372555,"code":"8030"},"8230DB008031":{"name":"The Square","lat":53.285748,"lng":-6.372595,"code":"8031"},"8230DB008059":{"name":"Liffey Valley SC","lat":53.354272,"lng":-6.392415,"code":"8059"},"8230DB008062":{"name":"Liffey Valley SC","lat":53.354538,"lng":-6.392795,"code":"8062"},"8230DB008063":{"name":"The Square","lat":53.285821,"lng":-6.372608,"code":"8063"},"8230DB008064":{"name":"Cheeverstown Luas","lat":53.291036,"lng":-6.40736,"code":"8064"},"8230DB008065":{"name":"Kingswood Road","lat":53.294334,"lng":-6.416074,"code":"8065"},"8230DB008066":{"name":"Green Isle Road","lat":53.304007,"lng":-6.421687,"code":"8066"},"8230DB008067":{"name":"Kingswood BP","lat":53.306897,"lng":-6.424747,"code":"8067"},"8230DB008068":{"name":"Nangor","lat":53.318877,"lng":-6.430865,"code":"8068"},"8230DB008070":{"name":"Kishoge Stn","lat":53.33451,"lng":-6.4309,"code":"8070"},"8230DB008071":{"name":"Griffeen Avenue","lat":53.341081,"lng":-6.428413,"code":"8071"},"8230DB008072":{"name":"Kishoge Stn","lat":53.33439,"lng":-6.43065,"code":"8072"},"8230DB008074":{"name":"Nangor","lat":53.318912,"lng":-6.431434,"code":"8074"},"8230DB008075":{"name":"Kingswood BP","lat":53.307136,"lng":-6.424453,"code":"8075"},"8230DB008076":{"name":"Green Isle Road","lat":53.304156,"lng":-6.421397,"code":"8076"},"8230DB008077":{"name":"Kingswood Road","lat":53.29403,"lng":-6.41559,"code":"8077"},"8230DB008086":{"name":"Greenogue IE","lat":53.290503,"lng":-6.468205,"code":"8086"},"8230DB008087":{"name":"Greenogue Rdbt","lat":53.291954,"lng":-6.472053,"code":"8087"},"8230DB008088":{"name":"Main Street","lat":53.299629,"lng":-6.499565,"code":"8088"},"8230DB008090":{"name":"Greenogue Rdbt","lat":53.291885,"lng":-6.471606,"code":"8090"},"8230DB008091":{"name":"Greenogue IE","lat":53.289635,"lng":-6.466406,"code":"8091"},"8230DB008512":{"name":"Castle Riada Drive","lat":53.346246,"lng":-6.425524,"code":"8512"},"8230DB07755":{"name":"Clayton Hotel","lat":53.353546,"lng":-6.40123,"code":"7755"},"8230GD10105":{"name":"Scholarstown Park","lat":53.279251,"lng":-6.309963,"code":"10105"},"8230GD10109":{"name":"Brookview","lat":53.285699,"lng":-6.410199,"code":"10109"},"8230GD10110":{"name":"Stone Masons Court","lat":53.284429,"lng":-6.420189,"code":"10110"},"8230GD10150":{"name":"Mac Uilliam","lat":53.285323,"lng":-6.417757,"code":"10150"},"8230GD10151":{"name":"Brookview","lat":53.285801,"lng":-6.409805,"code":"10151"},"8230GD10154":{"name":"Scholarstown Park","lat":53.279378,"lng":-6.310033,"code":"10154"},"8230GD10335":{"name":"Rokeby Park","lat":53.36375,"lng":-6.455361,"code":"10335"},"8230GD10385":{"name":"Rathcoole","lat":53.28417,"lng":-6.46342,"code":"104301"},"8240DB000124":{"name":"Virgin Mary Church","lat":53.394892,"lng":-6.260589,"code":"124"},"8240DB000219":{"name":"Shantalla Ave","lat":53.387828,"lng":-6.238536,"code":"219"},"8240DB000221":{"name":"Shanowen Road","lat":53.389721,"lng":-6.246892,"code":"221"},"8240DB000222":{"name":"Shanliss Road","lat":53.389945,"lng":-6.249304,"code":"222"},"8240DB000223":{"name":"Shanliss Drive","lat":53.391062,"lng":-6.251919,"code":"223"},"8240DB000224":{"name":"Shanard Road","lat":53.390835,"lng":-6.254184,"code":"224"},"8240DB000225":{"name":"Shanowen Avenue","lat":53.390667,"lng":-6.257439,"code":"225"},"8240DB000226":{"name":"Shanard Avenue","lat":53.391141,"lng":-6.2622,"code":"226"},"8240DB000227":{"name":"Shanliss Drive","lat":53.391144,"lng":-6.251345,"code":"227"},"8240DB000229":{"name":"Oldtown Road","lat":53.391399,"lng":-6.256536,"code":"229"},"8240DB000230":{"name":"Shanowen Road","lat":53.389888,"lng":-6.249066,"code":"230"},"8240DB000231":{"name":"Santry Village","lat":53.38924,"lng":-6.24595,"code":"231"},"8240DB000232":{"name":"Shantalla Ave","lat":53.387984,"lng":-6.236981,"code":"232"},"8240DB000661":{"name":"Westend Office Park","lat":53.392422,"lng":-6.383489,"code":"661"},"8240DB000679":{"name":"Santa Sabina","lat":53.38646,"lng":-6.102983,"code":"679"},"8240DB000685":{"name":"Sutton Park School","lat":53.37541,"lng":-6.094846,"code":"685"},"8240DB000693":{"name":"St Fintan's Church","lat":53.386893,"lng":-6.104166,"code":"693"},"8240DB000733":{"name":"Forest View","lat":53.449433,"lng":-6.240474,"code":"733"},"8240DB000788":{"name":"Ridgewood","lat":53.445854,"lng":-6.240968,"code":"788"},"8240DB000815":{"name":"Forrest Little","lat":53.439938,"lng":-6.250019,"code":"815"},"8240DB000905":{"name":"Yellow Walls Rd","lat":53.451562,"lng":-6.17037,"code":"905"},"8240DB000913":{"name":"Baldoyle Village","lat":53.396855,"lng":-6.126566,"code":"913"},"8240DB000914":{"name":"Baldoyle Ch","lat":53.398757,"lng":-6.127505,"code":"914"},"8240DB000928":{"name":"Baldoyle Village","lat":53.397802,"lng":-6.12678,"code":"928"},"8240DB000935":{"name":"Burrowfield Rd","lat":53.393269,"lng":-6.120348,"code":"935"},"8240DB000936":{"name":"Strand Road","lat":53.394218,"lng":-6.122381,"code":"936"},"8240DB000938":{"name":"Baldoyle Estury","lat":53.401543,"lng":-6.130361,"code":"938"},"8240DB000940":{"name":"Coast Road","lat":53.406555,"lng":-6.134728,"code":"940"},"8240DB000941":{"name":"Mayne Br","lat":53.410076,"lng":-6.136891,"code":"941"},"8240DB000942":{"name":"Saint Rita's House","lat":53.415038,"lng":-6.138645,"code":"942"},"8240DB000943":{"name":"Portmarnock Br","lat":53.418248,"lng":-6.142176,"code":"943"},"8240DB000944":{"name":"Portmarnock Br","lat":53.417242,"lng":-6.142235,"code":"944"},"8240DB000945":{"name":"Saint Rita's House","lat":53.41531,"lng":-6.138768,"code":"945"},"8240DB000947":{"name":"Mayne Br","lat":53.409186,"lng":-6.136328,"code":"947"},"8240DB000948":{"name":"Coast Road","lat":53.406143,"lng":-6.13428,"code":"948"},"8240DB000949":{"name":"Baldoyle Estury","lat":53.403172,"lng":-6.131613,"code":"949"},"8240DB000950":{"name":"Baldoyle Ch","lat":53.399646,"lng":-6.128038,"code":"950"},"8240DB000951":{"name":"Baldoyle Slipway","lat":53.395843,"lng":-6.12452,"code":"951"},"8240DB000952":{"name":"Strand Road","lat":53.394066,"lng":-6.121817,"code":"952"},"8240DB000953":{"name":"Burrowfield Rd","lat":53.393218,"lng":-6.119959,"code":"953"},"8240DB000957":{"name":"Howth Junction","lat":53.390321,"lng":-6.157812,"code":"957"},"8240DB000973":{"name":"Coolock Lane","lat":53.398226,"lng":-6.242723,"code":"973"},"8240DB000974":{"name":"Santry Avenue","lat":53.397859,"lng":-6.247159,"code":"974"},"8240DB000975":{"name":"Shanliss Way","lat":53.39928,"lng":-6.25268,"code":"975"},"8240DB000976":{"name":"Geraldstown Wood","lat":53.400957,"lng":-6.262898,"code":"976"},"8240DB000989":{"name":"Santry Avenue","lat":53.401042,"lng":-6.262594,"code":"989"},"8240DB000990":{"name":"Shanliss Way","lat":53.398891,"lng":-6.250711,"code":"990"},"8240DB000992":{"name":"Coolock Lane","lat":53.398158,"lng":-6.241207,"code":"992"},"8240DB001010":{"name":"Saint Donagh's Park","lat":53.39059,"lng":-6.158341,"code":"1010"},"8240DB001039":{"name":"Seamount Vw","lat":53.453539,"lng":-6.20531,"code":"1039"},"8240DB001040":{"name":"Ashley Drive","lat":53.454036,"lng":-6.212065,"code":"1040"},"8240DB001041":{"name":"Ashley Drive","lat":53.454058,"lng":-6.211763,"code":"1041"},"8240DB001050":{"name":"Seamount Vw","lat":53.453669,"lng":-6.206208,"code":"1050"},"8240DB001073":{"name":"Chamley Park","lat":53.450693,"lng":-6.187045,"code":"1073"},"8240DB001206":{"name":"Balgriffin Ctgs","lat":53.408106,"lng":-6.178102,"code":"1206"},"8240DB001207":{"name":"Fingal Cemetery","lat":53.410726,"lng":-6.179013,"code":"1207"},"8240DB001208":{"name":"St Doulagh's Church","lat":53.414298,"lng":-6.17868,"code":"1208"},"8240DB001209":{"name":"Bohammer","lat":53.416957,"lng":-6.177979,"code":"1209"},"8240DB001210":{"name":"Posie Row","lat":53.419033,"lng":-6.177364,"code":"1210"},"8240DB001211":{"name":"Kinsealy School","lat":53.421295,"lng":-6.176605,"code":"1211"},"8240DB001212":{"name":"Kinsealy School","lat":53.42055,"lng":-6.17665,"code":"1212"},"8240DB001213":{"name":"Bohammer","lat":53.41753,"lng":-6.1776,"code":"1213"},"8240DB001214":{"name":"St Doulagh's Church","lat":53.415313,"lng":-6.17805,"code":"1214"},"8240DB001215":{"name":"Lime Hill House","lat":53.413394,"lng":-6.178944,"code":"1215"},"8240DB001216":{"name":"Fingal Cemetery","lat":53.41033,"lng":-6.17859,"code":"1216"},"8240DB001217":{"name":"Balgriffin Ctgs","lat":53.408202,"lng":-6.177947,"code":"1217"},"8240DB001545":{"name":"Westend Office Park","lat":53.392757,"lng":-6.384289,"code":"1545"},"8240DB001546":{"name":"Tyrrelstown","lat":53.419345,"lng":-6.382498,"code":"1546"},"8240DB001580":{"name":"Cappagh Cross","lat":53.397903,"lng":-6.334333,"code":"1580"},"8240DB001581":{"name":"Cappagh Cross","lat":53.398068,"lng":-6.333906,"code":"1581"},"8240DB001645":{"name":"Collins Avenue Ext","lat":53.389091,"lng":-6.264013,"code":"1645"},"8240DB001813":{"name":"Blanchardstown Vlge","lat":53.38568,"lng":-6.374108,"code":"1813"},"8240DB001814":{"name":"Ramor Park","lat":53.387562,"lng":-6.378998,"code":"1814"},"8240DB001816":{"name":"Waterville Row","lat":53.39309,"lng":-6.378382,"code":"1816"},"8240DB001817":{"name":"Corduff Crescent","lat":53.396053,"lng":-6.374856,"code":"1817"},"8240DB001818":{"name":"Aquatic Centre","lat":53.397563,"lng":-6.372257,"code":"1818"},"8240DB001819":{"name":"Corduff","lat":53.399633,"lng":-6.374403,"code":"1819"},"8240DB001820":{"name":"Corduff Grove","lat":53.401081,"lng":-6.375115,"code":"1820"},"8240DB001824":{"name":"Saddlers Avenue","lat":53.400796,"lng":-6.39391,"code":"1824"},"8240DB001825":{"name":"Church Road","lat":53.401765,"lng":-6.395813,"code":"1825"},"8240DB001826":{"name":"Lady's Well Road","lat":53.405908,"lng":-6.395086,"code":"1826"},"8240DB001827":{"name":"Parslickstown Ave","lat":53.407042,"lng":-6.398563,"code":"1827"},"8240DB001828":{"name":"Lady's Well Road","lat":53.407026,"lng":-6.398007,"code":"1828"},"8240DB001829":{"name":"Parslickstown Ave","lat":53.406199,"lng":-6.395346,"code":"1829"},"8240DB001830":{"name":"Church Road","lat":53.402206,"lng":-6.396489,"code":"1830"},"8240DB001831":{"name":"Coolmine Cottages","lat":53.400701,"lng":-6.393582,"code":"1831"},"8240DB001835":{"name":"Corduff","lat":53.400012,"lng":-6.375201,"code":"1835"},"8240DB001836":{"name":"Aquatic Centre","lat":53.398012,"lng":-6.371533,"code":"1836"},"8240DB001837":{"name":"Corduff Crescent","lat":53.395841,"lng":-6.375134,"code":"1837"},"8240DB001838":{"name":"Waterville Road","lat":53.396011,"lng":-6.37376,"code":"1838"},"8240DB001840":{"name":"Blanchardstown Vlge","lat":53.387961,"lng":-6.379283,"code":"1840"},"8240DB001841":{"name":"Church Road","lat":53.386121,"lng":-6.37552,"code":"1841"},"8240DB001842":{"name":"Old Navan Road","lat":53.384968,"lng":-6.371339,"code":"1842"},"8240DB001844":{"name":"Coolmine Fire Stn","lat":53.385411,"lng":-6.396113,"code":"1844"},"8240DB001850":{"name":"Whitestown Park","lat":53.397748,"lng":-6.399167,"code":"1850"},"8240DB001852":{"name":"Clonsilla Road","lat":53.387406,"lng":-6.383439,"code":"1852"},"8240DB001853":{"name":"Coolmine Woods","lat":53.384628,"lng":-6.38864,"code":"1853"},"8240DB001854":{"name":"Orchard Court","lat":53.383584,"lng":-6.391942,"code":"1854"},"8240DB001856":{"name":"Mountview Road","lat":53.390348,"lng":-6.402332,"code":"1856"},"8240DB001857":{"name":"Mountview Church","lat":53.391122,"lng":-6.407791,"code":"1857"},"8240DB001858":{"name":"Hartstown Road","lat":53.390882,"lng":-6.410657,"code":"1858"},"8240DB001859":{"name":"Willow Wood","lat":53.391036,"lng":-6.415492,"code":"1859"},"8240DB001860":{"name":"St Ciaran's Church","lat":53.393299,"lng":-6.418761,"code":"1860"},"8240DB001861":{"name":"Hartstown Comm Sch","lat":53.39675,"lng":-6.416663,"code":"1861"},"8240DB001862":{"name":"Pinebrook Vale","lat":53.398616,"lng":-6.415075,"code":"1862"},"8240DB001863":{"name":"Huntstown Green","lat":53.400615,"lng":-6.413347,"code":"1863"},"8240DB001864":{"name":"Sacred Heart Church","lat":53.401816,"lng":-6.410369,"code":"1864"},"8240DB001865":{"name":"Ashfield Gardens","lat":53.401045,"lng":-6.406443,"code":"1865"},"8240DB001866":{"name":"Ashfield Park","lat":53.3999,"lng":-6.402816,"code":"1866"},"8240DB001867":{"name":"Whitestown","lat":53.395808,"lng":-6.399962,"code":"1867"},"8240DB001869":{"name":"Sheepmoor Avenue","lat":53.396248,"lng":-6.399976,"code":"1869"},"8240DB001870":{"name":"Scoil Mhuire NS","lat":53.398057,"lng":-6.399412,"code":"1870"},"8240DB001871":{"name":"Huntstown Way","lat":53.39965,"lng":-6.402284,"code":"1871"},"8240DB001872":{"name":"Huntstown Road","lat":53.400779,"lng":-6.406107,"code":"1872"},"8240DB001873":{"name":"Sacred Heart Church","lat":53.401706,"lng":-6.410223,"code":"1873"},"8240DB001874":{"name":"Huntstown Court","lat":53.400232,"lng":-6.413571,"code":"1874"},"8240DB001875":{"name":"Pinebrook Vale","lat":53.398267,"lng":-6.415163,"code":"1875"},"8240DB001876":{"name":"Hartstown Comm Sch","lat":53.396436,"lng":-6.416735,"code":"1876"},"8240DB001877":{"name":"St Ciaran's Church","lat":53.393422,"lng":-6.418531,"code":"1877"},"8240DB001878":{"name":"Oakview","lat":53.39118,"lng":-6.415562,"code":"1878"},"8240DB001879":{"name":"Blakestown Cross","lat":53.391173,"lng":-6.409578,"code":"1879"},"8240DB001880":{"name":"Mount View Road","lat":53.391225,"lng":-6.407456,"code":"1880"},"8240DB001881":{"name":"Fortlawn Drive","lat":53.390524,"lng":-6.402716,"code":"1881"},"8240DB001882":{"name":"Millennium Park","lat":53.392773,"lng":-6.398813,"code":"1882"},"8240DB001883":{"name":"Scoil Oilibheir","lat":53.385745,"lng":-6.398205,"code":"1883"},"8240DB001884":{"name":"Porters Road","lat":53.385535,"lng":-6.395957,"code":"1884"},"8240DB001887":{"name":"Castlefield Woods","lat":53.382997,"lng":-6.410454,"code":"1887"},"8240DB001888":{"name":"Lambourn","lat":53.383173,"lng":-6.412252,"code":"1888"},"8240DB001889":{"name":"Castlefield Court","lat":53.383417,"lng":-6.417038,"code":"1889"},"8240DB001890":{"name":"Clonsilla Station","lat":53.383537,"lng":-6.422024,"code":"1890"},"8240DB001895":{"name":"Clonsilla Road","lat":53.383526,"lng":-6.417154,"code":"1895"},"8240DB001896":{"name":"Lambourn","lat":53.383356,"lng":-6.413793,"code":"1896"},"8240DB001897":{"name":"Castlefield Woods","lat":53.383112,"lng":-6.410345,"code":"1897"},"8240DB001902":{"name":"Orchard Court","lat":53.383537,"lng":-6.39244,"code":"1902"},"8240DB001903":{"name":"Broadway Road","lat":53.38525,"lng":-6.387474,"code":"1903"},"8240DB001904":{"name":"Springlawn","lat":53.387842,"lng":-6.383062,"code":"1904"},"8240DB001912":{"name":"Clonsilla Station","lat":53.38367,"lng":-6.420546,"code":"1912"},"8240DB002289":{"name":"Blackcourt Road","lat":53.401123,"lng":-6.374918,"code":"2289"},"8240DB002290":{"name":"Waterville Terrace","lat":53.391874,"lng":-6.372218,"code":"2290"},"8240DB002294":{"name":"Mill Road","lat":53.390087,"lng":-6.370347,"code":"2294"},"8240DB002338":{"name":"Waterville Row","lat":53.393085,"lng":-6.377991,"code":"2338"},"8240DB002468":{"name":"Blanchardstown Rd N","lat":53.40436,"lng":-6.373065,"code":"2468"},"8240DB002510":{"name":"Rosemount Park","lat":53.402188,"lng":-6.355582,"code":"2510"},"8240DB002960":{"name":"Retail Park","lat":53.394323,"lng":-6.388485,"code":"2960"},"8240DB003078":{"name":"Forrest Little","lat":53.440265,"lng":-6.249644,"code":"3078"},"8240DB003087":{"name":"Ridgewood","lat":53.446198,"lng":-6.240472,"code":"3087"},"8240DB003088":{"name":"River Vlly Heights","lat":53.452727,"lng":-6.2371,"code":"3088"},"8240DB003089":{"name":"Cherry Avenue","lat":53.448965,"lng":-6.239786,"code":"3089"},"8240DB003090":{"name":"Forest View","lat":53.449584,"lng":-6.241537,"code":"3090"},"8240DB003340":{"name":"Littlepace","lat":53.408668,"lng":-6.428946,"code":"3340"},"8240DB003565":{"name":"Rush Road","lat":53.566759,"lng":-6.102183,"code":"3565"},"8240DB003566":{"name":"Selskar Court","lat":53.578068,"lng":-6.12507,"code":"3566"},"8240DB003567":{"name":"Skerries Station","lat":53.576279,"lng":-6.11994,"code":"3567"},"8240DB003569":{"name":"Selskar Road","lat":53.576527,"lng":-6.121439,"code":"3569"},"8240DB003571":{"name":"Selskar Court","lat":53.578145,"lng":-6.125399,"code":"3571"},"8240DB003572":{"name":"Highfield Grn","lat":53.454327,"lng":-6.224385,"code":"3572"},"8240DB003573":{"name":"Kinsealy","lat":53.426077,"lng":-6.176581,"code":"3573"},"8240DB003575":{"name":"Kinsealy","lat":53.424322,"lng":-6.176461,"code":"3575"},"8240DB003576":{"name":"Abbeyville","lat":53.429315,"lng":-6.177947,"code":"3576"},"8240DB003577":{"name":"Myra Manor","lat":53.43216,"lng":-6.177043,"code":"3577"},"8240DB003578":{"name":"Streamstown Lane","lat":53.437814,"lng":-6.177087,"code":"3578"},"8240DB003579":{"name":"Auburn House","lat":53.44067,"lng":-6.176378,"code":"3579"},"8240DB003580":{"name":"Mabestown","lat":53.443256,"lng":-6.173858,"code":"3580"},"8240DB003583":{"name":"St Sylvester's Sch","lat":53.449348,"lng":-6.163163,"code":"3583"},"8240DB003584":{"name":"Hanlon's Lane","lat":53.449855,"lng":-6.159873,"code":"3584"},"8240DB003585":{"name":"Malahide Stn","lat":53.450633,"lng":-6.154991,"code":"3585"},"8240DB003586":{"name":"Malahide Village","lat":53.451006,"lng":-6.150392,"code":"3586"},"8240DB003587":{"name":"The Old Golf Lnks","lat":53.451127,"lng":-6.145107,"code":"3587"},"8240DB003588":{"name":"Seapark","lat":53.449909,"lng":-6.140749,"code":"3588"},"8240DB003589":{"name":"Biscayne Estate","lat":53.446084,"lng":-6.132349,"code":"3589"},"8240DB003590":{"name":"Malahide Beach","lat":53.448759,"lng":-6.137351,"code":"3590"},"8240DB003591":{"name":"Robswall Crescent","lat":53.444634,"lng":-6.127565,"code":"3591"},"8240DB003592":{"name":"Monks Meadow","lat":53.437879,"lng":-6.122714,"code":"3592"},"8240DB003593":{"name":"The Velvet Strand","lat":53.432687,"lng":-6.124584,"code":"3593"},"8240DB003594":{"name":"Burrow Court","lat":53.429698,"lng":-6.127184,"code":"3594"},"8240DB003595":{"name":"Blackberry Lane","lat":53.427408,"lng":-6.129602,"code":"3595"},"8240DB003596":{"name":"Blackberry Rise","lat":53.425833,"lng":-6.131206,"code":"3596"},"8240DB003597":{"name":"The Dunes","lat":53.423985,"lng":-6.133153,"code":"3597"},"8240DB003598":{"name":"Portmarnock Village","lat":53.421739,"lng":-6.136095,"code":"3598"},"8240DB003599":{"name":"Portmarnock Village","lat":53.421646,"lng":-6.136475,"code":"3599"},"8240DB003600":{"name":"The Dunes","lat":53.423519,"lng":-6.133805,"code":"3600"},"8240DB003601":{"name":"Blackberry Rise","lat":53.426102,"lng":-6.131119,"code":"3601"},"8240DB003602":{"name":"Blackberry Lane","lat":53.428383,"lng":-6.128716,"code":"3602"},"8240DB003604":{"name":"The Velvet Strand","lat":53.432429,"lng":-6.124806,"code":"3604"},"8240DB003605":{"name":"Heather Walk","lat":53.433968,"lng":-6.124919,"code":"3605"},"8240DB003606":{"name":"Wendell Avenue","lat":53.434929,"lng":-6.130039,"code":"3606"},"8240DB003607":{"name":"Redfern Ave","lat":53.434901,"lng":-6.136287,"code":"3607"},"8240DB003608":{"name":"Hillcourt","lat":53.431086,"lng":-6.134286,"code":"3608"},"8240DB003609":{"name":"Carrickhill Rd Lwr","lat":53.426085,"lng":-6.134084,"code":"3609"},"8240DB003610":{"name":"Carrickhill Rd Lwr","lat":53.425748,"lng":-6.134355,"code":"3610"},"8240DB003611":{"name":"Ardilaun","lat":53.428846,"lng":-6.133632,"code":"3611"},"8240DB003612":{"name":"Community School","lat":53.433369,"lng":-6.136595,"code":"3612"},"8240DB003613":{"name":"Redfern Ave","lat":53.4351,"lng":-6.134622,"code":"3613"},"8240DB003615":{"name":"Wendell Avenue","lat":53.435313,"lng":-6.131603,"code":"3615"},"8240DB003616":{"name":"White Sands Hotel","lat":53.434276,"lng":-6.123927,"code":"3616"},"8240DB003618":{"name":"Monks Meadow","lat":53.438694,"lng":-6.123085,"code":"3618"},"8240DB003619":{"name":"Robswall","lat":53.444704,"lng":-6.128059,"code":"3619"},"8240DB003620":{"name":"Biscayne Estate","lat":53.446472,"lng":-6.134214,"code":"3620"},"8240DB003621":{"name":"Malahide Beach","lat":53.448266,"lng":-6.136338,"code":"3621"},"8240DB003622":{"name":"Seapark","lat":53.449464,"lng":-6.13991,"code":"3622"},"8240DB003623":{"name":"The Old Golf Lnks","lat":53.450657,"lng":-6.143743,"code":"3623"},"8240DB003634":{"name":"Malahide Stn","lat":53.450455,"lng":-6.155119,"code":"3634"},"8240DB003635":{"name":"Hanlon's Lane","lat":53.44964,"lng":-6.16053,"code":"3635"},"8240DB003636":{"name":"St Sylvester's Sch","lat":53.449422,"lng":-6.162166,"code":"3636"},"8240DB003639":{"name":"Malahide Demesne","lat":53.445411,"lng":-6.173103,"code":"3639"},"8240DB003641":{"name":"Estuary Road","lat":53.452725,"lng":-6.183586,"code":"3641"},"8240DB003642":{"name":"Seabury","lat":53.455126,"lng":-6.1813,"code":"3642"},"8240DB003643":{"name":"Yellow Walls Rd","lat":53.451238,"lng":-6.169179,"code":"3643"},"8240DB003644":{"name":"Mabestown","lat":53.443012,"lng":-6.173763,"code":"3644"},"8240DB003645":{"name":"Auburn House","lat":53.440534,"lng":-6.176308,"code":"3645"},"8240DB003646":{"name":"Streamstown Lane","lat":53.439116,"lng":-6.177001,"code":"3646"},"8240DB003647":{"name":"Myra Manor","lat":53.432713,"lng":-6.176763,"code":"3647"},"8240DB003653":{"name":"Feltrim Business Pk","lat":53.448718,"lng":-6.204474,"code":"3653"},"8240DB003656":{"name":"Feltrim Business Pk","lat":53.448528,"lng":-6.204422,"code":"3656"},"8240DB003661":{"name":"Abbeyville","lat":53.429134,"lng":-6.17785,"code":"3661"},"8240DB003662":{"name":"Baskin Lane","lat":53.42324,"lng":-6.17619,"code":"3662"},"8240DB003663":{"name":"Corballis Pk","lat":53.424598,"lng":-6.234894,"code":"3663"},"8240DB003664":{"name":"Hampton Cove","lat":53.603399,"lng":-6.168225,"code":"3664"},"8240DB003669":{"name":"Aircraft Hangars","lat":53.428466,"lng":-6.23508,"code":"3669"},"8240DB003671":{"name":"Airport Rnbt","lat":53.4294,"lng":-6.230165,"code":"3671"},"8240DB003672":{"name":"Stockhole Ln","lat":53.432176,"lng":-6.23008,"code":"3672"},"8240DB003674":{"name":"Equestrian Centre","lat":53.44105,"lng":-6.227889,"code":"3674"},"8240DB003675":{"name":"N1 Business Park","lat":53.44334,"lng":-6.228336,"code":"3675"},"8240DB003676":{"name":"Airside","lat":53.446782,"lng":-6.228358,"code":"3676"},"8240DB003677":{"name":"Colaiste Choilm","lat":53.452349,"lng":-6.22492,"code":"3677"},"8240DB003678":{"name":"Swords Village","lat":53.455323,"lng":-6.222431,"code":"3678"},"8240DB003679":{"name":"Swords Castle","lat":53.459082,"lng":-6.220136,"code":"3679"},"8240DB003682":{"name":"Glasmore Pk","lat":53.46202,"lng":-6.23124,"code":"3682"},"8240DB003686":{"name":"Glasmore Pk","lat":53.46191,"lng":-6.23018,"code":"3686"},"8240DB003689":{"name":"Swords Castle","lat":53.458936,"lng":-6.220006,"code":"3689"},"8240DB003690":{"name":"Swords Village","lat":53.456956,"lng":-6.221068,"code":"3690"},"8240DB003691":{"name":"Swords Village","lat":53.455977,"lng":-6.221696,"code":"3691"},"8240DB003692":{"name":"Carlton Court","lat":53.453447,"lng":-6.22382,"code":"3692"},"8240DB003694":{"name":"Pinnock Hill","lat":53.448996,"lng":-6.226731,"code":"3694"},"8240DB003695":{"name":"Airside","lat":53.447056,"lng":-6.228016,"code":"3695"},"8240DB003696":{"name":"N1 Business Park","lat":53.443182,"lng":-6.227996,"code":"3696"},"8240DB003697":{"name":"Equestrian Centre","lat":53.440686,"lng":-6.227558,"code":"3697"},"8240DB003698":{"name":"Kettles Lane","lat":53.436818,"lng":-6.227373,"code":"3698"},"8240DB003699":{"name":"Stockhole Lane","lat":53.435055,"lng":-6.227883,"code":"3699"},"8240DB003701":{"name":"Ballintrane Wd","lat":53.452617,"lng":-6.227227,"code":"3701"},"8240DB003702":{"name":"River Vlly Dr","lat":53.451972,"lng":-6.232253,"code":"3702"},"8240DB003704":{"name":"River Vlly Rd","lat":53.453257,"lng":-6.239533,"code":"3704"},"8240DB003705":{"name":"Brookdale","lat":53.452813,"lng":-6.244159,"code":"3705"},"8240DB003706":{"name":"Forest Crescent","lat":53.451297,"lng":-6.244944,"code":"3706"},"8240DB003707":{"name":"Brookdale","lat":53.452351,"lng":-6.244554,"code":"3707"},"8240DB003708":{"name":"River Vlly Rd","lat":53.453264,"lng":-6.238765,"code":"3708"},"8240DB003709":{"name":"River Vlly Heights","lat":53.452632,"lng":-6.23611,"code":"3709"},"8240DB003710":{"name":"River Vlly Dr","lat":53.452056,"lng":-6.231226,"code":"3710"},"8240DB003711":{"name":"North Street","lat":53.46119,"lng":-6.218692,"code":"3711"},"8240DB003712":{"name":"Seatown West","lat":53.463649,"lng":-6.217219,"code":"3712"},"8240DB003713":{"name":"Balheary Park","lat":53.468689,"lng":-6.213452,"code":"3713"},"8240DB003714":{"name":"Broad Meadow Bridge","lat":53.472219,"lng":-6.210924,"code":"3714"},"8240DB003715":{"name":"Lissenhall Green","lat":53.480003,"lng":-6.203726,"code":"3715"},"8240DB003718":{"name":"Newbridge Demesne","lat":53.480457,"lng":-6.16209,"code":"3718"},"8240DB003719":{"name":"Newbridge House","lat":53.481912,"lng":-6.177261,"code":"3719"},"8240DB003721":{"name":"Donabate","lat":53.487168,"lng":-6.148478,"code":"3721"},"8240DB003722":{"name":"Leisure Centre","lat":53.489793,"lng":-6.142154,"code":"3722"},"8240DB003723":{"name":"Donabate NS","lat":53.492564,"lng":-6.135417,"code":"3723"},"8240DB003724":{"name":"Rahillion","lat":53.49271,"lng":-6.13085,"code":"3724"},"8240DB003725":{"name":"Middlefield Lane","lat":53.493494,"lng":-6.123047,"code":"3725"},"8240DB003726":{"name":"Portrane Avenue","lat":53.493198,"lng":-6.114529,"code":"3726"},"8240DB003728":{"name":"Healy's Lane","lat":53.496021,"lng":-6.113997,"code":"3728"},"8240DB003729":{"name":"Burrow Road","lat":53.497437,"lng":-6.114853,"code":"3729"},"8240DB003730":{"name":"Beach Lane","lat":53.499296,"lng":-6.116474,"code":"3730"},"8240DB003732":{"name":"Marsh Lane","lat":53.5001,"lng":-6.118474,"code":"3732"},"8240DB003733":{"name":"Beach Lane","lat":53.499488,"lng":-6.116677,"code":"3733"},"8240DB003734":{"name":"Burrow Road","lat":53.497174,"lng":-6.114699,"code":"3734"},"8240DB003735":{"name":"Healy's Lane","lat":53.496001,"lng":-6.113862,"code":"3735"},"8240DB003736":{"name":"Portrane","lat":53.49337,"lng":-6.111733,"code":"3736"},"8240DB003738":{"name":"Portane Avenue","lat":53.493167,"lng":-6.114817,"code":"3738"},"8240DB003739":{"name":"St Ita's Hospital","lat":53.489036,"lng":-6.114057,"code":"3739"},"8240DB003740":{"name":"Rahillion","lat":53.49251,"lng":-6.13189,"code":"3740"},"8240DB003741":{"name":"Donabate NS","lat":53.492488,"lng":-6.136279,"code":"3741"},"8240DB003745":{"name":"Newbridge Demesne","lat":53.480218,"lng":-6.163471,"code":"3745"},"8240DB003746":{"name":"Newbridge House","lat":53.482024,"lng":-6.178115,"code":"3746"},"8240DB003748":{"name":"Batter Lane","lat":53.488485,"lng":-6.197023,"code":"3748"},"8240DB003749":{"name":"Broad Meadow Bridge","lat":53.471634,"lng":-6.210828,"code":"3749"},"8240DB003750":{"name":"Balheary Park","lat":53.468495,"lng":-6.213099,"code":"3750"},"8240DB003751":{"name":"North Street","lat":53.460893,"lng":-6.218644,"code":"3751"},"8240DB003752":{"name":"Seatown West","lat":53.462413,"lng":-6.218144,"code":"3752"},"8240DB003755":{"name":"Turvey Avenue","lat":53.494283,"lng":-6.195254,"code":"3755"},"8240DB003756":{"name":"Blake's Cross","lat":53.502483,"lng":-6.191891,"code":"3756"},"8240DB003757":{"name":"Newhaggard","lat":53.504415,"lng":-6.188266,"code":"3757"},"8240DB003758":{"name":"Hannas Avenue","lat":53.50728,"lng":-6.185173,"code":"3758"},"8240DB003759":{"name":"Balleally West","lat":53.509908,"lng":-6.1801,"code":"3759"},"8240DB003760":{"name":"Bridetree","lat":53.511152,"lng":-6.177981,"code":"3760"},"8240DB003761":{"name":"Lusk Road","lat":53.515307,"lng":-6.172857,"code":"3761"},"8240DB003762":{"name":"Racecourse Commons","lat":53.518704,"lng":-6.16989,"code":"3762"},"8240DB003763":{"name":"Barrack Lane","lat":53.523668,"lng":-6.16767,"code":"3763"},"8240DB003764":{"name":"Station Road","lat":53.525325,"lng":-6.164416,"code":"3764"},"8240DB003765":{"name":"Orlynn Park","lat":53.524136,"lng":-6.160139,"code":"3765"},"8240DB003766":{"name":"Lusk House","lat":53.522365,"lng":-6.153127,"code":"3766"},"8240DB003767":{"name":"Rosewood","lat":53.522035,"lng":-6.148662,"code":"3767"},"8240DB003768":{"name":"Rogerstown Lane","lat":53.521649,"lng":-6.145783,"code":"3768"},"8240DB003769":{"name":"Beau Hill","lat":53.520502,"lng":-6.138488,"code":"3769"},"8240DB003770":{"name":"Rush & Lusk Stn","lat":53.521397,"lng":-6.144587,"code":"3770"},"8240DB003771":{"name":"Whitestown Road","lat":53.518693,"lng":-6.131389,"code":"3771"},"8240DB003772":{"name":"Spout Road","lat":53.518147,"lng":-6.126391,"code":"3772"},"8240DB003773":{"name":"Carthy's Lane","lat":53.517907,"lng":-6.123687,"code":"3773"},"8240DB003774":{"name":"Healy's Lane","lat":53.518904,"lng":-6.116223,"code":"3774"},"8240DB003775":{"name":"Millbank Court","lat":53.521514,"lng":-6.106213,"code":"3775"},"8240DB003777":{"name":"St Maur's Church","lat":53.522618,"lng":-6.101593,"code":"3777"},"8240DB003778":{"name":"Rush Main Street","lat":53.522725,"lng":-6.096989,"code":"3778"},"8240DB003780":{"name":"Chapel View","lat":53.485868,"lng":-6.148899,"code":"3780"},"8240DB003781":{"name":"Skerries Road","lat":53.523471,"lng":-6.091329,"code":"3781"},"8240DB003782":{"name":"Golden Ridge Cresc","lat":53.526085,"lng":-6.091287,"code":"3782"},"8240DB003783":{"name":"Rush Cricket Club","lat":53.529729,"lng":-6.09153,"code":"3783"},"8240DB003784":{"name":"Clifflands","lat":53.53384,"lng":-6.090621,"code":"3784"},"8240DB003785":{"name":"Rush Athletic FC","lat":53.539104,"lng":-6.092663,"code":"3785"},"8240DB003786":{"name":"Carnhill","lat":53.542242,"lng":-6.096083,"code":"3786"},"8240DB003787":{"name":"Loughshinny Cross","lat":53.546836,"lng":-6.101264,"code":"3787"},"8240DB003788":{"name":"Mine Road","lat":53.550308,"lng":-6.101984,"code":"3788"},"8240DB003789":{"name":"Thomastown Resevoir","lat":53.554136,"lng":-6.101918,"code":"3789"},"8240DB003790":{"name":"Pierstown Lane","lat":53.558631,"lng":-6.102593,"code":"3790"},"8240DB003791":{"name":"Hacketstown Cotts","lat":53.56251,"lng":-6.103476,"code":"3791"},"8240DB003792":{"name":"Hacketstown Park","lat":53.566009,"lng":-6.102489,"code":"3792"},"8240DB003793":{"name":"Shenick Road","lat":53.569908,"lng":-6.101242,"code":"3793"},"8240DB003794":{"name":"Skerries RFC","lat":53.573012,"lng":-6.101994,"code":"3794"},"8240DB003795":{"name":"Brookville Lane","lat":53.575046,"lng":-6.104425,"code":"3795"},"8240DB003797":{"name":"Strand Street","lat":53.57869,"lng":-6.106376,"code":"3797"},"8240DB003798":{"name":"Skerries","lat":53.580345,"lng":-6.107027,"code":"3798"},"8240DB003799":{"name":"Church Street","lat":53.579056,"lng":-6.110755,"code":"3799"},"8240DB003801":{"name":"North Cliff Heights","lat":53.58064,"lng":-6.127479,"code":"3801"},"8240DB003802":{"name":"Mourne View","lat":53.581822,"lng":-6.125493,"code":"3802"},"8240DB003805":{"name":"Barnageeragh Road","lat":53.585322,"lng":-6.148237,"code":"3805"},"8240DB003806":{"name":"Hampton Cove","lat":53.602977,"lng":-6.167684,"code":"3806"},